{
  "type": "FeatureCollection",
  "features": [
    {
      "type": "Feature",
      "geometry": {
        "type": "Point",
        "coordinates": [
          7.959614999999999,
          7.150816000000001
        ]
      },
      "properties": {
        "name": "OMAKIDO OPEN SPACE - OMAIDO",
        "ward": "ICHAMA II",
        "lga": "OKPOKWU",
        "state": "BENUE"
      }
    },
    {
      "type": "Feature",
      "geometry": {
        "type": "Point",
        "coordinates": [
          7.8095997,
          7.0409668
        ]
      },
      "properties": {
        "name": "AI-EJE PRIMARY SCHOOL - AI-EJE",
        "ward": "ICHAMA II",
        "lga": "OKPOKWU",
        "state": "BENUE"
      }
    },
    {
      "type": "Feature",
      "geometry": {
        "type": "Point",
        "coordinates": [
          7.788291800000001,
          6.905228699999999
        ]
      },
      "properties": {
        "name": "ICHAMA II MARKET SQUARE - ICHAMA",
        "ward": "ICHAMA II",
        "lga": "OKPOKWU",
        "state": "BENUE"
      }
    },
    {
      "type": "Feature",
      "geometry": {
        "type": "Point",
        "coordinates": [
          7.79451,
          6.90613
        ]
      },
      "properties": {
        "name": "ICHAMA CENTRAL PRIMARY SCHOOL II",
        "ward": "ICHAMA II",
        "lga": "OKPOKWU",
        "state": "BENUE"
      }
    },
    {
      "type": "Feature",
      "geometry": {
        "type": "Point",
        "coordinates": [
          7.890705000000001,
          7.013896
        ]
      },
      "properties": {
        "name": "OLAIDU PRIMARY SCHOOL - OLAIDU",
        "ward": "OJOGA",
        "lga": "OKPOKWU",
        "state": "BENUE"
      }
    },
    {
      "type": "Feature",
      "geometry": {
        "type": "Point",
        "coordinates": [
          7.959614999999999,
          7.150816000000001
        ]
      },
      "properties": {
        "name": "OJOGA I OPEN SPACE - OJOGA",
        "ward": "OJOGA",
        "lga": "OKPOKWU",
        "state": "BENUE"
      }
    },
    {
      "type": "Feature",
      "geometry": {
        "type": "Point",
        "coordinates": [
          7.788049300000001,
          6.907072299999999
        ]
      },
      "properties": {
        "name": "OJOGA II MARKET SQUARE - OJOGA",
        "ward": "OJOGA",
        "lga": "OKPOKWU",
        "state": "BENUE"
      }
    },
    {
      "type": "Feature",
      "geometry": {
        "type": "Point",
        "coordinates": [
          7.749893999999999,
          6.941157
        ]
      },
      "properties": {
        "name": "IPOLE ICHAMA PRIMARY SCHOOL - IPOLE",
        "ward": "OJOGA",
        "lga": "OKPOKWU",
        "state": "BENUE"
      }
    },
    {
      "type": "Feature",
      "geometry": {
        "type": "Point",
        "coordinates": [
          7.8109679,
          7.0406765
        ]
      },
      "properties": {
        "name": "UGWQU PRIMARY SCHOOL - UGWO",
        "ward": "OKPOGA CENTRAL",
        "lga": "OKPOKWU",
        "state": "BENUE"
      }
    },
    {
      "type": "Feature",
      "geometry": {
        "type": "Point",
        "coordinates": [
          7.8095997,
          7.0409668
        ]
      },
      "properties": {
        "name": "OKPOGA FED. LOW COST OPEN SPACE - OKPOGA",
        "ward": "OKPOGA CENTRAL",
        "lga": "OKPOKWU",
        "state": "BENUE"
      }
    },
    {
      "type": "Feature",
      "geometry": {
        "type": "Point",
        "coordinates": [
          7.855391,
          6.997364999999999
        ]
      },
      "properties": {
        "name": "EHI-CHO UGWU",
        "ward": "OKPOGA CENTRAL",
        "lga": "OKPOKWU",
        "state": "BENUE"
      }
    },
    {
      "type": "Feature",
      "geometry": {
        "type": "Point",
        "coordinates": [
          7.8085322,
          7.0207041
        ]
      },
      "properties": {
        "name": "ABOSSA CAMP DUNWADA",
        "ward": "OKPOGA CENTRAL",
        "lga": "OKPOKWU",
        "state": "BENUE"
      }
    },
    {
      "type": "Feature",
      "geometry": {
        "type": "Point",
        "coordinates": [
          7.806428,
          7.038593
        ]
      },
      "properties": {
        "name": "GENERAL HOSPITAL, OKPOGA",
        "ward": "OKPOGA CENTRAL",
        "lga": "OKPOKWU",
        "state": "BENUE"
      }
    },
    {
      "type": "Feature",
      "geometry": {
        "type": "Point",
        "coordinates": [
          7.809601600000001,
          7.0410504
        ]
      },
      "properties": {
        "name": "ST. MARY HOSPITAL, UGWU",
        "ward": "OKPOGA CENTRAL",
        "lga": "OKPOKWU",
        "state": "BENUE"
      }
    },
    {
      "type": "Feature",
      "geometry": {
        "type": "Point",
        "coordinates": [
          8.1183972,
          7.1863983
        ]
      },
      "properties": {
        "name": "DISPENSARY UMEGWU",
        "ward": "OKPOGA CENTRAL",
        "lga": "OKPOKWU",
        "state": "BENUE"
      }
    },
    {
      "type": "Feature",
      "geometry": {
        "type": "Point",
        "coordinates": [
          7.762123,
          7.078949
        ]
      },
      "properties": {
        "name": "ONO AI-DOGODO MARKET SQUARE - AI-DOGODO",
        "ward": "OKPOGA NORTH",
        "lga": "OKPOKWU",
        "state": "BENUE"
      }
    },
    {
      "type": "Feature",
      "geometry": {
        "type": "Point",
        "coordinates": [
          7.762123,
          7.078949
        ]
      },
      "properties": {
        "name": "AI-DOGODO PRIMARY SCHOOOL - AIDOGODO",
        "ward": "OKPOGA NORTH",
        "lga": "OKPOKWU",
        "state": "BENUE"
      }
    },
    {
      "type": "Feature",
      "geometry": {
        "type": "Point",
        "coordinates": [
          7.8109786,
          7.212033099999999
        ]
      },
      "properties": {
        "name": "EKE OPEN SPACE - ALAGLANU/OGWAGA",
        "ward": "OKPOGA NORTH",
        "lga": "OKPOKWU",
        "state": "BENUE"
      }
    },
    {
      "type": "Feature",
      "geometry": {
        "type": "Point",
        "coordinates": [
          7.8095997,
          7.0409668
        ]
      },
      "properties": {
        "name": "OTAMPE/OGWUCHE AKPA PRIMARY SCHOOL - OTAMPE",
        "ward": "OKPOGA NORTH",
        "lga": "OKPOKWU",
        "state": "BENUE"
      }
    },
    {
      "type": "Feature",
      "geometry": {
        "type": "Point",
        "coordinates": [
          7.7826574,
          7.060377799999999
        ]
      },
      "properties": {
        "name": "AKPARI/OKPUDU PLAY GROUND - AKPARI",
        "ward": "OKPOGA NORTH",
        "lga": "OKPOKWU",
        "state": "BENUE"
      }
    },
    {
      "type": "Feature",
      "geometry": {
        "type": "Point",
        "coordinates": [
          7.8109786,
          7.212033099999999
        ]
      },
      "properties": {
        "name": "UGBOGBO/ODEPE PLAY GROUND - UGBOGBO",
        "ward": "OKPOGA NORTH",
        "lga": "OKPOKWU",
        "state": "BENUE"
      }
    },
    {
      "type": "Feature",
      "geometry": {
        "type": "Point",
        "coordinates": [
          7.784553999999999,
          7.060245
        ]
      },
      "properties": {
        "name": "OKPUDU/OLAOCHAYI PRIMARY SCHOOL - OKPUDU",
        "ward": "OKPOGA NORTH",
        "lga": "OKPOKWU",
        "state": "BENUE"
      }
    },
    {
      "type": "Feature",
      "geometry": {
        "type": "Point",
        "coordinates": [
          7.809463999999999,
          7.039937
        ]
      },
      "properties": {
        "name": "ONO-ALIDOGODO MARKET SQUARE",
        "ward": "OKPOGA NORTH",
        "lga": "OKPOKWU",
        "state": "BENUE"
      }
    },
    {
      "type": "Feature",
      "geometry": {
        "type": "Point",
        "coordinates": [
          7.761854,
          7.078645
        ]
      },
      "properties": {
        "name": "LGEA PRIMARY SCHOOL, OGBAGA",
        "ward": "OKPOGA NORTH",
        "lga": "OKPOKWU",
        "state": "BENUE"
      }
    },
    {
      "type": "Feature",
      "geometry": {
        "type": "Point",
        "coordinates": [
          7.7826574,
          7.060377799999999
        ]
      },
      "properties": {
        "name": "OTAMPE/OGWUCHE APARI",
        "ward": "OKPOGA NORTH",
        "lga": "OKPOKWU",
        "state": "BENUE"
      }
    },
    {
      "type": "Feature",
      "geometry": {
        "type": "Point",
        "coordinates": [
          7.7826574,
          7.060377799999999
        ]
      },
      "properties": {
        "name": "ANYIRIGWAFU, OKPUDU",
        "ward": "OKPOGA NORTH",
        "lga": "OKPOKWU",
        "state": "BENUE"
      }
    },
    {
      "type": "Feature",
      "geometry": {
        "type": "Point",
        "coordinates": [
          7.884935,
          7.178344999999998
        ]
      },
      "properties": {
        "name": "OGBODO PRIMARY SCHOOL - OGBODO",
        "ward": "AMEJO",
        "lga": "OKPOKWU",
        "state": "BENUE"
      }
    },
    {
      "type": "Feature",
      "geometry": {
        "type": "Point",
        "coordinates": [
          7.847062,
          7.15178
        ]
      },
      "properties": {
        "name": "OLANYEGA COURT HALL - OLANYEGA",
        "ward": "AMEJO",
        "lga": "OKPOKWU",
        "state": "BENUE"
      }
    },
    {
      "type": "Feature",
      "geometry": {
        "type": "Point",
        "coordinates": [
          7.837342899999999,
          7.2047587
        ]
      },
      "properties": {
        "name": "OPIDLO PLAY GROUND - OPIDLO",
        "ward": "AMEJO",
        "lga": "OKPOKWU",
        "state": "BENUE"
      }
    },
    {
      "type": "Feature",
      "geometry": {
        "type": "Point",
        "coordinates": [
          7.813847000000001,
          7.153998499999999
        ]
      },
      "properties": {
        "name": "OGBEHE OGBODO OPEN SPACE",
        "ward": "AMEJO",
        "lga": "OKPOKWU",
        "state": "BENUE"
      }
    },
    {
      "type": "Feature",
      "geometry": {
        "type": "Point",
        "coordinates": [
          7.847163800000001,
          7.2253716
        ]
      },
      "properties": {
        "name": "ONYAYI PRIMARY SCHOOL",
        "ward": "AMEJO",
        "lga": "OKPOKWU",
        "state": "BENUE"
      }
    },
    {
      "type": "Feature",
      "geometry": {
        "type": "Point",
        "coordinates": [
          7.8254278,
          7.1809304
        ]
      },
      "properties": {
        "name": "ODUDA OPEN SPACE",
        "ward": "AMEJO",
        "lga": "OKPOKWU",
        "state": "BENUE"
      }
    },
    {
      "type": "Feature",
      "geometry": {
        "type": "Point",
        "coordinates": [
          7.906160399999999,
          7.035038699999999
        ]
      },
      "properties": {
        "name": "AKPOGA PLAY GROUND - AKPOGA",
        "ward": "OJIGO",
        "lga": "OKPOKWU",
        "state": "BENUE"
      }
    },
    {
      "type": "Feature",
      "geometry": {
        "type": "Point",
        "coordinates": [
          7.9314239,
          6.972156
        ]
      },
      "properties": {
        "name": "AKPODO PLAY GROUND - AKPODO",
        "ward": "OJIGO",
        "lga": "OKPOKWU",
        "state": "BENUE"
      }
    },
    {
      "type": "Feature",
      "geometry": {
        "type": "Point",
        "coordinates": [
          7.855391,
          6.997364999999999
        ]
      },
      "properties": {
        "name": "IMAFU IKPOKE PRIMARY SCHOOL - IMAFU IKPOKE",
        "ward": "OJIGO",
        "lga": "OKPOKWU",
        "state": "BENUE"
      }
    },
    {
      "type": "Feature",
      "geometry": {
        "type": "Point",
        "coordinates": [
          7.855391,
          6.997364999999999
        ]
      },
      "properties": {
        "name": "IMAFU IPOLE PRIM. SCH. - IMAFU PRIM.SCH. IMAFU IPOLE",
        "ward": "OJIGO",
        "lga": "OKPOKWU",
        "state": "BENUE"
      }
    },
    {
      "type": "Feature",
      "geometry": {
        "type": "Point",
        "coordinates": [
          7.813847000000001,
          7.153998499999999
        ]
      },
      "properties": {
        "name": "ELEGWU EFFECHE OPEN SPACE - ELUGWU",
        "ward": "OJIGO",
        "lga": "OKPOKWU",
        "state": "BENUE"
      }
    },
    {
      "type": "Feature",
      "geometry": {
        "type": "Point",
        "coordinates": [
          7.855391,
          6.997364999999999
        ]
      },
      "properties": {
        "name": "EFFENCHE AI-ONA PRIMARY SCHOOL - EFFENCHE",
        "ward": "OJIGO",
        "lga": "OKPOKWU",
        "state": "BENUE"
      }
    },
    {
      "type": "Feature",
      "geometry": {
        "type": "Point",
        "coordinates": [
          7.892411,
          6.954339
        ]
      },
      "properties": {
        "name": "AGAMUDU PLAY GROUND - AGAMUDU",
        "ward": "OJIGO",
        "lga": "OKPOKWU",
        "state": "BENUE"
      }
    },
    {
      "type": "Feature",
      "geometry": {
        "type": "Point",
        "coordinates": [
          7.9220532,
          7.0246571
        ]
      },
      "properties": {
        "name": "OJAPO MARKET SQUARE - OJAPO",
        "ward": "OJIGO",
        "lga": "OKPOKWU",
        "state": "BENUE"
      }
    },
    {
      "type": "Feature",
      "geometry": {
        "type": "Point",
        "coordinates": [
          7.81788,
          7.1145948
        ]
      },
      "properties": {
        "name": "EFFIOM I PLAY GROUND - EFFIOM",
        "ward": "OJIGO",
        "lga": "OKPOKWU",
        "state": "BENUE"
      }
    },
    {
      "type": "Feature",
      "geometry": {
        "type": "Point",
        "coordinates": [
          8.1460733,
          7.1925596
        ]
      },
      "properties": {
        "name": "EFFIOM II PLAY GROUND - EFFIOM",
        "ward": "OJIGO",
        "lga": "OKPOKWU",
        "state": "BENUE"
      }
    },
    {
      "type": "Feature",
      "geometry": {
        "type": "Point",
        "coordinates": [
          7.8109786,
          7.212033099999999
        ]
      },
      "properties": {
        "name": "AGWANGWE ANMODA PLAY GROUND - AGWANGWE",
        "ward": "OJIGO",
        "lga": "OKPOKWU",
        "state": "BENUE"
      }
    },
    {
      "type": "Feature",
      "geometry": {
        "type": "Point",
        "coordinates": [
          7.809561899999999,
          7.2114674
        ]
      },
      "properties": {
        "name": "OMUSU AKANA PRIMARY SCHOOL - OMUSU",
        "ward": "OJIGO",
        "lga": "OKPOKWU",
        "state": "BENUE"
      }
    },
    {
      "type": "Feature",
      "geometry": {
        "type": "Point",
        "coordinates": [
          7.985655,
          6.992712
        ]
      },
      "properties": {
        "name": "OKPOLIKPO PLAY GROUND - OKPOLIKPO",
        "ward": "OJIGO",
        "lga": "OKPOKWU",
        "state": "BENUE"
      }
    },
    {
      "type": "Feature",
      "geometry": {
        "type": "Point",
        "coordinates": [
          7.988353000000001,
          7.037611999999999
        ]
      },
      "properties": {
        "name": "OLADEGBO PLAY GROUND OLADEGBO",
        "ward": "OJIGO",
        "lga": "OKPOKWU",
        "state": "BENUE"
      }
    },
    {
      "type": "Feature",
      "geometry": {
        "type": "Point",
        "coordinates": [
          7.957826799999999,
          7.030928599999999
        ]
      },
      "properties": {
        "name": "OPIALU I PLAY GROUND - OPIALU",
        "ward": "OJIGO",
        "lga": "OKPOKWU",
        "state": "BENUE"
      }
    },
    {
      "type": "Feature",
      "geometry": {
        "type": "Point",
        "coordinates": [
          7.957826799999999,
          7.030928599999999
        ]
      },
      "properties": {
        "name": "OPIALU II MARKET SQUARE - OPIALU",
        "ward": "OJIGO",
        "lga": "OKPOKWU",
        "state": "BENUE"
      }
    },
    {
      "type": "Feature",
      "geometry": {
        "type": "Point",
        "coordinates": [
          7.941597000000001,
          7.058818
        ]
      },
      "properties": {
        "name": "OJIGO TOWN PLAY GROUND - OJIGO TOWN",
        "ward": "OJIGO",
        "lga": "OKPOKWU",
        "state": "BENUE"
      }
    },
    {
      "type": "Feature",
      "geometry": {
        "type": "Point",
        "coordinates": [
          7.81788,
          7.1145948
        ]
      },
      "properties": {
        "name": "OLAIDU PLAY GROAUND - OLAIDU",
        "ward": "OJIGO",
        "lga": "OKPOKWU",
        "state": "BENUE"
      }
    },
    {
      "type": "Feature",
      "geometry": {
        "type": "Point",
        "coordinates": [
          7.81788,
          7.1145948
        ]
      },
      "properties": {
        "name": "EJAMA PLAY GROUND - EJAMA",
        "ward": "OJIGO",
        "lga": "OKPOKWU",
        "state": "BENUE"
      }
    },
    {
      "type": "Feature",
      "geometry": {
        "type": "Point",
        "coordinates": [
          7.9220532,
          7.0246571
        ]
      },
      "properties": {
        "name": "OJAPO MARKET SQUARE II",
        "ward": "OJIGO",
        "lga": "OKPOKWU",
        "state": "BENUE"
      }
    },
    {
      "type": "Feature",
      "geometry": {
        "type": "Point",
        "coordinates": [
          7.9314239,
          6.972156
        ]
      },
      "properties": {
        "name": "OJIGO TOWN PLAYGROUND II",
        "ward": "OJIGO",
        "lga": "OKPOKWU",
        "state": "BENUE"
      }
    },
    {
      "type": "Feature",
      "geometry": {
        "type": "Point",
        "coordinates": [
          7.7562362,
          7.0266885
        ]
      },
      "properties": {
        "name": "EDE MARKET SQUARE - EDE",
        "ward": "OKPOGA WEST",
        "lga": "OKPOKWU",
        "state": "BENUE"
      }
    },
    {
      "type": "Feature",
      "geometry": {
        "type": "Point",
        "coordinates": [
          7.757076000000001,
          7.000387
        ]
      },
      "properties": {
        "name": "OGENE OPEN SPACE - OGENE",
        "ward": "OKPOGA WEST",
        "lga": "OKPOKWU",
        "state": "BENUE"
      }
    },
    {
      "type": "Feature",
      "geometry": {
        "type": "Point",
        "coordinates": [
          7.809561899999999,
          7.2114674
        ]
      },
      "properties": {
        "name": "AJIDE PRIMARY SCHOOL - AJIDE",
        "ward": "EKE",
        "lga": "OKPOKWU",
        "state": "BENUE"
      }
    },
    {
      "type": "Feature",
      "geometry": {
        "type": "Point",
        "coordinates": [
          7.8109786,
          7.212033099999999
        ]
      },
      "properties": {
        "name": "OMAIKPO PLAY GROUND - OMAIKPO",
        "ward": "EKE",
        "lga": "OKPOKWU",
        "state": "BENUE"
      }
    },
    {
      "type": "Feature",
      "geometry": {
        "type": "Point",
        "coordinates": [
          8.1460733,
          7.1925596
        ]
      },
      "properties": {
        "name": "OMLOKPO PLAY GROUND - OMLOKPO",
        "ward": "EKE",
        "lga": "OKPOKWU",
        "state": "BENUE"
      }
    },
    {
      "type": "Feature",
      "geometry": {
        "type": "Point",
        "coordinates": [
          7.938828000000001,
          7.145896
        ]
      },
      "properties": {
        "name": "OLENGBECHO OPEN SPACE - OLENGBECHO",
        "ward": "EKE",
        "lga": "OKPOKWU",
        "state": "BENUE"
      }
    },
    {
      "type": "Feature",
      "geometry": {
        "type": "Point",
        "coordinates": [
          8.1460733,
          7.1925596
        ]
      },
      "properties": {
        "name": "OTODU-EHAJE PLAY GROUND - OTODU-EHAJE",
        "ward": "EKE",
        "lga": "OKPOKWU",
        "state": "BENUE"
      }
    },
    {
      "type": "Feature",
      "geometry": {
        "type": "Point",
        "coordinates": [
          7.959614999999999,
          7.150816000000001
        ]
      },
      "properties": {
        "name": "EKWU I PLAY GROUND - EKWU",
        "ward": "EKE",
        "lga": "OKPOKWU",
        "state": "BENUE"
      }
    },
    {
      "type": "Feature",
      "geometry": {
        "type": "Point",
        "coordinates": [
          7.959614999999999,
          7.150816000000001
        ]
      },
      "properties": {
        "name": "EKWU II PLAY GROUND - EKWU",
        "ward": "EKE",
        "lga": "OKPOKWU",
        "state": "BENUE"
      }
    },
    {
      "type": "Feature",
      "geometry": {
        "type": "Point",
        "coordinates": [
          7.959614999999999,
          7.150816000000001
        ]
      },
      "properties": {
        "name": "AIKPASU OPEN SPACE OGBLEGA-EHAJI",
        "ward": "EKE",
        "lga": "OKPOKWU",
        "state": "BENUE"
      }
    },
    {
      "type": "Feature",
      "geometry": {
        "type": "Point",
        "coordinates": [
          7.813847000000001,
          7.153998499999999
        ]
      },
      "properties": {
        "name": "OGODUMU OPEN SPACE - OGODUMU",
        "ward": "EKE",
        "lga": "OKPOKWU",
        "state": "BENUE"
      }
    },
    {
      "type": "Feature",
      "geometry": {
        "type": "Point",
        "coordinates": [
          7.938828000000001,
          7.145896
        ]
      },
      "properties": {
        "name": "JERICHO EKE PRIMARY SCHOOL - JERICHO-EKE",
        "ward": "EKE",
        "lga": "OKPOKWU",
        "state": "BENUE"
      }
    },
    {
      "type": "Feature",
      "geometry": {
        "type": "Point",
        "coordinates": [
          8.5032863,
          7.7151777
        ]
      },
      "properties": {
        "name": "AJIDE OPEN SPACE - AJIDE",
        "ward": "EKE",
        "lga": "OKPOKWU",
        "state": "BENUE"
      }
    },
    {
      "type": "Feature",
      "geometry": {
        "type": "Point",
        "coordinates": [
          7.6507818,
          6.866728300000001
        ]
      },
      "properties": {
        "name": "EKE MARKET OPEN SPACE",
        "ward": "EKE",
        "lga": "OKPOKWU",
        "state": "BENUE"
      }
    },
    {
      "type": "Feature",
      "geometry": {
        "type": "Point",
        "coordinates": [
          7.8109786,
          7.212033099999999
        ]
      },
      "properties": {
        "name": "AI-ADOGBO PLAY GROUND",
        "ward": "EKE",
        "lga": "OKPOKWU",
        "state": "BENUE"
      }
    },
    {
      "type": "Feature",
      "geometry": {
        "type": "Point",
        "coordinates": [
          7.813847000000001,
          7.153998499999999
        ]
      },
      "properties": {
        "name": "OLEMGBECHO CAMP",
        "ward": "EKE",
        "lga": "OKPOKWU",
        "state": "BENUE"
      }
    },
    {
      "type": "Feature",
      "geometry": {
        "type": "Point",
        "coordinates": [
          7.809686,
          7.152443
        ]
      },
      "properties": {
        "name": "EFFOYO PRIMARY SCHOOL - EFFOYO",
        "ward": "OKONOBO",
        "lga": "OKPOKWU",
        "state": "BENUE"
      }
    },
    {
      "type": "Feature",
      "geometry": {
        "type": "Point",
        "coordinates": [
          7.8180377,
          7.0689363
        ]
      },
      "properties": {
        "name": "OKOTO/OLLO PRIMARY SCHOOL - OKOTO",
        "ward": "OKONOBO",
        "lga": "OKPOKWU",
        "state": "BENUE"
      }
    },
    {
      "type": "Feature",
      "geometry": {
        "type": "Point",
        "coordinates": [
          7.8472408,
          7.1515942
        ]
      },
      "properties": {
        "name": "IWEWE PLAY GROUND - IWEWE",
        "ward": "OKONOBO",
        "lga": "OKPOKWU",
        "state": "BENUE"
      }
    },
    {
      "type": "Feature",
      "geometry": {
        "type": "Point",
        "coordinates": [
          7.81788,
          7.1145948
        ]
      },
      "properties": {
        "name": "OLAGO PLAY GROUND - OLAGO",
        "ward": "OKONOBO",
        "lga": "OKPOKWU",
        "state": "BENUE"
      }
    },
    {
      "type": "Feature",
      "geometry": {
        "type": "Point",
        "coordinates": [
          8.5032863,
          7.7151777
        ]
      },
      "properties": {
        "name": "IGBANDLA OPEN SPACE, OKPAFIE",
        "ward": "OKONOBO",
        "lga": "OKPOKWU",
        "state": "BENUE"
      }
    },
    {
      "type": "Feature",
      "geometry": {
        "type": "Point",
        "coordinates": [
          8.1393179,
          7.1982133
        ]
      },
      "properties": {
        "name": "UJAH PLAYGROUND, OKONOBO",
        "ward": "OKONOBO",
        "lga": "OKPOKWU",
        "state": "BENUE"
      }
    },
    {
      "type": "Feature",
      "geometry": {
        "type": "Point",
        "coordinates": [
          7.855391,
          6.997364999999999
        ]
      },
      "properties": {
        "name": "OTANUFIE PRIMARY SCHOOL - OTANUFIE",
        "ward": "OKPAILE/INGLE",
        "lga": "OKPOKWU",
        "state": "BENUE"
      }
    },
    {
      "type": "Feature",
      "geometry": {
        "type": "Point",
        "coordinates": [
          7.855391,
          6.997364999999999
        ]
      },
      "properties": {
        "name": "OKPALE OTTA PRIMARY SCHOOL - OKPALE-OTTA",
        "ward": "OKPAILE/INGLE",
        "lga": "OKPOKWU",
        "state": "BENUE"
      }
    },
    {
      "type": "Feature",
      "geometry": {
        "type": "Point",
        "coordinates": [
          7.813847000000001,
          7.153998499999999
        ]
      },
      "properties": {
        "name": "UBEGBA PLAY GROUND - UBEGBA",
        "ward": "OKPAILE/INGLE",
        "lga": "OKPOKWU",
        "state": "BENUE"
      }
    },
    {
      "type": "Feature",
      "geometry": {
        "type": "Point",
        "coordinates": [
          7.81788,
          7.1145948
        ]
      },
      "properties": {
        "name": "AI-OJOGWU PLAYGROUND",
        "ward": "OKPAILE/INGLE",
        "lga": "OKPOKWU",
        "state": "BENUE"
      }
    },
    {
      "type": "Feature",
      "geometry": {
        "type": "Point",
        "coordinates": [
          8.1460733,
          7.1925596
        ]
      },
      "properties": {
        "name": "OLALEJE PLAYGROUND, OLAICHE",
        "ward": "OKPAILE/INGLE",
        "lga": "OKPOKWU",
        "state": "BENUE"
      }
    },
    {
      "type": "Feature",
      "geometry": {
        "type": "Point",
        "coordinates": [
          7.8109786,
          7.212033099999999
        ]
      },
      "properties": {
        "name": "AKPITODO PLAYGROUND, IPOYA",
        "ward": "OKPAILE/INGLE",
        "lga": "OKPOKWU",
        "state": "BENUE"
      }
    },
    {
      "type": "Feature",
      "geometry": {
        "type": "Point",
        "coordinates": [
          7.809561899999999,
          7.2114674
        ]
      },
      "properties": {
        "name": "AI-OKPE PRIMARY SCHOOL - AI-OKPE",
        "ward": "UGBOKOLO",
        "lga": "OKPOKWU",
        "state": "BENUE"
      }
    },
    {
      "type": "Feature",
      "geometry": {
        "type": "Point",
        "coordinates": [
          7.809561899999999,
          7.2114674
        ]
      },
      "properties": {
        "name": "EFFA I PRIMARY SCHOOL - EFFA I",
        "ward": "UGBOKOLO",
        "lga": "OKPOKWU",
        "state": "BENUE"
      }
    },
    {
      "type": "Feature",
      "geometry": {
        "type": "Point",
        "coordinates": [
          5.012007,
          7.4045735
        ]
      },
      "properties": {
        "name": "ONDO PLAY GROUND - ONDO",
        "ward": "UGBOKOLO",
        "lga": "OKPOKWU",
        "state": "BENUE"
      }
    },
    {
      "type": "Feature",
      "geometry": {
        "type": "Point",
        "coordinates": [
          7.809561899999999,
          7.2114674
        ]
      },
      "properties": {
        "name": "AI-IKPLA PRIMARY SCHOOL - AI-IKPLA",
        "ward": "UGBOKOLO",
        "lga": "OKPOKWU",
        "state": "BENUE"
      }
    },
    {
      "type": "Feature",
      "geometry": {
        "type": "Point",
        "coordinates": [
          7.767424999999999,
          7.184055000000001
        ]
      },
      "properties": {
        "name": "AKPALI PLAY GROUND - AKPALI",
        "ward": "UGBOKOLO",
        "lga": "OKPOKWU",
        "state": "BENUE"
      }
    },
    {
      "type": "Feature",
      "geometry": {
        "type": "Point",
        "coordinates": [
          7.803908599999999,
          7.1561506
        ]
      },
      "properties": {
        "name": "OKWUNGAGAV/EFFECHE OPEN SPACE - OKWUNGAGAV",
        "ward": "UGBOKOLO",
        "lga": "OKPOKWU",
        "state": "BENUE"
      }
    },
    {
      "type": "Feature",
      "geometry": {
        "type": "Point",
        "coordinates": [
          7.7869495,
          7.1495487
        ]
      },
      "properties": {
        "name": "ODESSASSA PRIMARY SCHOOL II - ODESSASSA",
        "ward": "UGBOKOLO",
        "lga": "OKPOKWU",
        "state": "BENUE"
      }
    },
    {
      "type": "Feature",
      "geometry": {
        "type": "Point",
        "coordinates": [
          7.813847000000001,
          7.153998499999999
        ]
      },
      "properties": {
        "name": "BEN POLY SCHOOL GARDEN - UGBOKOLO",
        "ward": "UGBOKOLO",
        "lga": "OKPOKWU",
        "state": "BENUE"
      }
    },
    {
      "type": "Feature",
      "geometry": {
        "type": "Point",
        "coordinates": [
          7.788395299999999,
          7.155079199999999
        ]
      },
      "properties": {
        "name": "ODESSASSA MARKET SQUARE I - ODESSASSA",
        "ward": "UGBOKOLO",
        "lga": "OKPOKWU",
        "state": "BENUE"
      }
    },
    {
      "type": "Feature",
      "geometry": {
        "type": "Point",
        "coordinates": [
          7.788645300000001,
          7.1558221
        ]
      },
      "properties": {
        "name": "ODESSASSA MARKET SQUARE II",
        "ward": "UGBOKOLO",
        "lga": "OKPOKWU",
        "state": "BENUE"
      }
    },
    {
      "type": "Feature",
      "geometry": {
        "type": "Point",
        "coordinates": [
          7.8034682,
          7.152357899999999
        ]
      },
      "properties": {
        "name": "DISPENSARY OPEN SPACE - UGBOKOLO",
        "ward": "UGBOKOLO",
        "lga": "OKPOKWU",
        "state": "BENUE"
      }
    },
    {
      "type": "Feature",
      "geometry": {
        "type": "Point",
        "coordinates": [
          7.778701,
          7.199907000000001
        ]
      },
      "properties": {
        "name": "OKUNGAGA/LGEA PRIMARY SCHOOL",
        "ward": "UGBOKOLO",
        "lga": "OKPOKWU",
        "state": "BENUE"
      }
    },
    {
      "type": "Feature",
      "geometry": {
        "type": "Point",
        "coordinates": [
          7.813847000000001,
          7.153998499999999
        ]
      },
      "properties": {
        "name": "BEN POLY GARDEN II",
        "ward": "UGBOKOLO",
        "lga": "OKPOKWU",
        "state": "BENUE"
      }
    },
    {
      "type": "Feature",
      "geometry": {
        "type": "Point",
        "coordinates": [
          7.788645300000001,
          7.1558221
        ]
      },
      "properties": {
        "name": "ODESSASA MARKET SQUARE III",
        "ward": "UGBOKOLO",
        "lga": "OKPOKWU",
        "state": "BENUE"
      }
    },
    {
      "type": "Feature",
      "geometry": {
        "type": "Point",
        "coordinates": [
          7.8095997,
          7.0409668
        ]
      },
      "properties": {
        "name": "DAINA MARKET SQUARE",
        "ward": "OKPOGA SOUTH",
        "lga": "OKPOKWU",
        "state": "BENUE"
      }
    },
    {
      "type": "Feature",
      "geometry": {
        "type": "Point",
        "coordinates": [
          7.8045878,
          6.9960688
        ]
      },
      "properties": {
        "name": "AMEJU LGEA - AMEJU",
        "ward": "OKPOGA SOUTH",
        "lga": "OKPOKWU",
        "state": "BENUE"
      }
    },
    {
      "type": "Feature",
      "geometry": {
        "type": "Point",
        "coordinates": [
          7.8085322,
          7.0207041
        ]
      },
      "properties": {
        "name": "ODIKPO PRIMARY SCHOOL - ODIKPO",
        "ward": "OKPOGA SOUTH",
        "lga": "OKPOKWU",
        "state": "BENUE"
      }
    },
    {
      "type": "Feature",
      "geometry": {
        "type": "Point",
        "coordinates": [
          7.6507818,
          6.866728300000001
        ]
      },
      "properties": {
        "name": "EKE MARKET SQUARE, EKE",
        "ward": "OKPOGA SOUTH",
        "lga": "OKPOKWU",
        "state": "BENUE"
      }
    },
    {
      "type": "Feature",
      "geometry": {
        "type": "Point",
        "coordinates": [
          7.406453200000001,
          9.1034966
        ]
      },
      "properties": {
        "name": "NEAR TSE VISHIGH COMPOUND",
        "ward": "MBAA VARAKAA",
        "lga": "GBOKO",
        "state": "BENUE"
      }
    },
    {
      "type": "Feature",
      "geometry": {
        "type": "Point",
        "coordinates": [
          9.0007749,
          7.329086699999999
        ]
      },
      "properties": {
        "name": "LGEA PRIMARY SCHOOL ZAKI",
        "ward": "MBAA VARAKAA",
        "lga": "GBOKO",
        "state": "BENUE"
      }
    },
    {
      "type": "Feature",
      "geometry": {
        "type": "Point",
        "coordinates": [
          9.0470817,
          7.3154044
        ]
      },
      "properties": {
        "name": "MARKET SQUARE - ANIKPENGER I",
        "ward": "MBAA VARAKAA",
        "lga": "GBOKO",
        "state": "BENUE"
      }
    },
    {
      "type": "Feature",
      "geometry": {
        "type": "Point",
        "coordinates": [
          8.977777,
          7.3547901
        ]
      },
      "properties": {
        "name": "NEAR IANGE ZUZO COMPOUND",
        "ward": "MBAA VARAKAA",
        "lga": "GBOKO",
        "state": "BENUE"
      }
    },
    {
      "type": "Feature",
      "geometry": {
        "type": "Point",
        "coordinates": [
          8.9702709,
          7.307194600000001
        ]
      },
      "properties": {
        "name": "NEAR IANGE ZUZO COMPOUND II",
        "ward": "MBAA VARAKAA",
        "lga": "GBOKO",
        "state": "BENUE"
      }
    },
    {
      "type": "Feature",
      "geometry": {
        "type": "Point",
        "coordinates": [
          9.0050022,
          7.3249966
        ]
      },
      "properties": {
        "name": "MARKET SQUARE - ACHIDAM",
        "ward": "MBAA VARAKAA",
        "lga": "GBOKO",
        "state": "BENUE"
      }
    },
    {
      "type": "Feature",
      "geometry": {
        "type": "Point",
        "coordinates": [
          8.9985584,
          7.3362944
        ]
      },
      "properties": {
        "name": "MARKET SQURE MBAMANGEDA ATELU",
        "ward": "MBAA VARAKAA",
        "lga": "GBOKO",
        "state": "BENUE"
      }
    },
    {
      "type": "Feature",
      "geometry": {
        "type": "Point",
        "coordinates": [
          9.0022797,
          7.3177763
        ]
      },
      "properties": {
        "name": "MARKET SQUARE - NEGE",
        "ward": "MBAA VARAKAA",
        "lga": "GBOKO",
        "state": "BENUE"
      }
    },
    {
      "type": "Feature",
      "geometry": {
        "type": "Point",
        "coordinates": [
          8.828532,
          7.389439
        ]
      },
      "properties": {
        "name": "LGEA PRIMARY SCHOOL AGERA",
        "ward": "MBAA VARAKAA",
        "lga": "GBOKO",
        "state": "BENUE"
      }
    },
    {
      "type": "Feature",
      "geometry": {
        "type": "Point",
        "coordinates": [
          9.0150429,
          7.336137399999999
        ]
      },
      "properties": {
        "name": "GBOKO EAST, NR DOMINIC I HUGH COMP",
        "ward": "GBOKO EAST",
        "lga": "GBOKO",
        "state": "BENUE"
      }
    },
    {
      "type": "Feature",
      "geometry": {
        "type": "Point",
        "coordinates": [
          9.0023385,
          7.3367967
        ]
      },
      "properties": {
        "name": "MARKET SQUARE ADEKAA MAIN",
        "ward": "GBOKO EAST",
        "lga": "GBOKO",
        "state": "BENUE"
      }
    },
    {
      "type": "Feature",
      "geometry": {
        "type": "Point",
        "coordinates": [
          9.0050022,
          7.3249966
        ]
      },
      "properties": {
        "name": "HOTEL QUEENS GARDEN I",
        "ward": "GBOKO EAST",
        "lga": "GBOKO",
        "state": "BENUE"
      }
    },
    {
      "type": "Feature",
      "geometry": {
        "type": "Point",
        "coordinates": [
          9.0050022,
          7.3249966
        ]
      },
      "properties": {
        "name": "HOTEL QUEENS GARDEN II",
        "ward": "GBOKO EAST",
        "lga": "GBOKO",
        "state": "BENUE"
      }
    },
    {
      "type": "Feature",
      "geometry": {
        "type": "Point",
        "coordinates": [
          9.0249653,
          7.348308299999999
        ]
      },
      "properties": {
        "name": "NR AYUA COMP M.O.W.",
        "ward": "GBOKO EAST",
        "lga": "GBOKO",
        "state": "BENUE"
      }
    },
    {
      "type": "Feature",
      "geometry": {
        "type": "Point",
        "coordinates": [
          9.0150429,
          7.336137399999999
        ]
      },
      "properties": {
        "name": "GBOKO EAST, (NEAR ATSUE ATUNGWA COMPOUND",
        "ward": "GBOKO EAST",
        "lga": "GBOKO",
        "state": "BENUE"
      }
    },
    {
      "type": "Feature",
      "geometry": {
        "type": "Point",
        "coordinates": [
          9.0150429,
          7.336137399999999
        ]
      },
      "properties": {
        "name": "GBOKO EAST, NR APER SHINYI COMP",
        "ward": "GBOKO EAST",
        "lga": "GBOKO",
        "state": "BENUE"
      }
    },
    {
      "type": "Feature",
      "geometry": {
        "type": "Point",
        "coordinates": [
          9.0101299,
          7.334004600000001
        ]
      },
      "properties": {
        "name": "GBOKO EAST, NR GBAFAN COMP",
        "ward": "GBOKO EAST",
        "lga": "GBOKO",
        "state": "BENUE"
      }
    },
    {
      "type": "Feature",
      "geometry": {
        "type": "Point",
        "coordinates": [
          9.0150429,
          7.336137399999999
        ]
      },
      "properties": {
        "name": "GBOKO EAST, INF. OF MADAM SOCIAL",
        "ward": "GBOKO EAST",
        "lga": "GBOKO",
        "state": "BENUE"
      }
    },
    {
      "type": "Feature",
      "geometry": {
        "type": "Point",
        "coordinates": [
          9.0106479,
          7.327149100000001
        ]
      },
      "properties": {
        "name": "PRIMARY SCHOOL, ST. PETERS",
        "ward": "GBOKO EAST",
        "lga": "GBOKO",
        "state": "BENUE"
      }
    },
    {
      "type": "Feature",
      "geometry": {
        "type": "Point",
        "coordinates": [
          9.0007749,
          7.329086699999999
        ]
      },
      "properties": {
        "name": "PRIMARY SCHOOL, NR ANYAMNYIAN COMP",
        "ward": "GBOKO EAST",
        "lga": "GBOKO",
        "state": "BENUE"
      }
    },
    {
      "type": "Feature",
      "geometry": {
        "type": "Point",
        "coordinates": [
          9.0150429,
          7.336137399999999
        ]
      },
      "properties": {
        "name": "GBOKO EAST, NR ORAFAGA DEM COMP",
        "ward": "GBOKO EAST",
        "lga": "GBOKO",
        "state": "BENUE"
      }
    },
    {
      "type": "Feature",
      "geometry": {
        "type": "Point",
        "coordinates": [
          9.0150429,
          7.336137399999999
        ]
      },
      "properties": {
        "name": "GBOKO EAST, NR. IYOUGHTA COMP",
        "ward": "GBOKO EAST",
        "lga": "GBOKO",
        "state": "BENUE"
      }
    },
    {
      "type": "Feature",
      "geometry": {
        "type": "Point",
        "coordinates": [
          9.0150429,
          7.336137399999999
        ]
      },
      "properties": {
        "name": "GBOKO EAST, NR JOHN AWEN COMP",
        "ward": "GBOKO EAST",
        "lga": "GBOKO",
        "state": "BENUE"
      }
    },
    {
      "type": "Feature",
      "geometry": {
        "type": "Point",
        "coordinates": [
          8.9879427,
          7.327252100000001
        ]
      },
      "properties": {
        "name": "JOS STREET PRIMIER HOTEL",
        "ward": "GBOKO EAST",
        "lga": "GBOKO",
        "state": "BENUE"
      }
    },
    {
      "type": "Feature",
      "geometry": {
        "type": "Point",
        "coordinates": [
          9.0175732,
          7.318956200000001
        ]
      },
      "properties": {
        "name": "NUR/PRIMARY SCH. GBAA MAKAR",
        "ward": "GBOKO EAST",
        "lga": "GBOKO",
        "state": "BENUE"
      }
    },
    {
      "type": "Feature",
      "geometry": {
        "type": "Point",
        "coordinates": [
          9.0101299,
          7.334004600000001
        ]
      },
      "properties": {
        "name": "GBOKO EAST, NR IPEVER COMP",
        "ward": "GBOKO EAST",
        "lga": "GBOKO",
        "state": "BENUE"
      }
    },
    {
      "type": "Feature",
      "geometry": {
        "type": "Point",
        "coordinates": [
          9.0101299,
          7.334004600000001
        ]
      },
      "properties": {
        "name": "GBOKO EAST, NR ATAKPA COMP",
        "ward": "GBOKO EAST",
        "lga": "GBOKO",
        "state": "BENUE"
      }
    },
    {
      "type": "Feature",
      "geometry": {
        "type": "Point",
        "coordinates": [
          9.0101299,
          7.334004600000001
        ]
      },
      "properties": {
        "name": "GBOKO EAST, NR AYAKPAM COMP",
        "ward": "GBOKO EAST",
        "lga": "GBOKO",
        "state": "BENUE"
      }
    },
    {
      "type": "Feature",
      "geometry": {
        "type": "Point",
        "coordinates": [
          9.0101299,
          7.334004600000001
        ]
      },
      "properties": {
        "name": "GBOKO EAST, (NEAR YANDEV DZEVER COMPOUND)",
        "ward": "GBOKO EAST",
        "lga": "GBOKO",
        "state": "BENUE"
      }
    },
    {
      "type": "Feature",
      "geometry": {
        "type": "Point",
        "coordinates": [
          9.0150429,
          7.336137399999999
        ]
      },
      "properties": {
        "name": "GBOKO EAST, NR ANDOOR COMP",
        "ward": "GBOKO EAST",
        "lga": "GBOKO",
        "state": "BENUE"
      }
    },
    {
      "type": "Feature",
      "geometry": {
        "type": "Point",
        "coordinates": [
          9.0101299,
          7.334004600000001
        ]
      },
      "properties": {
        "name": "GBOKO EAST, (NEAR UKPULU KPISHI COMPOUND",
        "ward": "GBOKO EAST",
        "lga": "GBOKO",
        "state": "BENUE"
      }
    },
    {
      "type": "Feature",
      "geometry": {
        "type": "Point",
        "coordinates": [
          9.0101299,
          7.334004600000001
        ]
      },
      "properties": {
        "name": "GBOKO EAST, NEAR REV. FR. MAAER COMP",
        "ward": "GBOKO EAST",
        "lga": "GBOKO",
        "state": "BENUE"
      }
    },
    {
      "type": "Feature",
      "geometry": {
        "type": "Point",
        "coordinates": [
          8.9922283,
          7.3552779
        ]
      },
      "properties": {
        "name": "OPP. S. MARKET, OPP. UNION SUP MARKET",
        "ward": "GBOKO EAST",
        "lga": "GBOKO",
        "state": "BENUE"
      }
    },
    {
      "type": "Feature",
      "geometry": {
        "type": "Point",
        "coordinates": [
          8.9934619,
          7.3318016
        ]
      },
      "properties": {
        "name": "BAR DOOSHIMA (ALMB)",
        "ward": "GBOKO EAST",
        "lga": "GBOKO",
        "state": "BENUE"
      }
    },
    {
      "type": "Feature",
      "geometry": {
        "type": "Point",
        "coordinates": [
          8.9985549,
          7.3227379
        ]
      },
      "properties": {
        "name": "J.S. TARKA WAY - NR ABU FAMILY CLUB",
        "ward": "GBOKO EAST",
        "lga": "GBOKO",
        "state": "BENUE"
      }
    },
    {
      "type": "Feature",
      "geometry": {
        "type": "Point",
        "coordinates": [
          9.0101299,
          7.334004600000001
        ]
      },
      "properties": {
        "name": "GBOKO EAST - NR IORSHAMBER COMP",
        "ward": "GBOKO EAST",
        "lga": "GBOKO",
        "state": "BENUE"
      }
    },
    {
      "type": "Feature",
      "geometry": {
        "type": "Point",
        "coordinates": [
          9.0101299,
          7.334004600000001
        ]
      },
      "properties": {
        "name": "GBOKO EAST - NR MAJO AKANDE COMP",
        "ward": "GBOKO EAST",
        "lga": "GBOKO",
        "state": "BENUE"
      }
    },
    {
      "type": "Feature",
      "geometry": {
        "type": "Point",
        "coordinates": [
          9.0101299,
          7.334004600000001
        ]
      },
      "properties": {
        "name": "GBOKO EAST, NR ABUUL JIJA COMP",
        "ward": "GBOKO EAST",
        "lga": "GBOKO",
        "state": "BENUE"
      }
    },
    {
      "type": "Feature",
      "geometry": {
        "type": "Point",
        "coordinates": [
          9.0150429,
          7.336137399999999
        ]
      },
      "properties": {
        "name": "GBOKO EAST - BEHIND ACB OPEN SPACE",
        "ward": "GBOKO EAST",
        "lga": "GBOKO",
        "state": "BENUE"
      }
    },
    {
      "type": "Feature",
      "geometry": {
        "type": "Point",
        "coordinates": [
          9.0264622,
          7.3185647
        ]
      },
      "properties": {
        "name": "MKAR ROAD, GSS GBOKO GATE",
        "ward": "GBOKO EAST",
        "lga": "GBOKO",
        "state": "BENUE"
      }
    },
    {
      "type": "Feature",
      "geometry": {
        "type": "Point",
        "coordinates": [
          9.0329875,
          7.339555300000001
        ]
      },
      "properties": {
        "name": "GBOKO EAST (NEAR TARZA IKYUMBUR COMPOUND)",
        "ward": "GBOKO EAST",
        "lga": "GBOKO",
        "state": "BENUE"
      }
    },
    {
      "type": "Feature",
      "geometry": {
        "type": "Point",
        "coordinates": [
          9.0150429,
          7.336137399999999
        ]
      },
      "properties": {
        "name": "GBOKO EAST - MADAM KUTA COMP",
        "ward": "GBOKO EAST",
        "lga": "GBOKO",
        "state": "BENUE"
      }
    },
    {
      "type": "Feature",
      "geometry": {
        "type": "Point",
        "coordinates": [
          9.0050022,
          7.3249966
        ]
      },
      "properties": {
        "name": "GUEST HOUSE - NR NATO GUEST INN",
        "ward": "GBOKO EAST",
        "lga": "GBOKO",
        "state": "BENUE"
      }
    },
    {
      "type": "Feature",
      "geometry": {
        "type": "Point",
        "coordinates": [
          9.0329875,
          7.339555300000001
        ]
      },
      "properties": {
        "name": "GBOKO EAST - NR INNOCENT MOJI COMP I",
        "ward": "GBOKO EAST",
        "lga": "GBOKO",
        "state": "BENUE"
      }
    },
    {
      "type": "Feature",
      "geometry": {
        "type": "Point",
        "coordinates": [
          9.0329875,
          7.339555300000001
        ]
      },
      "properties": {
        "name": "GBOKO EAST - NR INNOCENT MOJI COMP II",
        "ward": "GBOKO EAST",
        "lga": "GBOKO",
        "state": "BENUE"
      }
    },
    {
      "type": "Feature",
      "geometry": {
        "type": "Point",
        "coordinates": [
          9.0264622,
          7.3185647
        ]
      },
      "properties": {
        "name": "GBOKO EAST, G.S.S. GBOKO - NUR/PRIMARY SCHOOL PREMISES",
        "ward": "GBOKO EAST",
        "lga": "GBOKO",
        "state": "BENUE"
      }
    },
    {
      "type": "Feature",
      "geometry": {
        "type": "Point",
        "coordinates": [
          9.0150429,
          7.336137399999999
        ]
      },
      "properties": {
        "name": "GBOKO EAST - NR IORTYOM BEBE COMP",
        "ward": "GBOKO EAST",
        "lga": "GBOKO",
        "state": "BENUE"
      }
    },
    {
      "type": "Feature",
      "geometry": {
        "type": "Point",
        "coordinates": [
          9.0143753,
          7.3207442
        ]
      },
      "properties": {
        "name": "CLOSE TO MOUNT ZION CITY NUR/PRI. SCH GBOKO",
        "ward": "GBOKO EAST",
        "lga": "GBOKO",
        "state": "BENUE"
      }
    },
    {
      "type": "Feature",
      "geometry": {
        "type": "Point",
        "coordinates": [
          8.9990534,
          7.3354616
        ]
      },
      "properties": {
        "name": "BEHIND BRISTOW SEC. SCH. GBOKO",
        "ward": "GBOKO EAST",
        "lga": "GBOKO",
        "state": "BENUE"
      }
    },
    {
      "type": "Feature",
      "geometry": {
        "type": "Point",
        "coordinates": [
          8.9959771,
          7.309701899999999
        ]
      },
      "properties": {
        "name": "MARKET SQUARE II",
        "ward": "GBOKO EAST",
        "lga": "GBOKO",
        "state": "BENUE"
      }
    },
    {
      "type": "Feature",
      "geometry": {
        "type": "Point",
        "coordinates": [
          8.997776,
          7.319159599999999
        ]
      },
      "properties": {
        "name": "NOA OFFICE PREMISES GBOKO",
        "ward": "GBOKO EAST",
        "lga": "GBOKO",
        "state": "BENUE"
      }
    },
    {
      "type": "Feature",
      "geometry": {
        "type": "Point",
        "coordinates": [
          9.0143753,
          7.3207442
        ]
      },
      "properties": {
        "name": "NEAR MFATERDOO SCHOOL GBK",
        "ward": "GBOKO EAST",
        "lga": "GBOKO",
        "state": "BENUE"
      }
    },
    {
      "type": "Feature",
      "geometry": {
        "type": "Point",
        "coordinates": [
          9.0018424,
          7.336842400000001
        ]
      },
      "properties": {
        "name": "OPP. BENUE HOTELS GBOKO",
        "ward": "GBOKO EAST",
        "lga": "GBOKO",
        "state": "BENUE"
      }
    },
    {
      "type": "Feature",
      "geometry": {
        "type": "Point",
        "coordinates": [
          9.0150429,
          7.336137399999999
        ]
      },
      "properties": {
        "name": "NEAR APER SHINYI COMPOUND II",
        "ward": "GBOKO EAST",
        "lga": "GBOKO",
        "state": "BENUE"
      }
    },
    {
      "type": "Feature",
      "geometry": {
        "type": "Point",
        "coordinates": [
          9.0183331,
          7.3213162
        ]
      },
      "properties": {
        "name": "ST. THERESA CATHOLIC CHURCH GATE RICE MILL",
        "ward": "GBOKO EAST",
        "lga": "GBOKO",
        "state": "BENUE"
      }
    },
    {
      "type": "Feature",
      "geometry": {
        "type": "Point",
        "coordinates": [
          9.0101299,
          7.334004600000001
        ]
      },
      "properties": {
        "name": "NEAR ISHWA VILLAGE GBOKO",
        "ward": "GBOKO EAST",
        "lga": "GBOKO",
        "state": "BENUE"
      }
    },
    {
      "type": "Feature",
      "geometry": {
        "type": "Point",
        "coordinates": [
          9.0050022,
          7.3249966
        ]
      },
      "properties": {
        "name": "OPEN SPACE NEAR TSE GBEA NOR COMP.",
        "ward": "GBOKO EAST",
        "lga": "GBOKO",
        "state": "BENUE"
      }
    },
    {
      "type": "Feature",
      "geometry": {
        "type": "Point",
        "coordinates": [
          8.9988365,
          7.343145199999999
        ]
      },
      "properties": {
        "name": "NEAR KANKWE NYAMADI COMPOUND GBOKO",
        "ward": "GBOKO EAST",
        "lga": "GBOKO",
        "state": "BENUE"
      }
    },
    {
      "type": "Feature",
      "geometry": {
        "type": "Point",
        "coordinates": [
          8.992412100000001,
          7.311217699999999
        ]
      },
      "properties": {
        "name": "KAAMEM MARKET SQUAREBEHID GENERAL HOSP.",
        "ward": "GBOKO EAST",
        "lga": "GBOKO",
        "state": "BENUE"
      }
    },
    {
      "type": "Feature",
      "geometry": {
        "type": "Point",
        "coordinates": [
          9.02477,
          7.3482367
        ]
      },
      "properties": {
        "name": "OPEN SPACE NEAR MBAYION INTERNATINAL COLLEGE",
        "ward": "GBOKO EAST",
        "lga": "GBOKO",
        "state": "BENUE"
      }
    },
    {
      "type": "Feature",
      "geometry": {
        "type": "Point",
        "coordinates": [
          9.0384165,
          7.3554302
        ]
      },
      "properties": {
        "name": "TSE MELA DAKA BEHIND NATIONAL",
        "ward": "GBOKO EAST",
        "lga": "GBOKO",
        "state": "BENUE"
      }
    },
    {
      "type": "Feature",
      "geometry": {
        "type": "Point",
        "coordinates": [
          8.9702709,
          7.307194600000001
        ]
      },
      "properties": {
        "name": "OPEN SPACE NEAR TSE KYAYON VILLAGE",
        "ward": "GBOKO EAST",
        "lga": "GBOKO",
        "state": "BENUE"
      }
    },
    {
      "type": "Feature",
      "geometry": {
        "type": "Point",
        "coordinates": [
          9.002438099999999,
          7.3366669
        ]
      },
      "properties": {
        "name": "BAR DOOSHIMA (ALMB) II",
        "ward": "GBOKO EAST",
        "lga": "GBOKO",
        "state": "BENUE"
      }
    },
    {
      "type": "Feature",
      "geometry": {
        "type": "Point",
        "coordinates": [
          9.0329875,
          7.339555300000001
        ]
      },
      "properties": {
        "name": "MGBANGUN AOSUGH",
        "ward": "GBOKO EAST",
        "lga": "GBOKO",
        "state": "BENUE"
      }
    },
    {
      "type": "Feature",
      "geometry": {
        "type": "Point",
        "coordinates": [
          9.0329875,
          7.339555300000001
        ]
      },
      "properties": {
        "name": "SAHARA",
        "ward": "GBOKO EAST",
        "lga": "GBOKO",
        "state": "BENUE"
      }
    },
    {
      "type": "Feature",
      "geometry": {
        "type": "Point",
        "coordinates": [
          9.0150429,
          7.336137399999999
        ]
      },
      "properties": {
        "name": "GBOKO EAST MADAM KUTA COMP II",
        "ward": "GBOKO EAST",
        "lga": "GBOKO",
        "state": "BENUE"
      }
    },
    {
      "type": "Feature",
      "geometry": {
        "type": "Point",
        "coordinates": [
          9.001496099999999,
          7.323364400000001
        ]
      },
      "properties": {
        "name": "MARKET SQUARE - IKPA I",
        "ward": "MBAKWEN",
        "lga": "GBOKO",
        "state": "BENUE"
      }
    },
    {
      "type": "Feature",
      "geometry": {
        "type": "Point",
        "coordinates": [
          9.001496099999999,
          7.323364400000001
        ]
      },
      "properties": {
        "name": "MARKET SQUARE - IKPA II",
        "ward": "MBAKWEN",
        "lga": "GBOKO",
        "state": "BENUE"
      }
    },
    {
      "type": "Feature",
      "geometry": {
        "type": "Point",
        "coordinates": [
          8.9959771,
          7.309701899999999
        ]
      },
      "properties": {
        "name": "MARKET SQUARE - MNGBANNGUN",
        "ward": "MBAKWEN",
        "lga": "GBOKO",
        "state": "BENUE"
      }
    },
    {
      "type": "Feature",
      "geometry": {
        "type": "Point",
        "coordinates": [
          9.001496099999999,
          7.323364400000001
        ]
      },
      "properties": {
        "name": "MARKET SQUARE - LUGA I",
        "ward": "MBAKWEN",
        "lga": "GBOKO",
        "state": "BENUE"
      }
    },
    {
      "type": "Feature",
      "geometry": {
        "type": "Point",
        "coordinates": [
          9.001496099999999,
          7.323364400000001
        ]
      },
      "properties": {
        "name": "MARKET SQUARE - LUGA II",
        "ward": "MBAKWEN",
        "lga": "GBOKO",
        "state": "BENUE"
      }
    },
    {
      "type": "Feature",
      "geometry": {
        "type": "Point",
        "coordinates": [
          8.7934954,
          7.2982285
        ]
      },
      "properties": {
        "name": "MBAKWEN - NR TSE AZA COMP.",
        "ward": "MBAKWEN",
        "lga": "GBOKO",
        "state": "BENUE"
      }
    },
    {
      "type": "Feature",
      "geometry": {
        "type": "Point",
        "coordinates": [
          9.0479963,
          7.3177667
        ]
      },
      "properties": {
        "name": "MBAKWEN - NR TSE IYORSHAGHER",
        "ward": "MBAKWEN",
        "lga": "GBOKO",
        "state": "BENUE"
      }
    },
    {
      "type": "Feature",
      "geometry": {
        "type": "Point",
        "coordinates": [
          9.001496099999999,
          7.323364400000001
        ]
      },
      "properties": {
        "name": "MARKET SQUARE - ASUKO",
        "ward": "MBAKWEN",
        "lga": "GBOKO",
        "state": "BENUE"
      }
    },
    {
      "type": "Feature",
      "geometry": {
        "type": "Point",
        "coordinates": [
          9.001496099999999,
          7.323364400000001
        ]
      },
      "properties": {
        "name": "MARKET SQUARE - ISHUWA",
        "ward": "MBAKWEN",
        "lga": "GBOKO",
        "state": "BENUE"
      }
    },
    {
      "type": "Feature",
      "geometry": {
        "type": "Point",
        "coordinates": [
          8.9702709,
          7.307194600000001
        ]
      },
      "properties": {
        "name": "NR VILLAGE - MOZE",
        "ward": "MBAKWEN",
        "lga": "GBOKO",
        "state": "BENUE"
      }
    },
    {
      "type": "Feature",
      "geometry": {
        "type": "Point",
        "coordinates": [
          8.9959771,
          7.309701899999999
        ]
      },
      "properties": {
        "name": "MARKET SQUARE - AGBUM AWAGBE",
        "ward": "MBAKWEN",
        "lga": "GBOKO",
        "state": "BENUE"
      }
    },
    {
      "type": "Feature",
      "geometry": {
        "type": "Point",
        "coordinates": [
          9.001496099999999,
          7.323364400000001
        ]
      },
      "properties": {
        "name": "MARKET SQUARE - AGAYO",
        "ward": "MBAKWEN",
        "lga": "GBOKO",
        "state": "BENUE"
      }
    },
    {
      "type": "Feature",
      "geometry": {
        "type": "Point",
        "coordinates": [
          9.0022797,
          7.3177763
        ]
      },
      "properties": {
        "name": "MARKET SQUARE - ANDE",
        "ward": "MBAKWEN",
        "lga": "GBOKO",
        "state": "BENUE"
      }
    },
    {
      "type": "Feature",
      "geometry": {
        "type": "Point",
        "coordinates": [
          8.9959771,
          7.309701899999999
        ]
      },
      "properties": {
        "name": "MARKET SQUARE - AUMAZWA",
        "ward": "MBAKWEN",
        "lga": "GBOKO",
        "state": "BENUE"
      }
    },
    {
      "type": "Feature",
      "geometry": {
        "type": "Point",
        "coordinates": [
          9.001496099999999,
          7.323364400000001
        ]
      },
      "properties": {
        "name": "MARKET SQUARE - IKPENGER",
        "ward": "MBAKWEN",
        "lga": "GBOKO",
        "state": "BENUE"
      }
    },
    {
      "type": "Feature",
      "geometry": {
        "type": "Point",
        "coordinates": [
          8.9959771,
          7.309701899999999
        ]
      },
      "properties": {
        "name": "MARKET SQUARE - GUNDU",
        "ward": "MBAKWEN",
        "lga": "GBOKO",
        "state": "BENUE"
      }
    },
    {
      "type": "Feature",
      "geometry": {
        "type": "Point",
        "coordinates": [
          9.001496099999999,
          7.323364400000001
        ]
      },
      "properties": {
        "name": "MARKET SQUARE - KUHWA",
        "ward": "MBAKWEN",
        "lga": "GBOKO",
        "state": "BENUE"
      }
    },
    {
      "type": "Feature",
      "geometry": {
        "type": "Point",
        "coordinates": [
          8.9959771,
          7.309701899999999
        ]
      },
      "properties": {
        "name": "MARKET SQUARE - TOM-ATAR",
        "ward": "MBAKWEN",
        "lga": "GBOKO",
        "state": "BENUE"
      }
    },
    {
      "type": "Feature",
      "geometry": {
        "type": "Point",
        "coordinates": [
          9.001496099999999,
          7.323364400000001
        ]
      },
      "properties": {
        "name": "MARKET SQUARE - AGANYI",
        "ward": "MBAKWEN",
        "lga": "GBOKO",
        "state": "BENUE"
      }
    },
    {
      "type": "Feature",
      "geometry": {
        "type": "Point",
        "coordinates": [
          9.0264622,
          7.3185647
        ]
      },
      "properties": {
        "name": "GSS - IKPA",
        "ward": "MBAKWEN",
        "lga": "GBOKO",
        "state": "BENUE"
      }
    },
    {
      "type": "Feature",
      "geometry": {
        "type": "Point",
        "coordinates": [
          8.7591311,
          7.512953499999999
        ]
      },
      "properties": {
        "name": "MBAKWEN - NR TSE-VOR AZEMBE",
        "ward": "MBAKWEN",
        "lga": "GBOKO",
        "state": "BENUE"
      }
    },
    {
      "type": "Feature",
      "geometry": {
        "type": "Point",
        "coordinates": [
          8.7591311,
          7.512953499999999
        ]
      },
      "properties": {
        "name": "MBAKWEN - NR ACHA COMP.",
        "ward": "MBAKWEN",
        "lga": "GBOKO",
        "state": "BENUE"
      }
    },
    {
      "type": "Feature",
      "geometry": {
        "type": "Point",
        "coordinates": [
          9.001496099999999,
          7.323364400000001
        ]
      },
      "properties": {
        "name": "MARKET SQUARE WO HYEV",
        "ward": "MBAKWEN",
        "lga": "GBOKO",
        "state": "BENUE"
      }
    },
    {
      "type": "Feature",
      "geometry": {
        "type": "Point",
        "coordinates": [
          8.9456404,
          7.301682599999999
        ]
      },
      "properties": {
        "name": "RCM SCHOOL - AGBILE",
        "ward": "MBATYU",
        "lga": "GBOKO",
        "state": "BENUE"
      }
    },
    {
      "type": "Feature",
      "geometry": {
        "type": "Point",
        "coordinates": [
          8.9959771,
          7.309701899999999
        ]
      },
      "properties": {
        "name": "MARKET SQUARE - MKE",
        "ward": "MBATYU",
        "lga": "GBOKO",
        "state": "BENUE"
      }
    },
    {
      "type": "Feature",
      "geometry": {
        "type": "Point",
        "coordinates": [
          9.0249653,
          7.348308299999999
        ]
      },
      "properties": {
        "name": "NEAR-NRATOTO ;YATAR COMPOUND",
        "ward": "MBATYU",
        "lga": "GBOKO",
        "state": "BENUE"
      }
    },
    {
      "type": "Feature",
      "geometry": {
        "type": "Point",
        "coordinates": [
          9.0586881,
          7.376355599999999
        ]
      },
      "properties": {
        "name": "NEAR - AZAKPE AKWANYA COMPOUND",
        "ward": "MBATYU",
        "lga": "GBOKO",
        "state": "BENUE"
      }
    },
    {
      "type": "Feature",
      "geometry": {
        "type": "Point",
        "coordinates": [
          8.953828699999999,
          7.3725156
        ]
      },
      "properties": {
        "name": "MARKET SQUARE - IHUNGWANOR",
        "ward": "MBATYU",
        "lga": "GBOKO",
        "state": "BENUE"
      }
    },
    {
      "type": "Feature",
      "geometry": {
        "type": "Point",
        "coordinates": [
          9.0007749,
          7.329086699999999
        ]
      },
      "properties": {
        "name": "LGEA PRIM. SCHOOL - TSE-NEGE",
        "ward": "MBATYU",
        "lga": "GBOKO",
        "state": "BENUE"
      }
    },
    {
      "type": "Feature",
      "geometry": {
        "type": "Point",
        "coordinates": [
          9.0249653,
          7.348308299999999
        ]
      },
      "properties": {
        "name": "NEAR - TSE GBILA COMPOUND",
        "ward": "MBATYU",
        "lga": "GBOKO",
        "state": "BENUE"
      }
    },
    {
      "type": "Feature",
      "geometry": {
        "type": "Point",
        "coordinates": [
          9.0249653,
          7.348308299999999
        ]
      },
      "properties": {
        "name": "NEAR - TSE INDYER COMPOUND",
        "ward": "MBATYU",
        "lga": "GBOKO",
        "state": "BENUE"
      }
    },
    {
      "type": "Feature",
      "geometry": {
        "type": "Point",
        "coordinates": [
          9.0007749,
          7.329086699999999
        ]
      },
      "properties": {
        "name": "LGEA PRIM. SCHOOL - TSE-KUCHA",
        "ward": "MBATYU",
        "lga": "GBOKO",
        "state": "BENUE"
      }
    },
    {
      "type": "Feature",
      "geometry": {
        "type": "Point",
        "coordinates": [
          9.0007749,
          7.329086699999999
        ]
      },
      "properties": {
        "name": "LGEA PRIM. SCHOOL - ATUUL",
        "ward": "MBATYU",
        "lga": "GBOKO",
        "state": "BENUE"
      }
    },
    {
      "type": "Feature",
      "geometry": {
        "type": "Point",
        "coordinates": [
          9.0022797,
          7.3177763
        ]
      },
      "properties": {
        "name": "MARKET SQUARE - ANDE",
        "ward": "MBATYU",
        "lga": "GBOKO",
        "state": "BENUE"
      }
    },
    {
      "type": "Feature",
      "geometry": {
        "type": "Point",
        "coordinates": [
          8.9456404,
          7.301682599999999
        ]
      },
      "properties": {
        "name": "RCM PRIM. SCHOOL - TYODUGH",
        "ward": "MBATYU",
        "lga": "GBOKO",
        "state": "BENUE"
      }
    },
    {
      "type": "Feature",
      "geometry": {
        "type": "Point",
        "coordinates": [
          9.0007749,
          7.329086699999999
        ]
      },
      "properties": {
        "name": "LGEA PRIM. SCHOOL - ABAVER",
        "ward": "MBATYU",
        "lga": "GBOKO",
        "state": "BENUE"
      }
    },
    {
      "type": "Feature",
      "geometry": {
        "type": "Point",
        "coordinates": [
          9.001496099999999,
          7.323364400000001
        ]
      },
      "properties": {
        "name": "GANDO MARKET SQUARE",
        "ward": "MBATYU",
        "lga": "GBOKO",
        "state": "BENUE"
      }
    },
    {
      "type": "Feature",
      "geometry": {
        "type": "Point",
        "coordinates": [
          8.9681911,
          7.423964
        ]
      },
      "properties": {
        "name": "MARKET SQUARE - TSE KUCHA",
        "ward": "MBATYU",
        "lga": "GBOKO",
        "state": "BENUE"
      }
    },
    {
      "type": "Feature",
      "geometry": {
        "type": "Point",
        "coordinates": [
          8.977777,
          7.3547901
        ]
      },
      "properties": {
        "name": "NEAR ANGWE ANUM COMPOUND",
        "ward": "MBATYU",
        "lga": "GBOKO",
        "state": "BENUE"
      }
    },
    {
      "type": "Feature",
      "geometry": {
        "type": "Point",
        "coordinates": [
          9.0050011,
          7.324995800000001
        ]
      },
      "properties": {
        "name": "FACTORY - BCC PLC SIGNBOARD",
        "ward": "MBATYU",
        "lga": "GBOKO",
        "state": "BENUE"
      }
    },
    {
      "type": "Feature",
      "geometry": {
        "type": "Point",
        "coordinates": [
          9.0050022,
          7.3249966
        ]
      },
      "properties": {
        "name": "BCC PLC - GAAV YAJI STREET I",
        "ward": "MBATYU",
        "lga": "GBOKO",
        "state": "BENUE"
      }
    },
    {
      "type": "Feature",
      "geometry": {
        "type": "Point",
        "coordinates": [
          9.0050022,
          7.3249966
        ]
      },
      "properties": {
        "name": "BCC PLC - GAAV YAJI STREET II",
        "ward": "MBATYU",
        "lga": "GBOKO",
        "state": "BENUE"
      }
    },
    {
      "type": "Feature",
      "geometry": {
        "type": "Point",
        "coordinates": [
          8.942340000000002,
          7.349037999999999
        ]
      },
      "properties": {
        "name": "LGEA PRIMARY SCHOOL MKILIM DOKI",
        "ward": "MBATYU",
        "lga": "GBOKO",
        "state": "BENUE"
      }
    },
    {
      "type": "Feature",
      "geometry": {
        "type": "Point",
        "coordinates": [
          9.001496099999999,
          7.323364400000001
        ]
      },
      "properties": {
        "name": "GBILA MARKET SQUARE",
        "ward": "MBATYU",
        "lga": "GBOKO",
        "state": "BENUE"
      }
    },
    {
      "type": "Feature",
      "geometry": {
        "type": "Point",
        "coordinates": [
          9.0249653,
          7.348308299999999
        ]
      },
      "properties": {
        "name": "MBATYU COUNCIL CHAMBER",
        "ward": "MBATYU",
        "lga": "GBOKO",
        "state": "BENUE"
      }
    },
    {
      "type": "Feature",
      "geometry": {
        "type": "Point",
        "coordinates": [
          9.0175732,
          7.318956200000001
        ]
      },
      "properties": {
        "name": "NKST PRIMARY  SCHOOL  IVO MKPE",
        "ward": "MBATYU",
        "lga": "GBOKO",
        "state": "BENUE"
      }
    },
    {
      "type": "Feature",
      "geometry": {
        "type": "Point",
        "coordinates": [
          8.9702709,
          7.307194600000001
        ]
      },
      "properties": {
        "name": "TSE KAA COMMUNITY SQUARE",
        "ward": "MBATYU",
        "lga": "GBOKO",
        "state": "BENUE"
      }
    },
    {
      "type": "Feature",
      "geometry": {
        "type": "Point",
        "coordinates": [
          9.0404273,
          7.3246055
        ]
      },
      "properties": {
        "name": "MBAKPER - GTC MKAR GATE I",
        "ward": "MBAKPER",
        "lga": "GBOKO",
        "state": "BENUE"
      }
    },
    {
      "type": "Feature",
      "geometry": {
        "type": "Point",
        "coordinates": [
          9.0510938,
          7.305437599999999
        ]
      },
      "properties": {
        "name": "MKAR GATE II",
        "ward": "MBAKPER",
        "lga": "GBOKO",
        "state": "BENUE"
      }
    },
    {
      "type": "Feature",
      "geometry": {
        "type": "Point",
        "coordinates": [
          9.0065461,
          7.3392716
        ]
      },
      "properties": {
        "name": "MBAKPER - NR ORPHANAGE HOME",
        "ward": "MBAKPER",
        "lga": "GBOKO",
        "state": "BENUE"
      }
    },
    {
      "type": "Feature",
      "geometry": {
        "type": "Point",
        "coordinates": [
          9.0470817,
          7.3154044
        ]
      },
      "properties": {
        "name": "MARKET SQUARE - ORTESE I",
        "ward": "MBAKPER",
        "lga": "GBOKO",
        "state": "BENUE"
      }
    },
    {
      "type": "Feature",
      "geometry": {
        "type": "Point",
        "coordinates": [
          9.0510938,
          7.305437599999999
        ]
      },
      "properties": {
        "name": "GATE - KCC MKAR I",
        "ward": "MBAKPER",
        "lga": "GBOKO",
        "state": "BENUE"
      }
    },
    {
      "type": "Feature",
      "geometry": {
        "type": "Point",
        "coordinates": [
          9.0404273,
          7.3246055
        ]
      },
      "properties": {
        "name": "FIELD - MKAR DEM",
        "ward": "MBAKPER",
        "lga": "GBOKO",
        "state": "BENUE"
      }
    },
    {
      "type": "Feature",
      "geometry": {
        "type": "Point",
        "coordinates": [
          9.0470817,
          7.3154044
        ]
      },
      "properties": {
        "name": "MARKET SQUARE - ORTESE II",
        "ward": "MBAKPER",
        "lga": "GBOKO",
        "state": "BENUE"
      }
    },
    {
      "type": "Feature",
      "geometry": {
        "type": "Point",
        "coordinates": [
          8.9958584,
          7.3355795
        ]
      },
      "properties": {
        "name": "PREMISES - BESIDE RTCN",
        "ward": "MBAKPER",
        "lga": "GBOKO",
        "state": "BENUE"
      }
    },
    {
      "type": "Feature",
      "geometry": {
        "type": "Point",
        "coordinates": [
          9.0175732,
          7.318956200000001
        ]
      },
      "properties": {
        "name": "NKST. PRIM. SCHOOL - AKAAJIME",
        "ward": "MBAKPER",
        "lga": "GBOKO",
        "state": "BENUE"
      }
    },
    {
      "type": "Feature",
      "geometry": {
        "type": "Point",
        "coordinates": [
          8.9930358,
          7.305220499999999
        ]
      },
      "properties": {
        "name": "NEAR ALI, ABIE COMPOUND",
        "ward": "MBAKPER",
        "lga": "GBOKO",
        "state": "BENUE"
      }
    },
    {
      "type": "Feature",
      "geometry": {
        "type": "Point",
        "coordinates": [
          9.0318728,
          7.3487217
        ]
      },
      "properties": {
        "name": "COLLEGE - TOFI, MEMORIAL",
        "ward": "MBAKPER",
        "lga": "GBOKO",
        "state": "BENUE"
      }
    },
    {
      "type": "Feature",
      "geometry": {
        "type": "Point",
        "coordinates": [
          9.0240672,
          7.3244902
        ]
      },
      "properties": {
        "name": "NEAR AHAMBE GYAKPA COMPOUND",
        "ward": "MBAKPER",
        "lga": "GBOKO",
        "state": "BENUE"
      }
    },
    {
      "type": "Feature",
      "geometry": {
        "type": "Point",
        "coordinates": [
          9.0018424,
          7.336842400000001
        ]
      },
      "properties": {
        "name": "MARKET SQUARE - ANIKYOV",
        "ward": "MBAKPER",
        "lga": "GBOKO",
        "state": "BENUE"
      }
    },
    {
      "type": "Feature",
      "geometry": {
        "type": "Point",
        "coordinates": [
          9.0007749,
          7.329086699999999
        ]
      },
      "properties": {
        "name": "LGEA PRIM. SCHOOL - AKAA",
        "ward": "MBAKPER",
        "lga": "GBOKO",
        "state": "BENUE"
      }
    },
    {
      "type": "Feature",
      "geometry": {
        "type": "Point",
        "coordinates": [
          9.001496099999999,
          7.323364400000001
        ]
      },
      "properties": {
        "name": "MARKET SQUARE - TOMANYIIN I",
        "ward": "MBAKPER",
        "lga": "GBOKO",
        "state": "BENUE"
      }
    },
    {
      "type": "Feature",
      "geometry": {
        "type": "Point",
        "coordinates": [
          9.0175732,
          7.318956200000001
        ]
      },
      "properties": {
        "name": "NKST. PRIM. SCHOOL - ABANGER",
        "ward": "MBAKPER",
        "lga": "GBOKO",
        "state": "BENUE"
      }
    },
    {
      "type": "Feature",
      "geometry": {
        "type": "Point",
        "coordinates": [
          9.001496099999999,
          7.323364400000001
        ]
      },
      "properties": {
        "name": "MARKET SQUARE - TOMANYIIN II",
        "ward": "MBAKPER",
        "lga": "GBOKO",
        "state": "BENUE"
      }
    },
    {
      "type": "Feature",
      "geometry": {
        "type": "Point",
        "coordinates": [
          8.8362755,
          7.350825899999999
        ]
      },
      "properties": {
        "name": "LGEA PRIM. SCHOOL I - ADUUV",
        "ward": "MBAKPER",
        "lga": "GBOKO",
        "state": "BENUE"
      }
    },
    {
      "type": "Feature",
      "geometry": {
        "type": "Point",
        "coordinates": [
          9.0007749,
          7.329086699999999
        ]
      },
      "properties": {
        "name": "LGEA PRIM. SCHOOL II - ADUUV",
        "ward": "MBAKPER",
        "lga": "GBOKO",
        "state": "BENUE"
      }
    },
    {
      "type": "Feature",
      "geometry": {
        "type": "Point",
        "coordinates": [
          8.974979,
          7.352717999999999
        ]
      },
      "properties": {
        "name": "LGEA PRIM. SCHOOL - AMBOR",
        "ward": "MBAKPER",
        "lga": "GBOKO",
        "state": "BENUE"
      }
    },
    {
      "type": "Feature",
      "geometry": {
        "type": "Point",
        "coordinates": [
          9.0007749,
          7.329086699999999
        ]
      },
      "properties": {
        "name": "LGEA PRIM. SCHOOL - TSE NYAJO",
        "ward": "MBAKPER",
        "lga": "GBOKO",
        "state": "BENUE"
      }
    },
    {
      "type": "Feature",
      "geometry": {
        "type": "Point",
        "coordinates": [
          9.0007749,
          7.329086699999999
        ]
      },
      "properties": {
        "name": "LGEA PRIM SCHOOL - IKPAIVUUNGU",
        "ward": "MBAKPER",
        "lga": "GBOKO",
        "state": "BENUE"
      }
    },
    {
      "type": "Feature",
      "geometry": {
        "type": "Point",
        "coordinates": [
          9.07542,
          7.257349
        ]
      },
      "properties": {
        "name": "NKST PRIM. SCHOOL, AMERA",
        "ward": "MBAKPER",
        "lga": "GBOKO",
        "state": "BENUE"
      }
    },
    {
      "type": "Feature",
      "geometry": {
        "type": "Point",
        "coordinates": [
          9.021948000000002,
          7.272546999999999
        ]
      },
      "properties": {
        "name": "NKST. PRIM. SCHOOL - AKERAN",
        "ward": "MBAKPER",
        "lga": "GBOKO",
        "state": "BENUE"
      }
    },
    {
      "type": "Feature",
      "geometry": {
        "type": "Point",
        "coordinates": [
          9.0204253,
          7.2912841
        ]
      },
      "properties": {
        "name": "NKST PRIM. SCHOOL, VANDE",
        "ward": "MBAKPER",
        "lga": "GBOKO",
        "state": "BENUE"
      }
    },
    {
      "type": "Feature",
      "geometry": {
        "type": "Point",
        "coordinates": [
          9.041061,
          7.33582
        ]
      },
      "properties": {
        "name": "NKST PRIM. SCHOOL - ANYONGU",
        "ward": "MBAKPER",
        "lga": "GBOKO",
        "state": "BENUE"
      }
    },
    {
      "type": "Feature",
      "geometry": {
        "type": "Point",
        "coordinates": [
          8.5032863,
          7.7151777
        ]
      },
      "properties": {
        "name": "NEAR IHIL INJA COMPOUND",
        "ward": "MBAKPER",
        "lga": "GBOKO",
        "state": "BENUE"
      }
    },
    {
      "type": "Feature",
      "geometry": {
        "type": "Point",
        "coordinates": [
          9.0175732,
          7.318956200000001
        ]
      },
      "properties": {
        "name": "NKST. PRIM. SCHOOL I - TSE KAGHER",
        "ward": "MBAKPER",
        "lga": "GBOKO",
        "state": "BENUE"
      }
    },
    {
      "type": "Feature",
      "geometry": {
        "type": "Point",
        "coordinates": [
          9.0018424,
          7.336842400000001
        ]
      },
      "properties": {
        "name": "OPEN SPACE MBAGBON",
        "ward": "MBAKPER",
        "lga": "GBOKO",
        "state": "BENUE"
      }
    },
    {
      "type": "Feature",
      "geometry": {
        "type": "Point",
        "coordinates": [
          9.0215301,
          7.3210675
        ]
      },
      "properties": {
        "name": "NEAR AWANNGBA COMPOUND",
        "ward": "MBAKPER",
        "lga": "GBOKO",
        "state": "BENUE"
      }
    },
    {
      "type": "Feature",
      "geometry": {
        "type": "Point",
        "coordinates": [
          9.0051619,
          7.3089878
        ]
      },
      "properties": {
        "name": "BESIDE NKST CHURCH  MBAAMANDEV",
        "ward": "MBAKPER",
        "lga": "GBOKO",
        "state": "BENUE"
      }
    },
    {
      "type": "Feature",
      "geometry": {
        "type": "Point",
        "coordinates": [
          9.041061,
          7.33582
        ]
      },
      "properties": {
        "name": "NKST PRIM. SCHOOL - AGUJI",
        "ward": "MBAKPER",
        "lga": "GBOKO",
        "state": "BENUE"
      }
    },
    {
      "type": "Feature",
      "geometry": {
        "type": "Point",
        "coordinates": [
          9.0143753,
          7.3207442
        ]
      },
      "properties": {
        "name": "RCM PRIM. SCHOOL. 1 - BUA I",
        "ward": "MBAKPER",
        "lga": "GBOKO",
        "state": "BENUE"
      }
    },
    {
      "type": "Feature",
      "geometry": {
        "type": "Point",
        "coordinates": [
          9.0007749,
          7.329086699999999
        ]
      },
      "properties": {
        "name": "LGEA PRIM. SCHOOL - TOR-AJILA",
        "ward": "MBAKPER",
        "lga": "GBOKO",
        "state": "BENUE"
      }
    },
    {
      "type": "Feature",
      "geometry": {
        "type": "Point",
        "coordinates": [
          8.990352,
          7.341433999999999
        ]
      },
      "properties": {
        "name": "LGEA PRIM. SCHOOL - ADOOR",
        "ward": "MBAKPER",
        "lga": "GBOKO",
        "state": "BENUE"
      }
    },
    {
      "type": "Feature",
      "geometry": {
        "type": "Point",
        "coordinates": [
          9.0404273,
          7.3246055
        ]
      },
      "properties": {
        "name": "SNR STAFF QUARTERS GATE - BCC PLC - MKAR",
        "ward": "MBAKPER",
        "lga": "GBOKO",
        "state": "BENUE"
      }
    },
    {
      "type": "Feature",
      "geometry": {
        "type": "Point",
        "coordinates": [
          9.0227936,
          7.3473837
        ]
      },
      "properties": {
        "name": "NEAR GBAZAN COMPOUND",
        "ward": "MBAKPER",
        "lga": "GBOKO",
        "state": "BENUE"
      }
    },
    {
      "type": "Feature",
      "geometry": {
        "type": "Point",
        "coordinates": [
          9.0143753,
          7.3207442
        ]
      },
      "properties": {
        "name": "LEGEA PRIM. SCH. IKPAVNGU",
        "ward": "MBAKPER",
        "lga": "GBOKO",
        "state": "BENUE"
      }
    },
    {
      "type": "Feature",
      "geometry": {
        "type": "Point",
        "coordinates": [
          9.001496099999999,
          7.323364400000001
        ]
      },
      "properties": {
        "name": "MARKET SQUARE - MASEJE",
        "ward": "MBAKPER",
        "lga": "GBOKO",
        "state": "BENUE"
      }
    },
    {
      "type": "Feature",
      "geometry": {
        "type": "Point",
        "coordinates": [
          9.0050022,
          7.3249966
        ]
      },
      "properties": {
        "name": "OPEN SPACE - TSE IGBOKO COMP.",
        "ward": "MBAKPER",
        "lga": "GBOKO",
        "state": "BENUE"
      }
    },
    {
      "type": "Feature",
      "geometry": {
        "type": "Point",
        "coordinates": [
          9.001711,
          7.3177584
        ]
      },
      "properties": {
        "name": "OPPOSITE OPEN SPACE TSE-USEN",
        "ward": "MBAKPER",
        "lga": "GBOKO",
        "state": "BENUE"
      }
    },
    {
      "type": "Feature",
      "geometry": {
        "type": "Point",
        "coordinates": [
          9.0268694,
          7.3184872
        ]
      },
      "properties": {
        "name": "NKST SCH. OF HEALTH TECH. GATE MKAR",
        "ward": "MBAKPER",
        "lga": "GBOKO",
        "state": "BENUE"
      }
    },
    {
      "type": "Feature",
      "geometry": {
        "type": "Point",
        "coordinates": [
          9.001711,
          7.3177584
        ]
      },
      "properties": {
        "name": "NEAR HARRY PASS POLYTHECNIC GATE",
        "ward": "MBAKPER",
        "lga": "GBOKO",
        "state": "BENUE"
      }
    },
    {
      "type": "Feature",
      "geometry": {
        "type": "Point",
        "coordinates": [
          8.9959771,
          7.309701899999999
        ]
      },
      "properties": {
        "name": "TOMANYIN MARKET SQUARE",
        "ward": "MBAKPER",
        "lga": "GBOKO",
        "state": "BENUE"
      }
    },
    {
      "type": "Feature",
      "geometry": {
        "type": "Point",
        "coordinates": [
          9.0586881,
          7.376355599999999
        ]
      },
      "properties": {
        "name": "BNARDA OFFICE PREMISES AKAAJIME",
        "ward": "MBAKPER",
        "lga": "GBOKO",
        "state": "BENUE"
      }
    },
    {
      "type": "Feature",
      "geometry": {
        "type": "Point",
        "coordinates": [
          9.0007749,
          7.329086699999999
        ]
      },
      "properties": {
        "name": "LGEA PRIM. SCHOOL - CHAHU",
        "ward": "MBADAM",
        "lga": "GBOKO",
        "state": "BENUE"
      }
    },
    {
      "type": "Feature",
      "geometry": {
        "type": "Point",
        "coordinates": [
          9.0007749,
          7.329086699999999
        ]
      },
      "properties": {
        "name": "LGEA PRIM. SCHOOL - IMBUA",
        "ward": "MBADAM",
        "lga": "GBOKO",
        "state": "BENUE"
      }
    },
    {
      "type": "Feature",
      "geometry": {
        "type": "Point",
        "coordinates": [
          8.8473024,
          7.4469079
        ]
      },
      "properties": {
        "name": "MARKET SQUARE INIENGE",
        "ward": "MBADAM",
        "lga": "GBOKO",
        "state": "BENUE"
      }
    },
    {
      "type": "Feature",
      "geometry": {
        "type": "Point",
        "coordinates": [
          8.9959771,
          7.309701899999999
        ]
      },
      "properties": {
        "name": "MARKET SQUARE NGIBO",
        "ward": "MBADAM",
        "lga": "GBOKO",
        "state": "BENUE"
      }
    },
    {
      "type": "Feature",
      "geometry": {
        "type": "Point",
        "coordinates": [
          9.0021094,
          7.33098
        ]
      },
      "properties": {
        "name": "MARKET SQUARE ZELGEN",
        "ward": "MBADAM",
        "lga": "GBOKO",
        "state": "BENUE"
      }
    },
    {
      "type": "Feature",
      "geometry": {
        "type": "Point",
        "coordinates": [
          9.0007749,
          7.329086699999999
        ]
      },
      "properties": {
        "name": "LGEA PRIM. SCHOOL - ANDE",
        "ward": "MBATSER",
        "lga": "GBOKO",
        "state": "BENUE"
      }
    },
    {
      "type": "Feature",
      "geometry": {
        "type": "Point",
        "coordinates": [
          9.0249653,
          7.348308299999999
        ]
      },
      "properties": {
        "name": "MBATSER - NR TSE AJAV COMP.",
        "ward": "MBATSER",
        "lga": "GBOKO",
        "state": "BENUE"
      }
    },
    {
      "type": "Feature",
      "geometry": {
        "type": "Point",
        "coordinates": [
          9.001496099999999,
          7.323364400000001
        ]
      },
      "properties": {
        "name": "MARKET SQUARE - MKANAN",
        "ward": "MBATSER",
        "lga": "GBOKO",
        "state": "BENUE"
      }
    },
    {
      "type": "Feature",
      "geometry": {
        "type": "Point",
        "coordinates": [
          9.0143753,
          7.3207442
        ]
      },
      "properties": {
        "name": "NURS/PRIM. SCHOOL - AGI",
        "ward": "MBATSER",
        "lga": "GBOKO",
        "state": "BENUE"
      }
    },
    {
      "type": "Feature",
      "geometry": {
        "type": "Point",
        "coordinates": [
          9.0007749,
          7.329086699999999
        ]
      },
      "properties": {
        "name": "LGEA PRIM. SCHOOL - BUNDE",
        "ward": "MBATSER",
        "lga": "GBOKO",
        "state": "BENUE"
      }
    },
    {
      "type": "Feature",
      "geometry": {
        "type": "Point",
        "coordinates": [
          8.990352,
          7.341433999999999
        ]
      },
      "properties": {
        "name": "LGEA PRIM. SCHOOL - AKPEHE",
        "ward": "MBATSER",
        "lga": "GBOKO",
        "state": "BENUE"
      }
    },
    {
      "type": "Feature",
      "geometry": {
        "type": "Point",
        "coordinates": [
          9.0249653,
          7.348308299999999
        ]
      },
      "properties": {
        "name": "NEAR TSE-AMEE COMPOUND",
        "ward": "MBATSER",
        "lga": "GBOKO",
        "state": "BENUE"
      }
    },
    {
      "type": "Feature",
      "geometry": {
        "type": "Point",
        "coordinates": [
          9.0018424,
          7.336842400000001
        ]
      },
      "properties": {
        "name": "GBOKO COLLEGE OF EDUCATION",
        "ward": "MBATSER",
        "lga": "GBOKO",
        "state": "BENUE"
      }
    },
    {
      "type": "Feature",
      "geometry": {
        "type": "Point",
        "coordinates": [
          9.001496099999999,
          7.323364400000001
        ]
      },
      "properties": {
        "name": "MARKET SQUARE ATONKO",
        "ward": "MBATSER",
        "lga": "GBOKO",
        "state": "BENUE"
      }
    },
    {
      "type": "Feature",
      "geometry": {
        "type": "Point",
        "coordinates": [
          9.0249653,
          7.348308299999999
        ]
      },
      "properties": {
        "name": "OPP. TSE YAGA COMPOUND, MBATSER",
        "ward": "MBATSER",
        "lga": "GBOKO",
        "state": "BENUE"
      }
    },
    {
      "type": "Feature",
      "geometry": {
        "type": "Point",
        "coordinates": [
          9.0051619,
          7.3089878
        ]
      },
      "properties": {
        "name": "OPPOSSITE NKST CHURCH ANGUTA",
        "ward": "MBATSER",
        "lga": "GBOKO",
        "state": "BENUE"
      }
    },
    {
      "type": "Feature",
      "geometry": {
        "type": "Point",
        "coordinates": [
          8.9990534,
          7.3354616
        ]
      },
      "properties": {
        "name": "YION DAY SECONDARY SCHOOL",
        "ward": "MBATSER",
        "lga": "GBOKO",
        "state": "BENUE"
      }
    },
    {
      "type": "Feature",
      "geometry": {
        "type": "Point",
        "coordinates": [
          8.9959771,
          7.309701899999999
        ]
      },
      "properties": {
        "name": "MARKET SQUARE BUNDE",
        "ward": "MBATSER",
        "lga": "GBOKO",
        "state": "BENUE"
      }
    },
    {
      "type": "Feature",
      "geometry": {
        "type": "Point",
        "coordinates": [
          9.0007749,
          7.329086699999999
        ]
      },
      "properties": {
        "name": "LGEA PRIMARY SCHOOL MBAAMAN",
        "ward": "MBATAN",
        "lga": "GBOKO",
        "state": "BENUE"
      }
    },
    {
      "type": "Feature",
      "geometry": {
        "type": "Point",
        "coordinates": [
          9.0018424,
          7.336842400000001
        ]
      },
      "properties": {
        "name": "MBATAN - NR TSE AWUHE COMP.",
        "ward": "MBATAN",
        "lga": "GBOKO",
        "state": "BENUE"
      }
    },
    {
      "type": "Feature",
      "geometry": {
        "type": "Point",
        "coordinates": [
          9.001496099999999,
          7.323364400000001
        ]
      },
      "properties": {
        "name": "MARKET SQUARE - APINE I",
        "ward": "MBATAN",
        "lga": "GBOKO",
        "state": "BENUE"
      }
    },
    {
      "type": "Feature",
      "geometry": {
        "type": "Point",
        "coordinates": [
          8.866643999999999,
          7.33076
        ]
      },
      "properties": {
        "name": "LGEA PRIM. SCHOOL - IGBE",
        "ward": "MBATAN",
        "lga": "GBOKO",
        "state": "BENUE"
      }
    },
    {
      "type": "Feature",
      "geometry": {
        "type": "Point",
        "coordinates": [
          8.8377,
          7.342494999999999
        ]
      },
      "properties": {
        "name": "LGEA PRIM. SCHOOL. ANKUM",
        "ward": "MBATAN",
        "lga": "GBOKO",
        "state": "BENUE"
      }
    },
    {
      "type": "Feature",
      "geometry": {
        "type": "Point",
        "coordinates": [
          9.001496099999999,
          7.323364400000001
        ]
      },
      "properties": {
        "name": "MARKET SQUARE - IGYULA",
        "ward": "MBATAN",
        "lga": "GBOKO",
        "state": "BENUE"
      }
    },
    {
      "type": "Feature",
      "geometry": {
        "type": "Point",
        "coordinates": [
          9.0007749,
          7.329086699999999
        ]
      },
      "properties": {
        "name": "LGEA PRIMARY SCOOL ANUM",
        "ward": "MBATAN",
        "lga": "GBOKO",
        "state": "BENUE"
      }
    },
    {
      "type": "Feature",
      "geometry": {
        "type": "Point",
        "coordinates": [
          9.001496099999999,
          7.323364400000001
        ]
      },
      "properties": {
        "name": "MARKET SQUARE - APINE II",
        "ward": "MBATAN",
        "lga": "GBOKO",
        "state": "BENUE"
      }
    },
    {
      "type": "Feature",
      "geometry": {
        "type": "Point",
        "coordinates": [
          9.0051619,
          7.3089878
        ]
      },
      "properties": {
        "name": "OPP. CHURCH NKST AIKIE",
        "ward": "MBATAN",
        "lga": "GBOKO",
        "state": "BENUE"
      }
    },
    {
      "type": "Feature",
      "geometry": {
        "type": "Point",
        "coordinates": [
          9.001496099999999,
          7.323364400000001
        ]
      },
      "properties": {
        "name": "IGBOHO MARKET SQUARE",
        "ward": "MBATAN",
        "lga": "GBOKO",
        "state": "BENUE"
      }
    },
    {
      "type": "Feature",
      "geometry": {
        "type": "Point",
        "coordinates": [
          8.9777735,
          7.3931757
        ]
      },
      "properties": {
        "name": "NORMADIC PRIMARY  SCHOOL IGYULA",
        "ward": "MBATAN",
        "lga": "GBOKO",
        "state": "BENUE"
      }
    },
    {
      "type": "Feature",
      "geometry": {
        "type": "Point",
        "coordinates": [
          8.8803925,
          7.3927326
        ]
      },
      "properties": {
        "name": "GBOKO MARKET, NR AGBA AGBO COMP.",
        "ward": "GBK/CENTRAL MARKET",
        "lga": "GBOKO",
        "state": "BENUE"
      }
    },
    {
      "type": "Feature",
      "geometry": {
        "type": "Point",
        "coordinates": [
          9.0044322,
          7.322599299999999
        ]
      },
      "properties": {
        "name": "GBOKO MARKET, MKAR TAXI PARK I",
        "ward": "GBK/CENTRAL MARKET",
        "lga": "GBOKO",
        "state": "BENUE"
      }
    },
    {
      "type": "Feature",
      "geometry": {
        "type": "Point",
        "coordinates": [
          9.0044322,
          7.322599299999999
        ]
      },
      "properties": {
        "name": "GBOKO MARKET, MKAR TAXI PART II",
        "ward": "GBK/CENTRAL MARKET",
        "lga": "GBOKO",
        "state": "BENUE"
      }
    },
    {
      "type": "Feature",
      "geometry": {
        "type": "Point",
        "coordinates": [
          8.9948909,
          7.334192799999999
        ]
      },