{
  "type": "FeatureCollection",
  "features": [
    {
      "type": "Feature",
      "geometry": {
        "type": "Point",
        "coordinates": [
          11.6917968,
          10.3821814
        ]
      },
      "properties": {
        "name": "WUYO PRI. SCH. I",
        "ward": "WUYO",
        "lga": "BAYO",
        "state": "BORNO"
      }
    },
    {
      "type": "Feature",
      "geometry": {
        "type": "Point",
        "coordinates": [
          11.7723669,
          10.3352944
        ]
      },
      "properties": {
        "name": "GUBURNDE PRI. SCH.",
        "ward": "WUYO",
        "lga": "BAYO",
        "state": "BORNO"
      }
    },
    {
      "type": "Feature",
      "geometry": {
        "type": "Point",
        "coordinates": [
          11.8012583,
          10.3348368
        ]
      },
      "properties": {
        "name": "LARO PRI. SCH.",
        "ward": "WUYO",
        "lga": "BAYO",
        "state": "BORNO"
      }
    },
    {
      "type": "Feature",
      "geometry": {
        "type": "Point",
        "coordinates": [
          11.6946409,
          10.3843031
        ]
      },
      "properties": {
        "name": "CHIBRA PRI. SCH.",
        "ward": "WUYO",
        "lga": "BAYO",
        "state": "BORNO"
      }
    },
    {
      "type": "Feature",
      "geometry": {
        "type": "Point",
        "coordinates": [
          13.1558564,
          11.8687802
        ]
      },
      "properties": {
        "name": "GEIDAM PRI. SCH. I",
        "ward": "WUYO",
        "lga": "BAYO",
        "state": "BORNO"
      }
    },
    {
      "type": "Feature",
      "geometry": {
        "type": "Point",
        "coordinates": [
          11.7236437,
          10.4215539
        ]
      },
      "properties": {
        "name": "TASHAN TSAMIYA PRI.SCH",
        "ward": "WUYO",
        "lga": "BAYO",
        "state": "BORNO"
      }
    },
    {
      "type": "Feature",
      "geometry": {
        "type": "Point",
        "coordinates": [
          11.7992077,
          10.2817978
        ]
      },
      "properties": {
        "name": "FANGURU",
        "ward": "WUYO",
        "lga": "BAYO",
        "state": "BORNO"
      }
    },
    {
      "type": "Feature",
      "geometry": {
        "type": "Point",
        "coordinates": [
          11.694653,
          10.386094
        ]
      },
      "properties": {
        "name": "WUYO PRI. SCH. II",
        "ward": "WUYO",
        "lga": "BAYO",
        "state": "BORNO"
      }
    },
    {
      "type": "Feature",
      "geometry": {
        "type": "Point",
        "coordinates": [
          11.7134125,
          10.3425005
        ]
      },
      "properties": {
        "name": "CHANGILBA",
        "ward": "WUYO",
        "lga": "BAYO",
        "state": "BORNO"
      }
    },
    {
      "type": "Feature",
      "geometry": {
        "type": "Point",
        "coordinates": [
          11.6946409,
          10.3843031
        ]
      },
      "properties": {
        "name": "GEIDAN PRIMARY SCHOOL II",
        "ward": "WUYO",
        "lga": "BAYO",
        "state": "BORNO"
      }
    },
    {
      "type": "Feature",
      "geometry": {
        "type": "Point",
        "coordinates": [
          11.8033,
          10.3341
        ]
      },
      "properties": {
        "name": "LARO DISPENSARY",
        "ward": "WUYO",
        "lga": "BAYO",
        "state": "BORNO"
      }
    },
    {
      "type": "Feature",
      "geometry": {
        "type": "Point",
        "coordinates": [
          11.6946409,
          10.3843031
        ]
      },
      "properties": {
        "name": "WUYO PRIMARY SCHOOL III",
        "ward": "WUYO",
        "lga": "BAYO",
        "state": "BORNO"
      }
    },
    {
      "type": "Feature",
      "geometry": {
        "type": "Point",
        "coordinates": [
          11.6216435,
          10.2265835
        ]
      },
      "properties": {
        "name": "JARA GOL PRI. SCH.",
        "ward": "JARA GOL",
        "lga": "BAYO",
        "state": "BORNO"
      }
    },
    {
      "type": "Feature",
      "geometry": {
        "type": "Point",
        "coordinates": [
          11.6267989,
          10.2916966
        ]
      },
      "properties": {
        "name": "TUJI",
        "ward": "JARA GOL",
        "lga": "BAYO",
        "state": "BORNO"
      }
    },
    {
      "type": "Feature",
      "geometry": {
        "type": "Point",
        "coordinates": [
          11.58413,
          10.3087336
        ]
      },
      "properties": {
        "name": "NDEKI PRI. SCH.",
        "ward": "JARA GOL",
        "lga": "BAYO",
        "state": "BORNO"
      }
    },
    {
      "type": "Feature",
      "geometry": {
        "type": "Point",
        "coordinates": [
          13.2002638,
          11.8327805
        ]
      },
      "properties": {
        "name": "KORKO PRY.SCH",
        "ward": "JARA GOL",
        "lga": "BAYO",
        "state": "BORNO"
      }
    },
    {
      "type": "Feature",
      "geometry": {
        "type": "Point",
        "coordinates": [
          11.6271544,
          10.2630775
        ]
      },
      "properties": {
        "name": "KOFAR LAWAN JARAGOL",
        "ward": "JARA GOL",
        "lga": "BAYO",
        "state": "BORNO"
      }
    },
    {
      "type": "Feature",
      "geometry": {
        "type": "Point",
        "coordinates": [
          11.733176,
          10.624272
        ]
      },
      "properties": {
        "name": "BALBAYA DISPENSARY",
        "ward": "BALBAYA",
        "lga": "BAYO",
        "state": "BORNO"
      }
    },
    {
      "type": "Feature",
      "geometry": {
        "type": "Point",
        "coordinates": [
          11.7352567,
          10.6226461
        ]
      },
      "properties": {
        "name": "BALBAYA PRI. SCH.",
        "ward": "BALBAYA",
        "lga": "BAYO",
        "state": "BORNO"
      }
    },
    {
      "type": "Feature",
      "geometry": {
        "type": "Point",
        "coordinates": [
          11.7769957,
          10.6483432
        ]
      },
      "properties": {
        "name": "KUKWAL PRY. SCH.",
        "ward": "BALBAYA",
        "lga": "BAYO",
        "state": "BORNO"
      }
    },
    {
      "type": "Feature",
      "geometry": {
        "type": "Point",
        "coordinates": [
          10.4565211,
          12.877425
        ]
      },
      "properties": {
        "name": "TONDI YAKUBU PRI. SCH.",
        "ward": "BALBAYA",
        "lga": "BAYO",
        "state": "BORNO"
      }
    },
    {
      "type": "Feature",
      "geometry": {
        "type": "Point",
        "coordinates": [
          11.7637775,
          10.6115314
        ]
      },
      "properties": {
        "name": "MAINAWA",
        "ward": "BALBAYA",
        "lga": "BAYO",
        "state": "BORNO"
      }
    },
    {
      "type": "Feature",
      "geometry": {
        "type": "Point",
        "coordinates": [
          11.7352567,
          10.6226461
        ]
      },
      "properties": {
        "name": "TONDI BALBAYA",
        "ward": "BALBAYA",
        "lga": "BAYO",
        "state": "BORNO"
      }
    },
    {
      "type": "Feature",
      "geometry": {
        "type": "Point",
        "coordinates": [
          11.7667314,
          10.275845
        ]
      },
      "properties": {
        "name": "DALI PRI. SCH. I",
        "ward": "JARA DALI",
        "lga": "BAYO",
        "state": "BORNO"
      }
    },
    {
      "type": "Feature",
      "geometry": {
        "type": "Point",
        "coordinates": [
          11.6035,
          10.2712
        ]
      },
      "properties": {
        "name": "DALI DISPENSARY",
        "ward": "JARA DALI",
        "lga": "BAYO",
        "state": "BORNO"
      }
    },
    {
      "type": "Feature",
      "geometry": {
        "type": "Point",
        "coordinates": [
          11.7667314,
          10.275845
        ]
      },
      "properties": {
        "name": "ZANGE PRI. SCH.",
        "ward": "JARA DALI",
        "lga": "BAYO",
        "state": "BORNO"
      }
    },
    {
      "type": "Feature",
      "geometry": {
        "type": "Point",
        "coordinates": [
          11.7826039,
          10.2375018
        ]
      },
      "properties": {
        "name": "PELA KOMBO PRI. SCH.",
        "ward": "JARA DALI",
        "lga": "BAYO",
        "state": "BORNO"
      }
    },
    {
      "type": "Feature",
      "geometry": {
        "type": "Point",
        "coordinates": [
          11.6492457,
          10.3093697
        ]
      },
      "properties": {
        "name": "GUVA YOHO PRI. SCH.",
        "ward": "JARA DALI",
        "lga": "BAYO",
        "state": "BORNO"
      }
    },
    {
      "type": "Feature",
      "geometry": {
        "type": "Point",
        "coordinates": [
          11.7006471,
          10.2819096
        ]
      },
      "properties": {
        "name": "MACHIYA PRI. SCH",
        "ward": "JARA DALI",
        "lga": "BAYO",
        "state": "BORNO"
      }
    },
    {
      "type": "Feature",
      "geometry": {
        "type": "Point",
        "coordinates": [
          11.7182166,
          10.2597798
        ]
      },
      "properties": {
        "name": "JARA DALI PRIMARY SCHOOL II",
        "ward": "JARA DALI",
        "lga": "BAYO",
        "state": "BORNO"
      }
    },
    {
      "type": "Feature",
      "geometry": {
        "type": "Point",
        "coordinates": [
          11.5307612,
          10.3143147
        ]
      },
      "properties": {
        "name": "GAMADADI PRI. SCH.",
        "ward": "GAMADADI",
        "lga": "BAYO",
        "state": "BORNO"
      }
    },
    {
      "type": "Feature",
      "geometry": {
        "type": "Point",
        "coordinates": [
          11.5559468,
          10.3214528
        ]
      },
      "properties": {
        "name": "GAMADADI  DISPENSARY",
        "ward": "GAMADADI",
        "lga": "BAYO",
        "state": "BORNO"
      }
    },
    {
      "type": "Feature",
      "geometry": {
        "type": "Point",
        "coordinates": [
          11.5784549,
          10.3424122
        ]
      },
      "properties": {
        "name": "MAINA BABA",
        "ward": "GAMADADI",
        "lga": "BAYO",
        "state": "BORNO"
      }
    },
    {
      "type": "Feature",
      "geometry": {
        "type": "Point",
        "coordinates": [
          10.9979736,
          9.8794692
        ]
      },
      "properties": {
        "name": "JAURO GARGA",
        "ward": "GAMADADI",
        "lga": "BAYO",
        "state": "BORNO"
      }
    },
    {
      "type": "Feature",
      "geometry": {
        "type": "Point",
        "coordinates": [
          13.724,
          11.521
        ]
      },
      "properties": {
        "name": "SAMBO DABA",
        "ward": "GAMADADI",
        "lga": "BAYO",
        "state": "BORNO"
      }
    },
    {
      "type": "Feature",
      "geometry": {
        "type": "Point",
        "coordinates": [
          13.61,
          11.505
        ]
      },
      "properties": {
        "name": "KOFAR LAWAN MAINA BABA",
        "ward": "GAMADADI",
        "lga": "BAYO",
        "state": "BORNO"
      }
    },
    {
      "type": "Feature",
      "geometry": {
        "type": "Point",
        "coordinates": [
          11.6946409,
          10.3843031
        ]
      },
      "properties": {
        "name": "DAMPALA PRIMARY SCHOOL",
        "ward": "GAMADADI",
        "lga": "BAYO",
        "state": "BORNO"
      }
    },
    {
      "type": "Feature",
      "geometry": {
        "type": "Point",
        "coordinates": [
          13.1697994,
          11.8207134
        ]
      },
      "properties": {
        "name": "ZARA",
        "ward": "ZARA",
        "lga": "BAYO",
        "state": "BORNO"
      }
    },
    {
      "type": "Feature",
      "geometry": {
        "type": "Point",
        "coordinates": [
          13.1697994,
          11.8207134
        ]
      },
      "properties": {
        "name": "DOGON ZAGA",
        "ward": "ZARA",
        "lga": "BAYO",
        "state": "BORNO"
      }
    },
    {
      "type": "Feature",
      "geometry": {
        "type": "Point",
        "coordinates": [
          13.2002638,
          11.8327805
        ]
      },
      "properties": {
        "name": "NYAWI PRI. SCH.",
        "ward": "ZARA",
        "lga": "BAYO",
        "state": "BORNO"
      }
    },
    {
      "type": "Feature",
      "geometry": {
        "type": "Point",
        "coordinates": [
          13.1697994,
          11.8207134
        ]
      },
      "properties": {
        "name": "BAMBARKA",
        "ward": "ZARA",
        "lga": "BAYO",
        "state": "BORNO"
      }
    },
    {
      "type": "Feature",
      "geometry": {
        "type": "Point",
        "coordinates": [
          11.7587933,
          10.6732955
        ]
      },
      "properties": {
        "name": "TENTENI",
        "ward": "ZARA",
        "lga": "BAYO",
        "state": "BORNO"
      }
    },
    {
      "type": "Feature",
      "geometry": {
        "type": "Point",
        "coordinates": [
          11.6271544,
          10.5502498
        ]
      },
      "properties": {
        "name": "BAYAWA",
        "ward": "FIKAYEL",
        "lga": "BAYO",
        "state": "BORNO"
      }
    },
    {
      "type": "Feature",
      "geometry": {
        "type": "Point",
        "coordinates": [
          13.1824907,
          11.8097859
        ]
      },
      "properties": {
        "name": "LIMANTI PRI. SCH.",
        "ward": "LIMANTI",
        "lga": "BAYO",
        "state": "BORNO"
      }
    },
    {
      "type": "Feature",
      "geometry": {
        "type": "Point",
        "coordinates": [
          13.2002638,
          11.8327805
        ]
      },
      "properties": {
        "name": "TSANGAYARI PRY. SCH",
        "ward": "LIMANTI",
        "lga": "BAYO",
        "state": "BORNO"
      }
    },
    {
      "type": "Feature",
      "geometry": {
        "type": "Point",
        "coordinates": [
          13.2002638,
          11.8327805
        ]
      },
      "properties": {
        "name": "BATSARI PRY.SCH",
        "ward": "LIMANTI",
        "lga": "BAYO",
        "state": "BORNO"
      }
    },
    {
      "type": "Feature",
      "geometry": {
        "type": "Point",
        "coordinates": [
          11.6733869,
          10.5754997
        ]
      },
      "properties": {
        "name": "KUVA",
        "ward": "LIMANTI",
        "lga": "BAYO",
        "state": "BORNO"
      }
    },
    {
      "type": "Feature",
      "geometry": {
        "type": "Point",
        "coordinates": [
          11.6271544,
          10.3734182
        ]
      },
      "properties": {
        "name": "BRIYEL DISPENSARY",
        "ward": "BRIYEL",
        "lga": "BAYO",
        "state": "BORNO"
      }
    },
    {
      "type": "Feature",
      "geometry": {
        "type": "Point",
        "coordinates": [
          11.6271544,
          10.3734182
        ]
      },
      "properties": {
        "name": "BRIYEL DISTRICT OFFICE",
        "ward": "BRIYEL",
        "lga": "BAYO",
        "state": "BORNO"
      }
    },
    {
      "type": "Feature",
      "geometry": {
        "type": "Point",
        "coordinates": [
          11.6271544,
          10.3734182
        ]
      },
      "properties": {
        "name": "BRIYEL SOUTH",
        "ward": "BRIYEL",
        "lga": "BAYO",
        "state": "BORNO"
      }
    },
    {
      "type": "Feature",
      "geometry": {
        "type": "Point",
        "coordinates": [
          11.6946409,
          10.3843031
        ]
      },
      "properties": {
        "name": "GIRABE PRI. SCH.",
        "ward": "BRIYEL",
        "lga": "BAYO",
        "state": "BORNO"
      }
    },
    {
      "type": "Feature",
      "geometry": {
        "type": "Point",
        "coordinates": [
          12.0543983,
          9.7730458
        ]
      },
      "properties": {
        "name": "WURO LADDE",
        "ward": "BRIYEL",
        "lga": "BAYO",
        "state": "BORNO"
      }
    },
    {
      "type": "Feature",
      "geometry": {
        "type": "Point",
        "coordinates": [
          11.6098,
          10.347
        ]
      },
      "properties": {
        "name": "BRIYEL HEALTH CENTRE",
        "ward": "BRIYEL",
        "lga": "BAYO",
        "state": "BORNO"
      }
    },
    {
      "type": "Feature",
      "geometry": {
        "type": "Point",
        "coordinates": [
          11.6271544,
          10.3734182
        ]
      },
      "properties": {
        "name": "BRIYEL DISTRICT",
        "ward": "BRIYEL",
        "lga": "BAYO",
        "state": "BORNO"
      }
    },
    {
      "type": "Feature",
      "geometry": {
        "type": "Point",
        "coordinates": [
          11.6271544,
          10.3734182
        ]
      },
      "properties": {
        "name": "KUNDUM BRIYEL",
        "ward": "BRIYEL",
        "lga": "BAYO",
        "state": "BORNO"
      }
    },
    {
      "type": "Feature",
      "geometry": {
        "type": "Point",
        "coordinates": [
          12.0000843,
          10.3992483
        ]
      },
      "properties": {
        "name": "BAKIN KASUWA",
        "ward": "BRIYEL",
        "lga": "BAYO",
        "state": "BORNO"
      }
    },
    {
      "type": "Feature",
      "geometry": {
        "type": "Point",
        "coordinates": [
          13.1640345,
          11.861451
        ]
      },
      "properties": {
        "name": "SUCCESS PRIMARY SCHOOL, BRIYEL",
        "ward": "BRIYEL",
        "lga": "BAYO",
        "state": "BORNO"
      }
    },
    {
      "type": "Feature",
      "geometry": {
        "type": "Point",
        "coordinates": [
          11.6271544,
          10.3734182
        ]
      },
      "properties": {
        "name": "NDEKIN GASI, BRIYEL SOUTH",
        "ward": "BRIYEL",
        "lga": "BAYO",
        "state": "BORNO"
      }
    },
    {
      "type": "Feature",
      "geometry": {
        "type": "Point",
        "coordinates": [
          11.7042497,
          10.4415994
        ]
      },
      "properties": {
        "name": "TELI PRI. SCH. I",
        "ward": "TELI",
        "lga": "BAYO",
        "state": "BORNO"
      }
    },
    {
      "type": "Feature",
      "geometry": {
        "type": "Point",
        "coordinates": [
          11.7032712,
          10.4444837
        ]
      },
      "properties": {
        "name": "TELI CENTRAL",
        "ward": "TELI",
        "lga": "BAYO",
        "state": "BORNO"
      }
    },
    {
      "type": "Feature",
      "geometry": {
        "type": "Point",
        "coordinates": [
          11.7042497,
          10.4415994
        ]
      },
      "properties": {
        "name": "TELI PRIMARY SCHOOL II",
        "ward": "TELI",
        "lga": "BAYO",
        "state": "BORNO"
      }
    },
    {
      "type": "Feature",
      "geometry": {
        "type": "Point",
        "coordinates": [
          11.7065877,
          10.4457353
        ]
      },
      "properties": {
        "name": "TELI DISPENSARY",
        "ward": "TELI",
        "lga": "BAYO",
        "state": "BORNO"
      }
    },
    {
      "type": "Feature",
      "geometry": {
        "type": "Point",
        "coordinates": [
          13.3951074,
          11.662156
        ]
      },
      "properties": {
        "name": "KAIGAMARI PRI. SCH., KAIGAMARI",
        "ward": "DAWA EAST / MALARI / KANGAMARI",
        "lga": "KONDUGA",
        "state": "BORNO"
      }
    },
    {
      "type": "Feature",
      "geometry": {
        "type": "Point",
        "coordinates": [
          8.5459818,
          11.9997827
        ]
      },
      "properties": {
        "name": "WUTORO , WUTORO",
        "ward": "DAWA EAST / MALARI / KANGAMARI",
        "lga": "KONDUGA",
        "state": "BORNO"
      }
    },
    {
      "type": "Feature",
      "geometry": {
        "type": "Point",
        "coordinates": [
          13.13473,
          11.8137536
        ]
      },
      "properties": {
        "name": "YANDANDARI , YANDANDARI",
        "ward": "DAWA EAST / MALARI / KANGAMARI",
        "lga": "KONDUGA",
        "state": "BORNO"
      }
    },
    {
      "type": "Feature",
      "geometry": {
        "type": "Point",
        "coordinates": [
          13.3951074,
          11.662156
        ]
      },
      "properties": {
        "name": "MALARI PRI. SCH. , MALARI",
        "ward": "DAWA EAST / MALARI / KANGAMARI",
        "lga": "KONDUGA",
        "state": "BORNO"
      }
    },
    {
      "type": "Feature",
      "geometry": {
        "type": "Point",
        "coordinates": [
          13.13473,
          11.8137536
        ]
      },
      "properties": {
        "name": "MALLAM SUNGUNTI , MALLAM SUNGUNTI",
        "ward": "DAWA EAST / MALARI / KANGAMARI",
        "lga": "KONDUGA",
        "state": "BORNO"
      }
    },
    {
      "type": "Feature",
      "geometry": {
        "type": "Point",
        "coordinates": [
          13.2640135,
          11.7581024
        ]
      },
      "properties": {
        "name": "DALWA EAST PRI. SCH. , DALWA EAST",
        "ward": "DAWA EAST / MALARI / KANGAMARI",
        "lga": "KONDUGA",
        "state": "BORNO"
      }
    },
    {
      "type": "Feature",
      "geometry": {
        "type": "Point",
        "coordinates": [
          13.1345702,
          11.2631361
        ]
      },
      "properties": {
        "name": "ABDURI , ABDURI",
        "ward": "DAWA EAST / MALARI / KANGAMARI",
        "lga": "KONDUGA",
        "state": "BORNO"
      }
    },
    {
      "type": "Feature",
      "geometry": {
        "type": "Point",
        "coordinates": [
          13.1263715,
          11.8357602
        ]
      },
      "properties": {
        "name": "OLD KAIGAMARI , OLD KAIGAMARI",
        "ward": "DAWA EAST / MALARI / KANGAMARI",
        "lga": "KONDUGA",
        "state": "BORNO"
      }
    },
    {
      "type": "Feature",
      "geometry": {
        "type": "Point",
        "coordinates": [
          13.1667966,
          11.8519762
        ]
      },
      "properties": {
        "name": "FASHAR PRI. SCH. , FASHAR",
        "ward": "AUNO / CHABBOL",
        "lga": "KONDUGA",
        "state": "BORNO"
      }
    },
    {
      "type": "Feature",
      "geometry": {
        "type": "Point",
        "coordinates": [
          13.0709849,
          12.0380434
        ]
      },
      "properties": {
        "name": "TUNGUSHE , TUNGUSHE",
        "ward": "AUNO / CHABBOL",
        "lga": "KONDUGA",
        "state": "BORNO"
      }
    },
    {
      "type": "Feature",
      "geometry": {
        "type": "Point",
        "coordinates": [
          13.1302378,
          11.8621579
        ]
      },
      "properties": {
        "name": "ABBA KASHIMRI , ABBA KASHIMRI I",
        "ward": "AUNO / CHABBOL",
        "lga": "KONDUGA",
        "state": "BORNO"
      }
    },
    {
      "type": "Feature",
      "geometry": {
        "type": "Point",
        "coordinates": [
          13.1867236,
          11.8332864
        ]
      },
      "properties": {
        "name": "POMPOMARI PRI. SCH. , POMPOMARI  I",
        "ward": "AUNO / CHABBOL",
        "lga": "KONDUGA",
        "state": "BORNO"
      }
    },
    {
      "type": "Feature",
      "geometry": {
        "type": "Point",
        "coordinates": [
          13.1867236,
          11.8332864
        ]
      },
      "properties": {
        "name": "POMPOMARI PRI. SCH. , POMPOMARI  II",
        "ward": "AUNO / CHABBOL",
        "lga": "KONDUGA",
        "state": "BORNO"
      }
    },
    {
      "type": "Feature",
      "geometry": {
        "type": "Point",
        "coordinates": [
          13.1867236,
          11.8332864
        ]
      },
      "properties": {
        "name": "POMPOMARI PRI. SCH. , POMPOMARI  III",
        "ward": "AUNO / CHABBOL",
        "lga": "KONDUGA",
        "state": "BORNO"
      }
    },
    {
      "type": "Feature",
      "geometry": {
        "type": "Point",
        "coordinates": [
          13.4167449,
          11.2502909
        ]
      },
      "properties": {
        "name": "BULAMA MADU , JAJEL B. MADU",
        "ward": "AUNO / CHABBOL",
        "lga": "KONDUGA",
        "state": "BORNO"
      }
    },
    {
      "type": "Feature",
      "geometry": {
        "type": "Point",
        "coordinates": [
          13.0272522,
          11.8465442
        ]
      },
      "properties": {
        "name": "JAJEL PRI. SCH. , JAJEL",
        "ward": "AUNO / CHABBOL",
        "lga": "KONDUGA",
        "state": "BORNO"
      }
    },
    {
      "type": "Feature",
      "geometry": {
        "type": "Point",
        "coordinates": [
          13.0425841,
          11.845817
        ]
      },
      "properties": {
        "name": "NJIMTILO , NJIMTILO",
        "ward": "AUNO / CHABBOL",
        "lga": "KONDUGA",
        "state": "BORNO"
      }
    },
    {
      "type": "Feature",
      "geometry": {
        "type": "Point",
        "coordinates": [
          13.4167449,
          11.2502909
        ]
      },
      "properties": {
        "name": "N.A.F STATION , N.A.F STATION",
        "ward": "AUNO / CHABBOL",
        "lga": "KONDUGA",
        "state": "BORNO"
      }
    },
    {
      "type": "Feature",
      "geometry": {
        "type": "Point",
        "coordinates": [
          13.1182464,
          11.8292373
        ]
      },
      "properties": {
        "name": "MORAMTI , MORAMTI",
        "ward": "AUNO / CHABBOL",
        "lga": "KONDUGA",
        "state": "BORNO"
      }
    },
    {
      "type": "Feature",
      "geometry": {
        "type": "Point",
        "coordinates": [
          13.0739963,
          11.8409492
        ]
      },
      "properties": {
        "name": "AUNO PRIMARY SCHOOL HEALTH CENTRE",
        "ward": "AUNO / CHABBOL",
        "lga": "KONDUGA",
        "state": "BORNO"
      }
    },
    {
      "type": "Feature",
      "geometry": {
        "type": "Point",
        "coordinates": [
          13.1302378,
          11.8621579
        ]
      },
      "properties": {
        "name": "ABBA KASHIMIRI II",
        "ward": "AUNO / CHABBOL",
        "lga": "KONDUGA",
        "state": "BORNO"
      }
    },
    {
      "type": "Feature",
      "geometry": {
        "type": "Point",
        "coordinates": [
          13.1371811,
          11.8089459
        ]
      },
      "properties": {
        "name": "PRIMARY HEALTHCARE NJIMTILO",
        "ward": "AUNO / CHABBOL",
        "lga": "KONDUGA",
        "state": "BORNO"
      }
    },
    {
      "type": "Feature",
      "geometry": {
        "type": "Point",
        "coordinates": [
          13.1304005,
          11.8629004
        ]
      },
      "properties": {
        "name": "MOROMTI PRIMARY SCHOOL",
        "ward": "AUNO / CHABBOL",
        "lga": "KONDUGA",
        "state": "BORNO"
      }
    },
    {
      "type": "Feature",
      "geometry": {
        "type": "Point",
        "coordinates": [
          13.1306433,
          11.8630772
        ]
      },
      "properties": {
        "name": "MEGA  SCHOOL MOROMTI",
        "ward": "AUNO / CHABBOL",
        "lga": "KONDUGA",
        "state": "BORNO"
      }
    },
    {
      "type": "Feature",
      "geometry": {
        "type": "Point",
        "coordinates": [
          12.772192,
          11.841353
        ]
      },
      "properties": {
        "name": "JAKANA PRI. SCH. , JAKANA  I",
        "ward": "JEWU / LAMBOA",
        "lga": "KONDUGA",
        "state": "BORNO"
      }
    },
    {
      "type": "Feature",
      "geometry": {
        "type": "Point",
        "coordinates": [
          12.772192,
          11.841353
        ]
      },
      "properties": {
        "name": "JAKANA PRI. SCH. , JAKANA  II",
        "ward": "JEWU / LAMBOA",
        "lga": "KONDUGA",
        "state": "BORNO"
      }
    },
    {
      "type": "Feature",
      "geometry": {
        "type": "Point",
        "coordinates": [
          13.0272522,
          11.8465442
        ]
      },
      "properties": {
        "name": "JEWU PRI. SCH., JEWU  I",
        "ward": "JEWU / LAMBOA",
        "lga": "KONDUGA",
        "state": "BORNO"
      }
    },
    {
      "type": "Feature",
      "geometry": {
        "type": "Point",
        "coordinates": [
          12.7375737,
          12.1337956
        ]
      },
      "properties": {
        "name": "BIDIRI , BIDIRI",
        "ward": "JEWU / LAMBOA",
        "lga": "KONDUGA",
        "state": "BORNO"
      }
    },
    {
      "type": "Feature",
      "geometry": {
        "type": "Point",
        "coordinates": [
          12.7205146,
          12.2104338
        ]
      },
      "properties": {
        "name": "GONI BUKARTI , GONI BUKARTI",
        "ward": "JEWU / LAMBOA",
        "lga": "KONDUGA",
        "state": "BORNO"
      }
    },
    {
      "type": "Feature",
      "geometry": {
        "type": "Point",
        "coordinates": [
          12.772192,
          11.841353
        ]
      },
      "properties": {
        "name": "JAKANA PRI. SCH. JAKANA  III",
        "ward": "JEWU / LAMBOA",
        "lga": "KONDUGA",
        "state": "BORNO"
      }
    },
    {
      "type": "Feature",
      "geometry": {
        "type": "Point",
        "coordinates": [
          10.4565211,
          12.877425
        ]
      },
      "properties": {
        "name": "AJIRI PRI. SCH. II, AJIRI PRI. SCH. II",
        "ward": "SOJIRI/ NGURO - NGURO",
        "lga": "KONDUGA",
        "state": "BORNO"
      }
    },
    {
      "type": "Feature",
      "geometry": {
        "type": "Point",
        "coordinates": [
          13.4196641,
          11.6549207
        ]
      },
      "properties": {
        "name": "NGURO NGURO, NGURO NGURO",
        "ward": "SOJIRI/ NGURO - NGURO",
        "lga": "KONDUGA",
        "state": "BORNO"
      }
    },
    {
      "type": "Feature",
      "geometry": {
        "type": "Point",
        "coordinates": [
          10.4565211,
          12.877425
        ]
      },
      "properties": {
        "name": "KAYAMLA PRI. SCH. IV, KAYAMLA PRI. SCH. IV",
        "ward": "SOJIRI/ NGURO - NGURO",
        "lga": "KONDUGA",
        "state": "BORNO"
      }
    },
    {
      "type": "Feature",
      "geometry": {
        "type": "Point",
        "coordinates": [
          10.4565211,
          12.877425
        ]
      },
      "properties": {
        "name": "SOJIRI PRI. SCH. I, SOJIRI PRI. SCH. I",
        "ward": "SOJIRI/ NGURO - NGURO",
        "lga": "KONDUGA",
        "state": "BORNO"
      }
    },
    {
      "type": "Feature",
      "geometry": {
        "type": "Point",
        "coordinates": [
          13.419664,
          11.6549207
        ]
      },
      "properties": {
        "name": "CAMP, CAMP",
        "ward": "SOJIRI/ NGURO - NGURO",
        "lga": "KONDUGA",
        "state": "BORNO"
      }
    },
    {
      "type": "Feature",
      "geometry": {
        "type": "Point",
        "coordinates": [
          13.3175821,
          11.7069091
        ]
      },
      "properties": {
        "name": "KIMERI, KIMERI",
        "ward": "SOJIRI/ NGURO - NGURO",
        "lga": "KONDUGA",
        "state": "BORNO"
      }
    },
    {
      "type": "Feature",
      "geometry": {
        "type": "Point",
        "coordinates": [
          13.2663479,
          11.4916043
        ]
      },
      "properties": {
        "name": "ABBARI, ABBARI",
        "ward": "SOJIRI/ NGURO - NGURO",
        "lga": "KONDUGA",
        "state": "BORNO"
      }
    },
    {
      "type": "Feature",
      "geometry": {
        "type": "Point",
        "coordinates": [
          13.1433734,
          11.8372624
        ]
      },
      "properties": {
        "name": "KELLUMIRI PRI. SCH.  II",
        "ward": "KELUMIRI / NGALBI AMARI / YALE",
        "lga": "KONDUGA",
        "state": "BORNO"
      }
    },
    {
      "type": "Feature",
      "geometry": {
        "type": "Point",
        "coordinates": [
          13.1824907,
          11.8097859
        ]
      },
      "properties": {
        "name": "NGALBI AMARI PRI. SCH. , NGALBI AMARI  I",
        "ward": "KELUMIRI / NGALBI AMARI / YALE",
        "lga": "KONDUGA",
        "state": "BORNO"
      }
    },
    {
      "type": "Feature",
      "geometry": {
        "type": "Point",
        "coordinates": [
          13.1824907,
          11.8097859
        ]
      },
      "properties": {
        "name": "NGALBI AMARI PRI. SCH. , NGALBI AMARI  II",
        "ward": "KELUMIRI / NGALBI AMARI / YALE",
        "lga": "KONDUGA",
        "state": "BORNO"
      }
    },
    {
      "type": "Feature",
      "geometry": {
        "type": "Point",
        "coordinates": [
          13.1519808,
          11.8565771
        ]
      },
      "properties": {
        "name": "YALE PRI. SCH. I",
        "ward": "KELUMIRI / NGALBI AMARI / YALE",
        "lga": "KONDUGA",
        "state": "BORNO"
      }
    },
    {
      "type": "Feature",
      "geometry": {
        "type": "Point",
        "coordinates": [
          13.1930808,
          11.8023735
        ]
      },
      "properties": {
        "name": "YALE PRI. SCH. II",
        "ward": "KELUMIRI / NGALBI AMARI / YALE",
        "lga": "KONDUGA",
        "state": "BORNO"
      }
    },
    {
      "type": "Feature",
      "geometry": {
        "type": "Point",
        "coordinates": [
          13.1930808,
          11.8023735
        ]
      },
      "properties": {
        "name": "YALE PRI. SCH. III",
        "ward": "KELUMIRI / NGALBI AMARI / YALE",
        "lga": "KONDUGA",
        "state": "BORNO"
      }
    },
    {
      "type": "Feature",
      "geometry": {
        "type": "Point",
        "coordinates": [
          12.9525486,
          12.0006296
        ]
      },
      "properties": {
        "name": "GABCHARI , GABCHARI",
        "ward": "KELUMIRI / NGALBI AMARI / YALE",
        "lga": "KONDUGA",
        "state": "BORNO"
      }
    },
    {
      "type": "Feature",
      "geometry": {
        "type": "Point",
        "coordinates": [
          13.3951074,
          11.662156
        ]
      },
      "properties": {
        "name": "KELLUMIRI PRI SCHOOL III",
        "ward": "KELUMIRI / NGALBI AMARI / YALE",
        "lga": "KONDUGA",
        "state": "BORNO"
      }
    },
    {
      "type": "Feature",
      "geometry": {
        "type": "Point",
        "coordinates": [
          13.0126523,
          12.0163329
        ]
      },
      "properties": {
        "name": "NYALERI PRI. SCH. ,NYALERI",
        "ward": "NYALERI/SANDIA/YEJIWA",
        "lga": "KONDUGA",
        "state": "BORNO"
      }
    },
    {
      "type": "Feature",
      "geometry": {
        "type": "Point",
        "coordinates": [
          13.1429744,
          11.8912494
        ]
      },
      "properties": {
        "name": "BULABULIN NGAU. DIS ,BULABULIN NGAU. DIS.",
        "ward": "NYALERI/SANDIA/YEJIWA",
        "lga": "KONDUGA",
        "state": "BORNO"
      }
    },
    {
      "type": "Feature",
      "geometry": {
        "type": "Point",
        "coordinates": [
          13.0126523,
          12.0163329
        ]
      },
      "properties": {
        "name": "JIRINNA , JIRINNA",
        "ward": "NYALERI/SANDIA/YEJIWA",
        "lga": "KONDUGA",
        "state": "BORNO"
      }
    },
    {
      "type": "Feature",
      "geometry": {
        "type": "Point",
        "coordinates": [
          13.0126523,
          12.0163329
        ]
      },
      "properties": {
        "name": "FALAWANNE , FALAWANNE",
        "ward": "NYALERI/SANDIA/YEJIWA",
        "lga": "KONDUGA",
        "state": "BORNO"
      }
    },
    {
      "type": "Feature",
      "geometry": {
        "type": "Point",
        "coordinates": [
          13.0126523,
          12.0163329
        ]
      },
      "properties": {
        "name": "SANDIA PRI. SCH. , SANDIA",
        "ward": "NYALERI/SANDIA/YEJIWA",
        "lga": "KONDUGA",
        "state": "BORNO"
      }
    },
    {
      "type": "Feature",
      "geometry": {
        "type": "Point",
        "coordinates": [
          13.0126523,
          12.0163329
        ]
      },
      "properties": {
        "name": "KAYA BULABULIN, KAYA BULABULIN",
        "ward": "NYALERI/SANDIA/YEJIWA",
        "lga": "KONDUGA",
        "state": "BORNO"
      }
    },
    {
      "type": "Feature",
      "geometry": {
        "type": "Point",
        "coordinates": [
          13.13473,
          11.8137536
        ]
      },
      "properties": {
        "name": "NGAURAMARI, NGAURAMARI",
        "ward": "NYALERI/SANDIA/YEJIWA",
        "lga": "KONDUGA",
        "state": "BORNO"
      }
    },
    {
      "type": "Feature",
      "geometry": {
        "type": "Point",
        "coordinates": [
          13.0126523,
          12.0163329
        ]
      },
      "properties": {
        "name": "NGARANNAM, NGARANNAM",
        "ward": "NYALERI/SANDIA/YEJIWA",
        "lga": "KONDUGA",
        "state": "BORNO"
      }
    },
    {
      "type": "Feature",
      "geometry": {
        "type": "Point",
        "coordinates": [
          13.0126523,
          12.0163329
        ]
      },
      "properties": {
        "name": "YAJIWA PRI. SCH. I, YAJIWA PRI. SCH. I",
        "ward": "NYALERI/SANDIA/YEJIWA",
        "lga": "KONDUGA",
        "state": "BORNO"
      }
    },
    {
      "type": "Feature",
      "geometry": {
        "type": "Point",
        "coordinates": [
          13.0126523,
          12.0163329
        ]
      },
      "properties": {
        "name": "SHASHAMARI, SHASHAMARI",
        "ward": "NYALERI/SANDIA/YEJIWA",
        "lga": "KONDUGA",
        "state": "BORNO"
      }
    },
    {
      "type": "Feature",
      "geometry": {
        "type": "Point",
        "coordinates": [
          13.1304005,
          11.8629004
        ]
      },
      "properties": {
        "name": "ABULAM PRI. SCH., ABULAM PRI. SCH.",
        "ward": "NYALERI/SANDIA/YEJIWA",
        "lga": "KONDUGA",
        "state": "BORNO"
      }
    },
    {
      "type": "Feature",
      "geometry": {
        "type": "Point",
        "coordinates": [
          13.0126523,
          12.0163329
        ]
      },
      "properties": {
        "name": "KUKURUK, KUKURUK",
        "ward": "NYALERI/SANDIA/YEJIWA",
        "lga": "KONDUGA",
        "state": "BORNO"
      }
    },
    {
      "type": "Feature",
      "geometry": {
        "type": "Point",
        "coordinates": [
          13.1167474,
          11.8619887
        ]
      },
      "properties": {
        "name": "YAJIWA PRI. SCH. II, YAJIWA PRI. SCH. II",
        "ward": "NYALERI/SANDIA/YEJIWA",
        "lga": "KONDUGA",
        "state": "BORNO"
      }
    },
    {
      "type": "Feature",
      "geometry": {
        "type": "Point",
        "coordinates": [
          13.4176748,
          11.6539167
        ]
      },
      "properties": {
        "name": "KONDUGA CENTRAL PRI. SCHOOL I",
        "ward": "KONDUGA",
        "lga": "KONDUGA",
        "state": "BORNO"
      }
    },
    {
      "type": "Feature",
      "geometry": {
        "type": "Point",
        "coordinates": [
          13.418384,
          11.65488
        ]
      },
      "properties": {
        "name": "VIEWING CENTRE,  I",
        "ward": "KONDUGA",
        "lga": "KONDUGA",
        "state": "BORNO"
      }
    },
    {
      "type": "Feature",
      "geometry": {
        "type": "Point",
        "coordinates": [
          13.416187,
          11.655827
        ]
      },
      "properties": {
        "name": "LEPROSY CLINIC , LEPROSY CLINIC",
        "ward": "KONDUGA",
        "lga": "KONDUGA",
        "state": "BORNO"
      }
    },
    {
      "type": "Feature",
      "geometry": {
        "type": "Point",
        "coordinates": [
          13.419664,
          11.6549207
        ]
      },
      "properties": {
        "name": "KONDUGA CENTRAL PRI. SCHOOL II",
        "ward": "KONDUGA",
        "lga": "KONDUGA",
        "state": "BORNO"
      }
    },
    {
      "type": "Feature",
      "geometry": {
        "type": "Point",
        "coordinates": [
          13.418384,
          11.65488
        ]
      },
      "properties": {
        "name": "VIEWING CENTRE  II",
        "ward": "KONDUGA",
        "lga": "KONDUGA",
        "state": "BORNO"
      }
    },
    {
      "type": "Feature",
      "geometry": {
        "type": "Point",
        "coordinates": [
          13.416187,
          11.655827
        ]
      },
      "properties": {
        "name": "VIEWING CENTRE  III",
        "ward": "KONDUGA",
        "lga": "KONDUGA",
        "state": "BORNO"
      }
    },
    {
      "type": "Feature",
      "geometry": {
        "type": "Point",
        "coordinates": [
          13.4171778,
          11.649913
        ]
      },
      "properties": {
        "name": "SECRETARIAT  I",
        "ward": "KONDUGA",
        "lga": "KONDUGA",
        "state": "BORNO"
      }
    },
    {
      "type": "Feature",
      "geometry": {
        "type": "Point",
        "coordinates": [
          13.4171778,
          11.649913
        ]
      },
      "properties": {
        "name": "SECRETARIAT  II",
        "ward": "KONDUGA",
        "lga": "KONDUGA",
        "state": "BORNO"
      }
    },
    {
      "type": "Feature",
      "geometry": {
        "type": "Point",
        "coordinates": [
          13.4171778,
          11.649913
        ]
      },
      "properties": {
        "name": "SECRETARIAT  III",
        "ward": "KONDUGA",
        "lga": "KONDUGA",
        "state": "BORNO"
      }
    },
    {
      "type": "Feature",
      "geometry": {
        "type": "Point",
        "coordinates": [
          13.4178554,
          11.6495609
        ]
      },
      "properties": {
        "name": "UPPER AREA COURT , UPPER AREA COURT",
        "ward": "KONDUGA",
        "lga": "KONDUGA",
        "state": "BORNO"
      }
    },
    {
      "type": "Feature",
      "geometry": {
        "type": "Point",
        "coordinates": [
          13.3951074,
          11.662156
        ]
      },
      "properties": {
        "name": "MANDURARI PRI. SCH.  I",
        "ward": "KONDUGA",
        "lga": "KONDUGA",
        "state": "BORNO"
      }
    },
    {
      "type": "Feature",
      "geometry": {
        "type": "Point",
        "coordinates": [
          13.3951074,
          11.662156
        ]
      },
      "properties": {
        "name": "MANDURARI PRI. SCH.  II",
        "ward": "KONDUGA",
        "lga": "KONDUGA",
        "state": "BORNO"
      }
    },
    {
      "type": "Feature",
      "geometry": {
        "type": "Point",
        "coordinates": [
          13.3951074,
          11.662156
        ]
      },
      "properties": {
        "name": "MANDURARI PRI. SCH.  III",
        "ward": "KONDUGA",
        "lga": "KONDUGA",
        "state": "BORNO"
      }
    },
    {
      "type": "Feature",
      "geometry": {
        "type": "Point",
        "coordinates": [
          13.6731771,
          11.5052049
        ]
      },
      "properties": {
        "name": "GONIRI , GONIRI",
        "ward": "KONDUGA",
        "lga": "KONDUGA",
        "state": "BORNO"
      }
    },
    {
      "type": "Feature",
      "geometry": {
        "type": "Point",
        "coordinates": [
          12.9082997,
          11.3889678
        ]
      },
      "properties": {
        "name": "BULABULIN , BULABULIN",
        "ward": "KONDUGA",
        "lga": "KONDUGA",
        "state": "BORNO"
      }
    },
    {
      "type": "Feature",
      "geometry": {
        "type": "Point",
        "coordinates": [
          13.4167449,
          11.2502909
        ]
      },
      "properties": {
        "name": "MODU AMSAMURI",
        "ward": "KONDUGA",
        "lga": "KONDUGA",
        "state": "BORNO"
      }
    },
    {
      "type": "Feature",
      "geometry": {
        "type": "Point",
        "coordinates": [
          12.7311089,
          11.3922561
        ]
      },
      "properties": {
        "name": "ZARMARI",
        "ward": "KONDUGA",
        "lga": "KONDUGA",
        "state": "BORNO"
      }
    },
    {
      "type": "Feature",
      "geometry": {
        "type": "Point",
        "coordinates": [
          13.4167449,
          11.2502909
        ]
      },
      "properties": {
        "name": "AMUSURI",
        "ward": "KONDUGA",
        "lga": "KONDUGA",
        "state": "BORNO"
      }
    },
    {
      "type": "Feature",
      "geometry": {
        "type": "Point",
        "coordinates": [
          13.1711491,
          11.8329581
        ]
      },
      "properties": {
        "name": "SABONGARI",
        "ward": "KONDUGA",
        "lga": "KONDUGA",
        "state": "BORNO"
      }
    },
    {
      "type": "Feature",
      "geometry": {
        "type": "Point",
        "coordinates": [
          13.419664,
          11.6549207
        ]
      },
      "properties": {
        "name": "KONDUGA CENTRAL PRI.SCHOOL II",
        "ward": "KONDUGA",
        "lga": "KONDUGA",
        "state": "BORNO"
      }
    },
    {
      "type": "Feature",
      "geometry": {
        "type": "Point",
        "coordinates": [
          13.1498471,
          11.8005778
        ]
      },
      "properties": {
        "name": "CHILD PROTECTION REFERAL PATHWAY",
        "ward": "KONDUGA",
        "lga": "KONDUGA",
        "state": "BORNO"
      }
    },
    {
      "type": "Feature",
      "geometry": {
        "type": "Point",
        "coordinates": [
          13.1484843,
          11.8416442
        ]
      },
      "properties": {
        "name": "WOMEN DEVELOPMENT CENTER",
        "ward": "KONDUGA",
        "lga": "KONDUGA",
        "state": "BORNO"
      }
    },
    {
      "type": "Feature",
      "geometry": {
        "type": "Point",
        "coordinates": [
          13.1867236,
          11.8332864
        ]
      },
      "properties": {
        "name": "LAWAN MUSTAPHA PRI SCH",
        "ward": "KONDUGA",
        "lga": "KONDUGA",
        "state": "BORNO"
      }
    },
    {
      "type": "Feature",
      "geometry": {
        "type": "Point",
        "coordinates": [
          13.418384,
          11.65488
        ]
      },
      "properties": {
        "name": "VIEWING CENTER MANDURARI",
        "ward": "KONDUGA",
        "lga": "KONDUGA",
        "state": "BORNO"
      }
    },
    {
      "type": "Feature",
      "geometry": {
        "type": "Point",
        "coordinates": [
          13.1500662,
          11.8095065
        ]
      },
      "properties": {
        "name": "LEA OFFICE KONDUGA",
        "ward": "KONDUGA",
        "lga": "KONDUGA",
        "state": "BORNO"
      }
    },
    {
      "type": "Feature",
      "geometry": {
        "type": "Point",
        "coordinates": [
          13.2002638,
          11.8327805
        ]
      },
      "properties": {
        "name": "KAJERI PRI. SCH. , KAJERI",
        "ward": "DALORI / WANORI",
        "lga": "KONDUGA",
        "state": "BORNO"
      }
    },
    {
      "type": "Feature",
      "geometry": {
        "type": "Point",
        "coordinates": [
          13.2002638,
          11.8327805
        ]
      },
      "properties": {
        "name": "AMARWA PRI. SCH. , AMARWA",
        "ward": "DALORI / WANORI",
        "lga": "KONDUGA",
        "state": "BORNO"
      }
    },
    {
      "type": "Feature",
      "geometry": {
        "type": "Point",
        "coordinates": [
          13.1867236,
          11.8332864
        ]
      },
      "properties": {
        "name": "MAIRARI PRI. SCH. , MAIRARI",
        "ward": "DALORI / WANORI",
        "lga": "KONDUGA",
        "state": "BORNO"
      }
    },
    {
      "type": "Feature",
      "geometry": {
        "type": "Point",
        "coordinates": [
          13.13473,
          11.8137536
        ]
      },
      "properties": {
        "name": "USUMANTI , USUMANTI",
        "ward": "DALORI / WANORI",
        "lga": "KONDUGA",
        "state": "BORNO"
      }
    },
    {
      "type": "Feature",
      "geometry": {
        "type": "Point",
        "coordinates": [
          13.2649817,
          11.7630134
        ]
      },
      "properties": {
        "name": "DENGELTI , DENGELTI  I",
        "ward": "DALORI / WANORI",
        "lga": "KONDUGA",
        "state": "BORNO"
      }
    },
    {
      "type": "Feature",
      "geometry": {
        "type": "Point",
        "coordinates": [
          13.2649817,
          11.7630134
        ]
      },
      "properties": {
        "name": "DENGELTI , DENGELTI  II",
        "ward": "DALORI / WANORI",
        "lga": "KONDUGA",
        "state": "BORNO"
      }
    },
    {
      "type": "Feature",
      "geometry": {
        "type": "Point",
        "coordinates": [
          13.224603,
          11.7811476
        ]
      },
      "properties": {
        "name": "DALORI PRI. SCH. , DALORI",
        "ward": "DALORI / WANORI",
        "lga": "KONDUGA",
        "state": "BORNO"
      }
    },
    {
      "type": "Feature",
      "geometry": {
        "type": "Point",
        "coordinates": [
          13.224603,
          11.7811476
        ]
      },
      "properties": {
        "name": "DALORI R / ROOM ,DALORI",
        "ward": "DALORI / WANORI",
        "lga": "KONDUGA",
        "state": "BORNO"
      }
    },
    {
      "type": "Feature",
      "geometry": {
        "type": "Point",
        "coordinates": [
          13.0920648,
          11.9037291
        ]
      },
      "properties": {
        "name": "ISARI  I",
        "ward": "DALORI / WANORI",
        "lga": "KONDUGA",
        "state": "BORNO"
      }
    },
    {
      "type": "Feature",
      "geometry": {
        "type": "Point",
        "coordinates": [
          13.1211492,
          11.8490719
        ]
      },
      "properties": {
        "name": "ISARI  II",
        "ward": "DALORI / WANORI",
        "lga": "KONDUGA",
        "state": "BORNO"
      }
    },
    {
      "type": "Feature",
      "geometry": {
        "type": "Point",
        "coordinates": [
          13.3285806,
          11.7298909
        ]
      },
      "properties": {
        "name": "KAMBARI , KAMBARI",
        "ward": "DALORI / WANORI",
        "lga": "KONDUGA",
        "state": "BORNO"
      }
    },
    {
      "type": "Feature",
      "geometry": {
        "type": "Point",
        "coordinates": [
          13.1819622,
          11.8123306
        ]
      },
      "properties": {
        "name": "MAIRI PRI. SCH. , MAIRI  I",
        "ward": "DALORI / WANORI",
        "lga": "KONDUGA",
        "state": "BORNO"
      }
    },
    {
      "type": "Feature",
      "geometry": {
        "type": "Point",
        "coordinates": [
          13.1819622,
          11.8123306
        ]
      },
      "properties": {
        "name": "MAIRI PRI. SCH. , MAIRI  II",
        "ward": "DALORI / WANORI",
        "lga": "KONDUGA",
        "state": "BORNO"
      }
    },
    {
      "type": "Feature",
      "geometry": {
        "type": "Point",
        "coordinates": [
          13.4167449,
          11.2502909
        ]
      },
      "properties": {
        "name": "BASAMBURI BOREHOLE",
        "ward": "DALORI / WANORI",
        "lga": "KONDUGA",
        "state": "BORNO"
      }
    },
    {
      "type": "Feature",
      "geometry": {
        "type": "Point",
        "coordinates": [
          12.9770184,
          11.9715301
        ]
      },
      "properties": {
        "name": "WANZAMARI",
        "ward": "DALORI / WANORI",
        "lga": "KONDUGA",
        "state": "BORNO"
      }
    },
    {
      "type": "Feature",
      "geometry": {
        "type": "Point",
        "coordinates": [
          13.3951074,
          11.662156
        ]
      },
      "properties": {
        "name": "KAWURI PRI. SCH. , KAWURI  I",
        "ward": "KAWURI",
        "lga": "KONDUGA",
        "state": "BORNO"
      }
    },
    {
      "type": "Feature",
      "geometry": {
        "type": "Point",
        "coordinates": [
          13.3951074,
          11.662156
        ]
      },
      "properties": {
        "name": "KAWURI PRI. SCH. , KAWURI  II",
        "ward": "KAWURI",
        "lga": "KONDUGA",
        "state": "BORNO"
      }
    },
    {
      "type": "Feature",
      "geometry": {
        "type": "Point",
        "coordinates": [
          13.3951074,
          11.662156
        ]
      },
      "properties": {
        "name": "KASHIMIRI II, PRI. SCH.",
        "ward": "KAWURI",
        "lga": "KONDUGA",
        "state": "BORNO"
      }
    },
    {
      "type": "Feature",
      "geometry": {
        "type": "Point",
        "coordinates": [
          13.3951074,
          11.662156
        ]
      },
      "properties": {
        "name": "AULARI PRI. SCH. , AULARI PRI. SCH.",
        "ward": "KAWURI",
        "lga": "KONDUGA",
        "state": "BORNO"
      }
    },
    {
      "type": "Feature",
      "geometry": {
        "type": "Point",
        "coordinates": [
          13.3951074,
          11.662156
        ]
      },
      "properties": {
        "name": "AULARI PRI. SCH.  II , AULARI",
        "ward": "KAWURI",
        "lga": "KONDUGA",
        "state": "BORNO"
      }
    },
    {
      "type": "Feature",
      "geometry": {
        "type": "Point",
        "coordinates": [
          13.3951074,
          11.662156
        ]
      },
      "properties": {
        "name": "SHETTIMARI PRI. SCH. I",
        "ward": "KAWURI",
        "lga": "KONDUGA",
        "state": "BORNO"
      }
    },
    {
      "type": "Feature",
      "geometry": {
        "type": "Point",
        "coordinates": [
          13.3951074,
          11.662156
        ]
      },
      "properties": {
        "name": "SHETTIMARI PRI. SCH. II",
        "ward": "KAWURI",
        "lga": "KONDUGA",
        "state": "BORNO"
      }
    },
    {
      "type": "Feature",
      "geometry": {
        "type": "Point",
        "coordinates": [
          13.3951074,
          11.662156
        ]
      },
      "properties": {
        "name": "MAIDUGURMARI , PRI. SCH.",
        "ward": "KAWURI",
        "lga": "KONDUGA",
        "state": "BORNO"
      }
    },
    {
      "type": "Feature",
      "geometry": {
        "type": "Point",
        "coordinates": [
          13.1824907,
          11.8097859
        ]
      },
      "properties": {
        "name": "MASBA PRI. SCH. , MASBA  I",
        "ward": "MASBA / DALWA WEST",
        "lga": "KONDUGA",
        "state": "BORNO"
      }
    },
    {
      "type": "Feature",
      "geometry": {
        "type": "Point",
        "coordinates": [
          13.1371811,
          11.8089459
        ]
      },
      "properties": {
        "name": "MASBA PRI. SCH. , MASBA  II",
        "ward": "MASBA / DALWA WEST",
        "lga": "KONDUGA",
        "state": "BORNO"
      }
    },
    {
      "type": "Feature",
      "geometry": {
        "type": "Point",
        "coordinates": [
          12.809069,
          11.0533322
        ]
      },
      "properties": {
        "name": "GUMSURI , GUMSURI",
        "ward": "MASBA / DALWA WEST",
        "lga": "KONDUGA",
        "state": "BORNO"
      }
    },
    {
      "type": "Feature",
      "geometry": {
        "type": "Point",
        "coordinates": [
          13.4167449,
          11.2502909
        ]
      },
      "properties": {
        "name": "TUMBALWA , TUMBALWA",
        "ward": "MASBA / DALWA WEST",
        "lga": "KONDUGA",
        "state": "BORNO"
      }
    },
    {
      "type": "Feature",
      "geometry": {
        "type": "Point",
        "coordinates": [
          13.4167449,
          11.2502909
        ]
      },
      "properties": {
        "name": "BULABULIN, NGAURA I",
        "ward": "MASBA / DALWA WEST",
        "lga": "KONDUGA",
        "state": "BORNO"
      }
    },
    {
      "type": "Feature",
      "geometry": {
        "type": "Point",
        "coordinates": [
          13.4167449,
          11.2502909
        ]
      },
      "properties": {
        "name": "BULABULIN, NGAURA II",
        "ward": "MASBA / DALWA WEST",
        "lga": "KONDUGA",
        "state": "BORNO"
      }
    },
    {
      "type": "Feature",
      "geometry": {
        "type": "Point",
        "coordinates": [
          13.4167449,
          11.2502909
        ]
      },
      "properties": {
        "name": "MAUDARI , MUDARI  II",
        "ward": "MASBA / DALWA WEST",
        "lga": "KONDUGA",
        "state": "BORNO"
      }
    },
    {
      "type": "Feature",
      "geometry": {
        "type": "Point",
        "coordinates": [
          13.1519665,
          11.8846356
        ]
      },
      "properties": {
        "name": "ALAGARNO , ALAGARNO",
        "ward": "MASBA / DALWA WEST",
        "lga": "KONDUGA",
        "state": "BORNO"
      }
    },
    {
      "type": "Feature",
      "geometry": {
        "type": "Point",
        "coordinates": [
          13.1175759,
          11.7911715
        ]
      },
      "properties": {
        "name": "MASTA FANNARI , MASTA  FANNARI",
        "ward": "MASBA / DALWA WEST",
        "lga": "KONDUGA",
        "state": "BORNO"
      }
    },
    {
      "type": "Feature",
      "geometry": {
        "type": "Point",
        "coordinates": [
          12.9726998,
          11.5477596
        ]
      },
      "properties": {
        "name": "TALBARI , TALBARI",
        "ward": "MASBA / DALWA WEST",
        "lga": "KONDUGA",
        "state": "BORNO"
      }
    },
    {
      "type": "Feature",
      "geometry": {
        "type": "Point",
        "coordinates": [
          13.4167449,
          11.2502909
        ]
      },
      "properties": {
        "name": "NGALIDOWA ,NGALIDOWA",
        "ward": "MASBA / DALWA WEST",
        "lga": "KONDUGA",
        "state": "BORNO"
      }
    },
    {
      "type": "Feature",
      "geometry": {
        "type": "Point",
        "coordinates": [
          13.1672236,
          11.8547163
        ]
      },
      "properties": {
        "name": "KOFA , KOFA",
        "ward": "MASBA / DALWA WEST",
        "lga": "KONDUGA",
        "state": "BORNO"
      }
    },
    {
      "type": "Feature",
      "geometry": {
        "type": "Point",
        "coordinates": [
          13.4167449,
          11.2502909
        ]
      },
      "properties": {
        "name": "IBRAHIMTI , IBRAHIMTI",
        "ward": "MASBA / DALWA WEST",
        "lga": "KONDUGA",
        "state": "BORNO"
      }
    },
    {
      "type": "Feature",
      "geometry": {
        "type": "Point",
        "coordinates": [
          13.0137323,
          11.5806966
        ]
      },
      "properties": {
        "name": "KADUWA ,KADUWA",
        "ward": "MASBA / DALWA WEST",
        "lga": "KONDUGA",
        "state": "BORNO"
      }
    },
    {
      "type": "Feature",
      "geometry": {
        "type": "Point",
        "coordinates": [
          13.1732618,
          11.8051383
        ]
      },
      "properties": {
        "name": "MAIRAMRI PRIMARY SCHOOL,  MAIRAMRI I",
        "ward": "MAIRAMRI / YELERI / BAZAMRI",
        "lga": "KONDUGA",
        "state": "BORNO"
      }
    },
    {
      "type": "Feature",
      "geometry": {
        "type": "Point",
        "coordinates": [
          13.1433734,
          11.8372624
        ]
      },
      "properties": {
        "name": "MAIRAMRI PRIMARY SCHOOL, MAIRAMRI II",
        "ward": "MAIRAMRI / YELERI / BAZAMRI",
        "lga": "KONDUGA",
        "state": "BORNO"
      }
    },
    {
      "type": "Feature",
      "geometry": {
        "type": "Point",
        "coordinates": [
          13.1732618,
          11.8051383
        ]
      },
      "properties": {
        "name": "LAWANTI PRI. SCH. ,LAWANTI  I",
        "ward": "MAIRAMRI / YELERI / BAZAMRI",
        "lga": "KONDUGA",
        "state": "BORNO"
      }
    },
    {
      "type": "Feature",
      "geometry": {
        "type": "Point",
        "coordinates": [
          13.1732618,
          11.8051383
        ]
      },
      "properties": {
        "name": "LAWANTI PRI. SCH. ,LAWANTI  II",
        "ward": "MAIRAMRI / YELERI / BAZAMRI",
        "lga": "KONDUGA",
        "state": "BORNO"
      }
    },
    {
      "type": "Feature",
      "geometry": {
        "type": "Point",
        "coordinates": [
          13.1371811,
          11.8089459
        ]
      },
      "properties": {
        "name": "NGAURAWA , NGAURAWA",
        "ward": "MAIRAMRI / YELERI / BAZAMRI",
        "lga": "KONDUGA",
        "state": "BORNO"
      }
    },
    {
      "type": "Feature",
      "geometry": {
        "type": "Point",
        "coordinates": [
          13.2002638,
          11.8327805
        ]
      },
      "properties": {
        "name": "YALERI PRI. SCH. , YALERI",
        "ward": "MAIRAMRI / YELERI / BAZAMRI",
        "lga": "KONDUGA",
        "state": "BORNO"
      }
    },
    {
      "type": "Feature",
      "geometry": {
        "type": "Point",
        "coordinates": [
          13.304952,
          11.8820533
        ]
      },
      "properties": {
        "name": "GALMARI , GALTIMARI",
        "ward": "MAIRAMRI / YELERI / BAZAMRI",
        "lga": "KONDUGA",
        "state": "BORNO"
      }
    },
    {
      "type": "Feature",
      "geometry": {
        "type": "Point",
        "coordinates": [
          13.4167449,
          11.2502909
        ]
      },
      "properties": {
        "name": "BUDUNGERI , BUDUNGERI",
        "ward": "MAIRAMRI / YELERI / BAZAMRI",
        "lga": "KONDUGA",
        "state": "BORNO"
      }
    },
    {
      "type": "Feature",
      "geometry": {
        "type": "Point",
        "coordinates": [
          13.4974258,
          11.7032644
        ]
      },
      "properties": {
        "name": "MAKINTARI , MAKINTARI",
        "ward": "MAIRAMRI / YELERI / BAZAMRI",
        "lga": "KONDUGA",
        "state": "BORNO"
      }
    },
    {
      "type": "Feature",
      "geometry": {
        "type": "Point",
        "coordinates": [
          13.1732618,
          11.8051383
        ]
      },
      "properties": {
        "name": "BAZAMRI PRI. SCH. , BAZAMRI",
        "ward": "MAIRAMRI / YELERI / BAZAMRI",
        "lga": "KONDUGA",
        "state": "BORNO"
      }
    },
    {
      "type": "Feature",
      "geometry": {
        "type": "Point",
        "coordinates": [
          13.3489823,
          12.3229662
        ]
      },
      "properties": {
        "name": "ARNARI , ARNARI  I",
        "ward": "MAIRAMRI / YELERI / BAZAMRI",
        "lga": "KONDUGA",
        "state": "BORNO"
      }
    },
    {
      "type": "Feature",
      "geometry": {
        "type": "Point",
        "coordinates": [
          13.1327047,
          11.8342771
        ]
      },
      "properties": {
        "name": "MBORORI",
        "ward": "MAIRAMRI / YELERI / BAZAMRI",
        "lga": "KONDUGA",
        "state": "BORNO"
      }
    },
    {
      "type": "Feature",
      "geometry": {
        "type": "Point",
        "coordinates": [
          13.4974258,
          11.7032644
        ]
      },
      "properties": {
        "name": "MUKTARI",
        "ward": "MAIRAMRI / YELERI / BAZAMRI",
        "lga": "KONDUGA",
        "state": "BORNO"
      }
    },
    {
      "type": "Feature",
      "geometry": {
        "type": "Point",
        "coordinates": [
          13.4974258,
          11.7032644
        ]
      },
      "properties": {
        "name": "MOSHIMARI II",
        "ward": "MAIRAMRI / YELERI / BAZAMRI",
        "lga": "KONDUGA",
        "state": "BORNO"
      }
    },
    {
      "type": "Feature",
      "geometry": {
        "type": "Point",
        "coordinates": [
          13.1793292,
          12.9448235
        ]
      },
      "properties": {
        "name": "AJARI",
        "ward": "MODURI",
        "lga": "GUZAMALA",
        "state": "BORNO"
      }
    },
    {
      "type": "Feature",
      "geometry": {
        "type": "Point",
        "coordinates": [
          13.0040358,
          11.8479967
        ]
      },
      "properties": {
        "name": "BUWURA",
        "ward": "MODURI",
        "lga": "GUZAMALA",
        "state": "BORNO"
      }
    },
    {
      "type": "Feature",
      "geometry": {
        "type": "Point",
        "coordinates": [
          13.1582888,
          11.8469059
        ]
      },
      "properties": {
        "name": "DAWUTIRI",
        "ward": "MODURI",
        "lga": "GUZAMALA",
        "state": "BORNO"
      }
    },
    {
      "type": "Feature",
      "geometry": {
        "type": "Point",
        "coordinates": [
          12.9665821,
          12.8719427
        ]
      },
      "properties": {
        "name": "MODURI",
        "ward": "MODURI",
        "lga": "GUZAMALA",
        "state": "BORNO"
      }
    },
    {
      "type": "Feature",
      "geometry": {
        "type": "Point",
        "coordinates": [
          12.9106377,
          12.9002812
        ]
      },
      "properties": {
        "name": "TAMALE",
        "ward": "MODURI",
        "lga": "GUZAMALA",
        "state": "BORNO"
      }
    },
    {
      "type": "Feature",
      "geometry": {
        "type": "Point",
        "coordinates": [
          13.1824907,
          11.8097859
        ]
      },
      "properties": {
        "name": "MODURI PRIMARY SCHOOL",
        "ward": "MODURI",
        "lga": "GUZAMALA",
        "state": "BORNO"
      }
    },
    {
      "type": "Feature",
      "geometry": {
        "type": "Point",
        "coordinates": [
          13.0126523,
          13.0049596
        ]
      },
      "properties": {
        "name": "ALIYARI",
        "ward": "GUDUMBALI WEST",
        "lga": "GUZAMALA",
        "state": "BORNO"
      }
    },
    {
      "type": "Feature",
      "geometry": {
        "type": "Point",
        "coordinates": [
          13.0126523,
          13.0049596
        ]
      },
      "properties": {
        "name": "GARANDA",
        "ward": "GUDUMBALI WEST",
        "lga": "GUZAMALA",
        "state": "BORNO"
      }
    },
    {
      "type": "Feature",
      "geometry": {
        "type": "Point",
        "coordinates": [
          12.97216,
          12.957822
        ]
      },
      "properties": {
        "name": "JABURE",
        "ward": "GUDUMBALI WEST",
        "lga": "GUZAMALA",
        "state": "BORNO"
      }
    },
    {
      "type": "Feature",
      "geometry": {
        "type": "Point",
        "coordinates": [
          13.0126523,
          13.0049596
        ]
      },
      "properties": {
        "name": "KARNA DUNGULTI",
        "ward": "GUDUMBALI WEST",
        "lga": "GUZAMALA",
        "state": "BORNO"
      }
    },
    {
      "type": "Feature",
      "geometry": {
        "type": "Point",
        "coordinates": [
          13.0126523,
          13.0049596
        ]
      },
      "properties": {
        "name": "KARNA GABCHARI",
        "ward": "GUDUMBALI WEST",
        "lga": "GUZAMALA",
        "state": "BORNO"
      }
    },
    {
      "type": "Feature",
      "geometry": {
        "type": "Point",
        "coordinates": [
          13.0459561,
          12.9495154
        ]
      },
      "properties": {
        "name": "KOSOROK",
        "ward": "GUDUMBALI WEST",
        "lga": "GUZAMALA",
        "state": "BORNO"
      }
    },
    {
      "type": "Feature",
      "geometry": {
        "type": "Point",
        "coordinates": [
          12.9913023,
          13.000744
        ]
      },
      "properties": {
        "name": "GARANDA LAWANTI",
        "ward": "GUDUMBALI WEST",
        "lga": "GUZAMALA",
        "state": "BORNO"
      }
    },
    {
      "type": "Feature",
      "geometry": {
        "type": "Point",
        "coordinates": [
          13.3549542,
          12.6851939
        ]
      },
      "properties": {
        "name": "GONI ADAMTI",
        "ward": "GUZAMALA EAST",
        "lga": "GUZAMALA",
        "state": "BORNO"
      }
    },
    {
      "type": "Feature",
      "geometry": {
        "type": "Point",
        "coordinates": [
          13.324078,
          12.7075667
        ]
      },
      "properties": {
        "name": "GONI MUSTAFARI",
        "ward": "GUZAMALA EAST",
        "lga": "GUZAMALA",
        "state": "BORNO"
      }
    },
    {
      "type": "Feature",
      "geometry": {
        "type": "Point",
        "coordinates": [
          12.5676331,
          12.5078954
        ]
      },
      "properties": {
        "name": "GONI SUGURI",
        "ward": "GUZAMALA EAST",
        "lga": "GUZAMALA",
        "state": "BORNO"
      }
    },
    {
      "type": "Feature",
      "geometry": {
        "type": "Point",
        "coordinates": [
          13.324078,
          12.7075667
        ]
      },
      "properties": {
        "name": "IBRAHIMTI",
        "ward": "GUZAMALA EAST",
        "lga": "GUZAMALA",
        "state": "BORNO"
      }
    },
    {
      "type": "Feature",
      "geometry": {
        "type": "Point",
        "coordinates": [
          13.324078,
          12.7075667
        ]
      },
      "properties": {
        "name": "KAFI SUNGUL",
        "ward": "GUZAMALA EAST",
        "lga": "GUZAMALA",
        "state": "BORNO"
      }
    },
    {
      "type": "Feature",
      "geometry": {
        "type": "Point",
        "coordinates": [
          13.324078,
          12.7075667
        ]
      },
      "properties": {
        "name": "NGOLLAM",
        "ward": "GUZAMALA EAST",
        "lga": "GUZAMALA",
        "state": "BORNO"
      }
    },
    {
      "type": "Feature",
      "geometry": {
        "type": "Point",
        "coordinates": [
          13.324078,
          12.7075667
        ]
      },
      "properties": {
        "name": "YAGANARI",
        "ward": "GUZAMALA EAST",
        "lga": "GUZAMALA",
        "state": "BORNO"
      }
    },
    {
      "type": "Feature",
      "geometry": {
        "type": "Point",
        "coordinates": [
          13.132228,
          11.858483
        ]
      },
      "properties": {
        "name": "BOLORI",
        "ward": "WAMIRI",
        "lga": "GUZAMALA",
        "state": "BORNO"
      }
    },
    {
      "type": "Feature",
      "geometry": {
        "type": "Point",
        "coordinates": [
          13.4800805,
          12.8401376
        ]
      },
      "properties": {
        "name": "GUWORAM GANA",
        "ward": "WAMIRI",
        "lga": "GUZAMALA",
        "state": "BORNO"
      }
    },
    {
      "type": "Feature",
      "geometry": {
        "type": "Point",
        "coordinates": [
          13.4742993,
          12.7560882
        ]
      },
      "properties": {
        "name": "KAWOU",
        "ward": "WAMIRI",
        "lga": "GUZAMALA",
        "state": "BORNO"
      }
    },
    {
      "type": "Feature",
      "geometry": {
        "type": "Point",
        "coordinates": [
          13.3950139,
          12.6412699
        ]
      },
      "properties": {
        "name": "ALI GAMBORI",
        "ward": "MAIRARI",
        "lga": "GUZAMALA",
        "state": "BORNO"
      }
    },
    {
      "type": "Feature",
      "geometry": {
        "type": "Point",
        "coordinates": [
          13.4280586,
          12.6685503
        ]
      },
      "properties": {
        "name": "GONI ABBARI",
        "ward": "MAIRARI",
        "lga": "GUZAMALA",
        "state": "BORNO"
      }
    },
    {
      "type": "Feature",
      "geometry": {
        "type": "Point",
        "coordinates": [
          13.4280586,
          12.6685503
        ]
      },
      "properties": {
        "name": "KADIGRE",
        "ward": "MAIRARI",
        "lga": "GUZAMALA",
        "state": "BORNO"
      }
    },
    {
      "type": "Feature",
      "geometry": {
        "type": "Point",
        "coordinates": [
          13.149646,
          11.8470382
        ]
      },
      "properties": {
        "name": "GONI USMANTI",
        "ward": "MAIRARI",
        "lga": "GUZAMALA",
        "state": "BORNO"
      }
    },
    {
      "type": "Feature",
      "geometry": {
        "type": "Point",
        "coordinates": [
          13.4280586,
          12.6685503
        ]
      },
      "properties": {
        "name": "MAIRARI I",
        "ward": "MAIRARI",
        "lga": "GUZAMALA",
        "state": "BORNO"
      }
    },
    {
      "type": "Feature",
      "geometry": {
        "type": "Point",
        "coordinates": [
          13.4280586,
          12.6685503
        ]
      },
      "properties": {
        "name": "MAIRARI  II",
        "ward": "MAIRARI",
        "lga": "GUZAMALA",
        "state": "BORNO"
      }
    },
    {
      "type": "Feature",
      "geometry": {
        "type": "Point",
        "coordinates": [
          13.0847056,
          11.8306984
        ]
      },
      "properties": {
        "name": "MAIRARI DISPENSARY",
        "ward": "MAIRARI",
        "lga": "GUZAMALA",
        "state": "BORNO"
      }
    },
    {
      "type": "Feature",
      "geometry": {
        "type": "Point",
        "coordinates": [
          13.4280586,
          12.6685503
        ]
      },
      "properties": {
        "name": "YURAMTI",
        "ward": "MAIRARI",
        "lga": "GUZAMALA",
        "state": "BORNO"
      }
    },
    {
      "type": "Feature",
      "geometry": {
        "type": "Point",
        "coordinates": [
          13.2201828,
          12.8816649
        ]
      },
      "properties": {
        "name": "BOSSAMMA",
        "ward": "GUWORAM",
        "lga": "GUZAMALA",
        "state": "BORNO"
      }
    },
    {
      "type": "Feature",
      "geometry": {
        "type": "Point",
        "coordinates": [
          13.4737573,
          12.7208132
        ]
      },
      "properties": {
        "name": "KIJI MATARI",
        "ward": "GUWORAM",
        "lga": "GUZAMALA",
        "state": "BORNO"
      }
    },
    {
      "type": "Feature",
      "geometry": {
        "type": "Point",
        "coordinates": [
          13.4737573,
          12.7208132
        ]
      },
      "properties": {
        "name": "GUWORAM",
        "ward": "GUWORAM",
        "lga": "GUZAMALA",
        "state": "BORNO"
      }
    },
    {
      "type": "Feature",
      "geometry": {
        "type": "Point",
        "coordinates": [
          13.4800805,
          12.8401376
        ]
      },
      "properties": {
        "name": "LINGIR",
        "ward": "GUWORAM",
        "lga": "GUZAMALA",
        "state": "BORNO"
      }
    },
    {
      "type": "Feature",
      "geometry": {
        "type": "Point",
        "coordinates": [
          13.4800805,
          12.8401376
        ]
      },
      "properties": {
        "name": "BUNARI",
        "ward": "GUWORAM",
        "lga": "GUZAMALA",
        "state": "BORNO"
      }
    },
    {
      "type": "Feature",
      "geometry": {
        "type": "Point",
        "coordinates": [
          13.61549,
          12.671051
        ]
      },
      "properties": {
        "name": "CENTRAL PRI. SCH.",
        "ward": "GUDUMBALI EAST",
        "lga": "GUZAMALA",
        "state": "BORNO"
      }
    },
    {
      "type": "Feature",
      "geometry": {
        "type": "Point",
        "coordinates": [
          13.17603,
          12.945457
        ]
      },
      "properties": {
        "name": "DISPENSARY  I",
        "ward": "GUDUMBALI EAST",
        "lga": "GUZAMALA",
        "state": "BORNO"
      }
    },
    {
      "type": "Feature",
      "geometry": {
        "type": "Point",
        "coordinates": [
          13.17603,
          12.945457
        ]
      },
      "properties": {
        "name": "DISPENSARY  II",
        "ward": "GUDUMBALI EAST",
        "lga": "GUZAMALA",
        "state": "BORNO"
      }
    },
    {
      "type": "Feature",
      "geometry": {
        "type": "Point",
        "coordinates": [
          13.2201828,
          12.9718129
        ]
      },
      "properties": {
        "name": "GUDURMARI  I",
        "ward": "GUDUMBALI EAST",
        "lga": "GUZAMALA",
        "state": "BORNO"
      }
    },
    {
      "type": "Feature",
      "geometry": {
        "type": "Point",
        "coordinates": [
          13.2201828,
          12.9718129
        ]
      },
      "properties": {
        "name": "GUDURMARI II",
        "ward": "GUDUMBALI EAST",
        "lga": "GUZAMALA",
        "state": "BORNO"
      }
    },
    {
      "type": "Feature",
      "geometry": {
        "type": "Point",
        "coordinates": [
          13.2201828,
          12.9718129
        ]
      },
      "properties": {
        "name": "AJARI  I",
        "ward": "GUDUMBALI EAST",
        "lga": "GUZAMALA",
        "state": "BORNO"
      }
    },
    {
      "type": "Feature",
      "geometry": {
        "type": "Point",
        "coordinates": [
          13.2201828,
          12.9718129
        ]
      },
      "properties": {
        "name": "AJARI II",
        "ward": "GUDUMBALI EAST",
        "lga": "GUZAMALA",
        "state": "BORNO"
      }
    },
    {
      "type": "Feature",
      "geometry": {
        "type": "Point",
        "coordinates": [
          13.2201828,
          12.9718129
        ]
      },
      "properties": {
        "name": "DUNARI",
        "ward": "GUDUMBALI EAST",
        "lga": "GUZAMALA",
        "state": "BORNO"
      }
    },
    {
      "type": "Feature",
      "geometry": {
        "type": "Point",
        "coordinates": [
          13.1951237,
          13.0444637
        ]
      },
      "properties": {
        "name": "SHILA'A",
        "ward": "GUDUMBALI EAST",
        "lga": "GUZAMALA",
        "state": "BORNO"
      }
    },
    {
      "type": "Feature",
      "geometry": {
        "type": "Point",
        "coordinates": [
          13.2201828,
          12.9718129
        ]
      },
      "properties": {
        "name": "AISA KA'A",
        "ward": "GUDUMBALI EAST",
        "lga": "GUZAMALA",
        "state": "BORNO"
      }
    },
    {
      "type": "Feature",
      "geometry": {
        "type": "Point",
        "coordinates": [
          13.2201828,
          12.8816649
        ]
      },
      "properties": {
        "name": "KATTANA",
        "ward": "GUDUMBALI EAST",
        "lga": "GUZAMALA",
        "state": "BORNO"
      }
    },
    {
      "type": "Feature",
      "geometry": {
        "type": "Point",
        "coordinates": [
          13.2201828,
          12.9718129
        ]
      },
      "properties": {
        "name": "KADIYA",
        "ward": "GUDUMBALI EAST",
        "lga": "GUZAMALA",
        "state": "BORNO"
      }
    },
    {
      "type": "Feature",
      "geometry": {
        "type": "Point",
        "coordinates": [
          13.2448862,
          12.6839937
        ]
      },
      "properties": {
        "name": "ZANNARI",
        "ward": "GUDUMBALI EAST",
        "lga": "GUZAMALA",
        "state": "BORNO"
      }
    },
    {
      "type": "Feature",
      "geometry": {
        "type": "Point",
        "coordinates": [
          13.2201828,
          12.9718129
        ]
      },
      "properties": {
        "name": "GREMARI",
        "ward": "GUDUMBALI EAST",
        "lga": "GUZAMALA",
        "state": "BORNO"
      }
    },
    {
      "type": "Feature",
      "geometry": {
        "type": "Point",
        "coordinates": [
          13.2201828,
          12.9718129
        ]
      },
      "properties": {
        "name": "GUDUMARI III",
        "ward": "GUDUMBALI EAST",
        "lga": "GUZAMALA",
        "state": "BORNO"
      }
    },
    {
      "type": "Feature",
      "geometry": {
        "type": "Point",
        "coordinates": [
          13.2201828,
          12.9718129
        ]
      },
      "properties": {
        "name": "BULAMARI",
        "ward": "GUDUMBALI EAST",
        "lga": "GUZAMALA",
        "state": "BORNO"
      }
    },
    {
      "type": "Feature",
      "geometry": {
        "type": "Point",
        "coordinates": [
          13.2201828,
          12.9718129
        ]
      },
      "properties": {
        "name": "GUDUMARI LAWANTI",
        "ward": "GUDUMBALI EAST",
        "lga": "GUZAMALA",
        "state": "BORNO"
      }
    },
    {
      "type": "Feature",
      "geometry": {
        "type": "Point",
        "coordinates": [
          13.1793292,
          12.9448235
        ]
      },
      "properties": {
        "name": "VIEWING CENTRE",
        "ward": "GUDUMBALI EAST",
        "lga": "GUZAMALA",
        "state": "BORNO"
      }
    },
    {
      "type": "Feature",
      "geometry": {
        "type": "Point",
        "coordinates": [
          13.2201828,
          12.9718129
        ]
      },
      "properties": {
        "name": "AJARI EAST",
        "ward": "GUDUMBALI EAST",
        "lga": "GUZAMALA",
        "state": "BORNO"
      }
    },
    {
      "type": "Feature",
      "geometry": {
        "type": "Point",
        "coordinates": [
          13.2201828,
          12.9718129
        ]
      },
      "properties": {
        "name": "AJARI WEST",
        "ward": "GUDUMBALI EAST",
        "lga": "GUZAMALA",
        "state": "BORNO"
      }
    },
    {
      "type": "Feature",
      "geometry": {
        "type": "Point",
        "coordinates": [
          12.6483553,
          12.6458131
        ]
      },
      "properties": {
        "name": "HASSANTI",
        "ward": "ADUWA",
        "lga": "GUZAMALA",
        "state": "BORNO"
      }
    },
    {
      "type": "Feature",
      "geometry": {
        "type": "Point",
        "coordinates": [
          13.1712053,
          11.8391383
        ]
      },
      "properties": {
        "name": "ADUWA PRIMARY SCHOOL",
        "ward": "ADUWA",
        "lga": "GUZAMALA",
        "state": "BORNO"
      }
    },
    {
      "type": "Feature",
      "geometry": {
        "type": "Point",
        "coordinates": [
          13.1511322,
          11.8099092
        ]
      },
      "properties": {
        "name": "KURNAWA",
        "ward": "KINGARWA",
        "lga": "GUZAMALA",
        "state": "BORNO"
      }
    },
    {
      "type": "Feature",
      "geometry": {
        "type": "Point",
        "coordinates": [
          13.254805,
          12.6661025
        ]
      },
      "properties": {
        "name": "BOROM BUL",
        "ward": "GUZAMALA WEST",
        "lga": "GUZAMALA",
        "state": "BORNO"
      }
    },
    {
      "type": "Feature",
      "geometry": {
        "type": "Point",
        "coordinates": [
          12.565302,
          13.1979474
        ]
      },
      "properties": {
        "name": "BULAMA MODURI",
        "ward": "GUZAMALA WEST",
        "lga": "GUZAMALA",
        "state": "BORNO"
      }
    },
    {
      "type": "Feature",
      "geometry": {
        "type": "Point",
        "coordinates": [
          13.254805,
          12.6661025
        ]
      },
      "properties": {
        "name": "BIRNIRI",
        "ward": "GUZAMALA WEST",
        "lga": "GUZAMALA",
        "state": "BORNO"
      }
    },
    {
      "type": "Feature",
      "geometry": {
        "type": "Point",
        "coordinates": [
          13.254805,
          12.6661025
        ]
      },
      "properties": {
        "name": "GUZAMALA DISPESARY",
        "ward": "GUZAMALA WEST",
        "lga": "GUZAMALA",
        "state": "BORNO"
      }
    },
    {
      "type": "Feature",
      "geometry": {
        "type": "Point",
        "coordinates": [
          13.254805,
          12.6661025
        ]
      },
      "properties": {
        "name": "GUZAMALA  PRI. SCH.",
        "ward": "GUZAMALA WEST",
        "lga": "GUZAMALA",
        "state": "BORNO"
      }
    },
    {
      "type": "Feature",
      "geometry": {
        "type": "Point",
        "coordinates": [
          13.254805,
          12.6661025
        ]
      },
      "properties": {
        "name": "KINGIRI KURA",
        "ward": "GUZAMALA WEST",
        "lga": "GUZAMALA",
        "state": "BORNO"
      }
    },
    {
      "type": "Feature",
      "geometry": {
        "type": "Point",
        "coordinates": [
          13.254805,
          12.6661025
        ]
      },
      "properties": {
        "name": "MALLORAM",
        "ward": "GUZAMALA WEST",
        "lga": "GUZAMALA",
        "state": "BORNO"
      }
    },
    {
      "type": "Feature",
      "geometry": {
        "type": "Point",
        "coordinates": [
          13.2448862,
          12.6839937
        ]
      },
      "properties": {
        "name": "ZANNARI",
        "ward": "GUZAMALA WEST",
        "lga": "GUZAMALA",
        "state": "BORNO"
      }
    },
    {
      "type": "Feature",
      "geometry": {
        "type": "Point",
        "coordinates": [
          12.2261837,
          10.2684331
        ]
      },
      "properties": {
        "name": "BUMA PRI. SCH. ,BUMA  I",
        "ward": "BUMA",
        "lga": "SHANI",
        "state": "BORNO"
      }
    },
    {
      "type": "Feature",
      "geometry": {
        "type": "Point",
        "coordinates": [
          13.4167449,
          11.2502909
        ]
      },
      "properties": {
        "name": "KOFAR BULAMA G. , KILLING",
        "ward": "BUMA",
        "lga": "SHANI",
        "state": "BORNO"
      }
    },
    {
      "type": "Feature",
      "geometry": {
        "type": "Point",
        "coordinates": [
          13.4167449,
          11.2502909
        ]
      },
      "properties": {
        "name": "KOFAR BULAMA   M. , GULDURUNG",
        "ward": "BUMA",
        "lga": "SHANI",
        "state": "BORNO"
      }
    },
    {
      "type": "Feature",
      "geometry": {
        "type": "Point",
        "coordinates": [
          12.0620908,
          10.2179556
        ]
      },
      "properties": {
        "name": "VIEWING CENTRE, VIEWING CENTRE I",
        "ward": "SHANI",
        "lga": "SHANI",
        "state": "BORNO"
      }
    },
    {
      "type": "Feature",
      "geometry": {
        "type": "Point",
        "coordinates": [
          12.0620908,
          10.2179556
        ]
      },
      "properties": {
        "name": "VIEWING CENTRE, VIEWING CENTRE II",
        "ward": "SHANI",
        "lga": "SHANI",
        "state": "BORNO"
      }
    },
    {
      "type": "Feature",
      "geometry": {
        "type": "Point",
        "coordinates": [
          13.1433734,
          11.8372624
        ]
      },
      "properties": {
        "name": "BIGARI PRI. SCH., BIGARU I",
        "ward": "SHANI",
        "lga": "SHANI",
        "state": "BORNO"
      }
    },
    {
      "type": "Feature",
      "geometry": {
        "type": "Point",
        "coordinates": [
          12.0672757,
          10.2182636
        ]
      },
      "properties": {
        "name": "KOFAR MAI UNGUWA, BIGARU II",
        "ward": "SHANI",
        "lga": "SHANI",
        "state": "BORNO"
      }
    },
    {
      "type": "Feature",
      "geometry": {
        "type": "Point",
        "coordinates": [
          13.1429744,
          11.8912494
        ]
      },
      "properties": {
        "name": "NGABU PRI. SCH., NGABU II",
        "ward": "SHANI",
        "lga": "SHANI",
        "state": "BORNO"
      }
    },
    {
      "type": "Feature",
      "geometry": {
        "type": "Point",
        "coordinates": [
          13.1429744,
          11.8912494
        ]
      },
      "properties": {
        "name": "LAWOLON PRI. SCH., LAWOLOM",
        "ward": "SHANI",
        "lga": "SHANI",
        "state": "BORNO"
      }
    },
    {
      "type": "Feature",
      "geometry": {
        "type": "Point",
        "coordinates": [
          13.1429744,
          11.8912494
        ]
      },
      "properties": {
        "name": "WUROJAM PRI. SCH., WUROJAM",
        "ward": "SHANI",
        "lga": "SHANI",
        "state": "BORNO"
      }
    },
    {
      "type": "Feature",
      "geometry": {
        "type": "Point",
        "coordinates": [
          12.010178,
          10.185114
        ]
      },
      "properties": {
        "name": "KURJE PRI. SCH., KURJE I",
        "ward": "SHANI",
        "lga": "SHANI",
        "state": "BORNO"
      }
    },
    {
      "type": "Feature",
      "geometry": {
        "type": "Point",
        "coordinates": [
          13.1429744,
          11.8912494
        ]
      },
      "properties": {
        "name": "KALGIM PRI. SCH. KALGIM",
        "ward": "SHANI",
        "lga": "SHANI",
        "state": "BORNO"
      }
    },
    {
      "type": "Feature",
      "geometry": {
        "type": "Point",
        "coordinates": [
          12.051835,
          10.2227095
        ]
      },
      "properties": {
        "name": "SHANI DISPENSARY",
        "ward": "SHANI",
        "lga": "SHANI",
        "state": "BORNO"
      }
    },
    {
      "type": "Feature",
      "geometry": {
        "type": "Point",
        "coordinates": [
          12.051835,
          10.2227095
        ]
      },
      "properties": {
        "name": "MBAGU PRI. SCH.",
        "ward": "SHANI",
        "lga": "SHANI",
        "state": "BORNO"
      }
    },
    {
      "type": "Feature",
      "geometry": {
        "type": "Point",
        "coordinates": [
          13.1433734,
          11.8372624
        ]
      },
      "properties": {
        "name": "LANGAMA PRIMARY SCHOOL",
        "ward": "SHANI",
        "lga": "SHANI",
        "state": "BORNO"
      }
    },
    {
      "type": "Feature",
      "geometry": {
        "type": "Point",
        "coordinates": [
          12.1980972,
          10.6176435
        ]
      },
      "properties": {
        "name": "WURTI PRI. SCHOOL",
        "ward": "SHANI",
        "lga": "SHANI",
        "state": "BORNO"
      }
    },
    {
      "type": "Feature",
      "geometry": {
        "type": "Point",
        "coordinates": [
          12.0523705,
          10.2283657
        ]
      },
      "properties": {
        "name": "GWASKARA PRI. SCH. , GWASKARA  I",
        "ward": "GWASKARA",
        "lga": "SHANI",
        "state": "BORNO"
      }
    },
    {
      "type": "Feature",
      "geometry": {
        "type": "Point",
        "coordinates": [
          12.051655,
          10.229822
        ]
      },
      "properties": {
        "name": "LAJADA PRI. SCH. , LAJADA  I",
        "ward": "GWASKARA",
        "lga": "SHANI",
        "state": "BORNO"
      }
    },
    {
      "type": "Feature",
      "geometry": {
        "type": "Point",
        "coordinates": [
          12.051655,
          10.229822
        ]
      },
      "properties": {
        "name": "LAJADA PRI. SCH. , LAJADA  II",
        "ward": "GWASKARA",
        "lga": "SHANI",
        "state": "BORNO"
      }
    },
    {
      "type": "Feature",
      "geometry": {
        "type": "Point",
        "coordinates": [
          13.4167449,
          11.2502909
        ]
      },
      "properties": {
        "name": "KOFAR BULAMA YUSUFU , GORMODO",
        "ward": "GWASKARA",
        "lga": "SHANI",
        "state": "BORNO"
      }
    },
    {
      "type": "Feature",
      "geometry": {
        "type": "Point",
        "coordinates": [
          12.059496,
          10.2181691
        ]
      },
      "properties": {
        "name": "GWASKARA PRIMARY SCHOOL II",
        "ward": "GWASKARA",
        "lga": "SHANI",
        "state": "BORNO"
      }
    },
    {
      "type": "Feature",
      "geometry": {
        "type": "Point",
        "coordinates": [
          11.9119871,
          10.0656002
        ]
      },
      "properties": {
        "name": "GORA PRI. SCH. , GORA  I",
        "ward": "GORA",
        "lga": "SHANI",
        "state": "BORNO"
      }
    },
    {
      "type": "Feature",
      "geometry": {
        "type": "Point",
        "coordinates": [
          11.9119871,
          10.0656002
        ]
      },
      "properties": {
        "name": "GORA PRI. SCH. , GORA  II",
        "ward": "GORA",
        "lga": "SHANI",
        "state": "BORNO"
      }
    },
    {
      "type": "Feature",
      "geometry": {
        "type": "Point",
        "coordinates": [
          11.8139,
          10.3989999
        ]
      },
      "properties": {
        "name": "GORA DISPENSARY , GORA  I",
        "ward": "GORA",
        "lga": "SHANI",
        "state": "BORNO"
      }
    },
    {
      "type": "Feature",
      "geometry": {
        "type": "Point",
        "coordinates": [
          11.8139,
          10.3989999
        ]
      },
      "properties": {
        "name": "GORA DISPENSARY , GORA  II",
        "ward": "GORA",
        "lga": "SHANI",
        "state": "BORNO"
      }
    },
    {
      "type": "Feature",
      "geometry": {
        "type": "Point",
        "coordinates": [
          13.4167449,
          11.2502909
        ]
      },
      "properties": {
        "name": "KOFAR BULAMA , LAWOLOM",
        "ward": "GORA",
        "lga": "SHANI",
        "state": "BORNO"
      }
    },
    {
      "type": "Feature",
      "geometry": {
        "type": "Point",
        "coordinates": [
          13.1371811,
          11.8089459
        ]
      },
      "properties": {
        "name": "UBE PRI. SCH. LAKUNDUM",
        "ward": "KWABA",
        "lga": "SHANI",
        "state": "BORNO"
      }
    },
    {
      "type": "Feature",
      "geometry": {
        "type": "Point",
        "coordinates": [
          12.0032957,
          10.1062409
        ]
      },
      "properties": {
        "name": "KUBO PRI. SCH., KUBO",
        "ward": "KUBO",
        "lga": "SHANI",
        "state": "BORNO"
      }
    },
    {
      "type": "Feature",
      "geometry": {
        "type": "Point",
        "coordinates": [
          13.4167449,
          11.2502909
        ]
      },
      "properties": {
        "name": "KOFAR ABUBAKAR, JEKI I",
        "ward": "KUBO",
        "lga": "SHANI",
        "state": "BORNO"
      }
    },
    {
      "type": "Feature",
      "geometry": {
        "type": "Point",
        "coordinates": [
          13.1592162,
          11.8576994
        ]
      },
      "properties": {
        "name": "KASHIM PRI. SCH. , KASHIM",
        "ward": "GWALASHO",
        "lga": "SHANI",
        "state": "BORNO"
      }
    },
    {
      "type": "Feature",
      "geometry": {
        "type": "Point",
        "coordinates": [
          12.526136,
          10.9323327
        ]
      },
      "properties": {
        "name": "WUROBOKKI PRI. SCH. , WUROBOKKI  I",
        "ward": "GWALASHO",
        "lga": "SHANI",
        "state": "BORNO"
      }
    },
    {
      "type": "Feature",
      "geometry": {
        "type": "Point",
        "coordinates": [
          13.4167449,
          11.2502909
        ]
      },
      "properties": {
        "name": "KOFAR BULAMA ALI , WUROBOKKI  II",
        "ward": "GWALASHO",
        "lga": "SHANI",
        "state": "BORNO"
      }
    },
    {
      "type": "Feature",
      "geometry": {
        "type": "Point",
        "coordinates": [
          6.26755,
          9.6115558
        ]
      },
      "properties": {
        "name": "GARI PRI. SCH. , GARI  I",
        "ward": "GWALASHO",
        "lga": "SHANI",
        "state": "BORNO"
      }
    },
    {
      "type": "Feature",
      "geometry": {
        "type": "Point",
        "coordinates": [
          13.1558564,
          11.8687802
        ]
      },