{
  "type": "FeatureCollection",
  "features": [
    {
      "type": "Feature",
      "geometry": {
        "type": "Point",
        "coordinates": [
          3.3237598,
          6.615260399999999
        ]
      },
      "properties": {
        "name": "ST. MARK'S PRIMARY SCHOOL, GAKEM B.",
        "ward": "GAKEM",
        "lga": "BEKWARRA",
        "state": "CROSS RIVER"
      }
    },
    {
      "type": "Feature",
      "geometry": {
        "type": "Point",
        "coordinates": [
          8.9833374,
          6.7614755
        ]
      },
      "properties": {
        "name": "HEALTH CENTRE GAKEM",
        "ward": "GAKEM",
        "lga": "BEKWARRA",
        "state": "CROSS RIVER"
      }
    },
    {
      "type": "Feature",
      "geometry": {
        "type": "Point",
        "coordinates": [
          8.7078589,
          6.4184348
        ]
      },
      "properties": {
        "name": "AYOGOBA JUNCTION",
        "ward": "GAKEM",
        "lga": "BEKWARRA",
        "state": "CROSS RIVER"
      }
    },
    {
      "type": "Feature",
      "geometry": {
        "type": "Point",
        "coordinates": [
          8.914375699999999,
          6.705210500000001
        ]
      },
      "properties": {
        "name": "IIAH PLAYGROUND GAKEM",
        "ward": "GAKEM",
        "lga": "BEKWARRA",
        "state": "CROSS RIVER"
      }
    },
    {
      "type": "Feature",
      "geometry": {
        "type": "Point",
        "coordinates": [
          8.914375699999999,
          6.705210500000001
        ]
      },
      "properties": {
        "name": "ATIBULUM PRIMARY SCHOOL",
        "ward": "GAKEM",
        "lga": "BEKWARRA",
        "state": "CROSS RIVER"
      }
    },
    {
      "type": "Feature",
      "geometry": {
        "type": "Point",
        "coordinates": [
          8.914375699999999,
          6.705210500000001
        ]
      },
      "properties": {
        "name": "ABUKPEM PRIMARY SCHOOL",
        "ward": "GAKEM",
        "lga": "BEKWARRA",
        "state": "CROSS RIVER"
      }
    },
    {
      "type": "Feature",
      "geometry": {
        "type": "Point",
        "coordinates": [
          8.914375699999999,
          6.705210500000001
        ]
      },
      "properties": {
        "name": "AKANABA  PRIMARY SCHOOL GAKEM",
        "ward": "GAKEM",
        "lga": "BEKWARRA",
        "state": "CROSS RIVER"
      }
    },
    {
      "type": "Feature",
      "geometry": {
        "type": "Point",
        "coordinates": [
          8.914375699999999,
          6.705210500000001
        ]
      },
      "properties": {
        "name": "AKURINYI PRIMARY SCHOOL,  GAKEM",
        "ward": "GAKEM",
        "lga": "BEKWARRA",
        "state": "CROSS RIVER"
      }
    },
    {
      "type": "Feature",
      "geometry": {
        "type": "Point",
        "coordinates": [
          8.914375699999999,
          6.705210500000001
        ]
      },
      "properties": {
        "name": "PRIMARY SCHOOL, INYIE-UKAN",
        "ward": "GAKEM",
        "lga": "BEKWARRA",
        "state": "CROSS RIVER"
      }
    },
    {
      "type": "Feature",
      "geometry": {
        "type": "Point",
        "coordinates": [
          8.914375699999999,
          6.705210500000001
        ]
      },
      "properties": {
        "name": "PRIMARY SCHOOL, USHUARA, GAKEM",
        "ward": "GAKEM",
        "lga": "BEKWARRA",
        "state": "CROSS RIVER"
      }
    },
    {
      "type": "Feature",
      "geometry": {
        "type": "Point",
        "coordinates": [
          8.349859,
          5.0812193
        ]
      },
      "properties": {
        "name": "OPEN SPACE, AYOGOBA",
        "ward": "GAKEM",
        "lga": "BEKWARRA",
        "state": "CROSS RIVER"
      }
    },
    {
      "type": "Feature",
      "geometry": {
        "type": "Point",
        "coordinates": [
          8.914375699999999,
          6.705210500000001
        ]
      },
      "properties": {
        "name": "OHANGABI PLAYGROUND",
        "ward": "AFRIKE OKPECHE",
        "lga": "BEKWARRA",
        "state": "CROSS RIVER"
      }
    },
    {
      "type": "Feature",
      "geometry": {
        "type": "Point",
        "coordinates": [
          8.3213176,
          5.1701983
        ]
      },
      "properties": {
        "name": "BUS STOP (NEAR POSTAL AGENCY)",
        "ward": "AFRIKE OKPECHE",
        "lga": "BEKWARRA",
        "state": "CROSS RIVER"
      }
    },
    {
      "type": "Feature",
      "geometry": {
        "type": "Point",
        "coordinates": [
          8.914375699999999,
          6.705210500000001
        ]
      },
      "properties": {
        "name": "PLAYGROUND EGURUDE",
        "ward": "AFRIKE OKPECHE",
        "lga": "BEKWARRA",
        "state": "CROSS RIVER"
      }
    },
    {
      "type": "Feature",
      "geometry": {
        "type": "Point",
        "coordinates": [
          8.914375699999999,
          6.705210500000001
        ]
      },
      "properties": {
        "name": "OBANISHE PLAYGROUND",
        "ward": "AFRIKE OKPECHE",
        "lga": "BEKWARRA",
        "state": "CROSS RIVER"
      }
    },
    {
      "type": "Feature",
      "geometry": {
        "type": "Point",
        "coordinates": [
          8.1564689,
          6.1091174
        ]
      },
      "properties": {
        "name": "PLAYGROUND AMERICA",
        "ward": "AFRIKE OKPECHE",
        "lga": "BEKWARRA",
        "state": "CROSS RIVER"
      }
    },
    {
      "type": "Feature",
      "geometry": {
        "type": "Point",
        "coordinates": [
          8.914375699999999,
          6.705210500000001
        ]
      },
      "properties": {
        "name": "AYAGE PLAY GROUND",
        "ward": "OTUKPURU",
        "lga": "BEKWARRA",
        "state": "CROSS RIVER"
      }
    },
    {
      "type": "Feature",
      "geometry": {
        "type": "Point",
        "coordinates": [
          8.914375699999999,
          6.705210500000001
        ]
      },
      "properties": {
        "name": "BEWOO PRIMARY SCHOOL",
        "ward": "OTUKPURU",
        "lga": "BEKWARRA",
        "state": "CROSS RIVER"
      }
    },
    {
      "type": "Feature",
      "geometry": {
        "type": "Point",
        "coordinates": [
          8.9099831,
          6.6968136
        ]
      },
      "properties": {
        "name": "PRIMARY SCHOOL OTUKPURU - UKUM",
        "ward": "OTUKPURU",
        "lga": "BEKWARRA",
        "state": "CROSS RIVER"
      }
    },
    {
      "type": "Feature",
      "geometry": {
        "type": "Point",
        "coordinates": [
          8.914375699999999,
          6.705210500000001
        ]
      },
      "properties": {
        "name": "PRIMARY SCHOOL, ABNAGBOR - UKUM",
        "ward": "OTUKPURU",
        "lga": "BEKWARRA",
        "state": "CROSS RIVER"
      }
    },
    {
      "type": "Feature",
      "geometry": {
        "type": "Point",
        "coordinates": [
          8.914375699999999,
          6.705210500000001
        ]
      },
      "properties": {
        "name": "PRIMARY SCHOOL, ABNAGBOR - UKUM",
        "ward": "OTUKPURU",
        "lga": "BEKWARRA",
        "state": "CROSS RIVER"
      }
    },
    {
      "type": "Feature",
      "geometry": {
        "type": "Point",
        "coordinates": [
          8.914375699999999,
          6.705210500000001
        ]
      },
      "properties": {
        "name": "BEKWARRA SECONDARY SCHOOL",
        "ward": "OTUKPURU",
        "lga": "BEKWARRA",
        "state": "CROSS RIVER"
      }
    },
    {
      "type": "Feature",
      "geometry": {
        "type": "Point",
        "coordinates": [
          8.914375699999999,
          6.705210500000001
        ]
      },
      "properties": {
        "name": "PRIMARY SCHOOL, IKPARIKOBO",
        "ward": "OTUKPURU",
        "lga": "BEKWARRA",
        "state": "CROSS RIVER"
      }
    },
    {
      "type": "Feature",
      "geometry": {
        "type": "Point",
        "coordinates": [
          8.914375699999999,
          6.705210500000001
        ]
      },
      "properties": {
        "name": "HEALTH POST ACHIBANG",
        "ward": "OTUKPURU",
        "lga": "BEKWARRA",
        "state": "CROSS RIVER"
      }
    },
    {
      "type": "Feature",
      "geometry": {
        "type": "Point",
        "coordinates": [
          8.748116699999999,
          5.5805318
        ]
      },
      "properties": {
        "name": "OPEN SPACE ILLA BRIDGE",
        "ward": "OTUKPURU",
        "lga": "BEKWARRA",
        "state": "CROSS RIVER"
      }
    },
    {
      "type": "Feature",
      "geometry": {
        "type": "Point",
        "coordinates": [
          8.957657099999999,
          6.678406499999999
        ]
      },
      "properties": {
        "name": "NYANYA NEW JUNCTION, NYANYA",
        "ward": "NYANYA",
        "lga": "BEKWARRA",
        "state": "CROSS RIVER"
      }
    },
    {
      "type": "Feature",
      "geometry": {
        "type": "Point",
        "coordinates": [
          8.914375699999999,
          6.705210500000001
        ]
      },
      "properties": {
        "name": "PRIMARY SCHOOL,  NYANYA- OLIM",
        "ward": "NYANYA",
        "lga": "BEKWARRA",
        "state": "CROSS RIVER"
      }
    },
    {
      "type": "Feature",
      "geometry": {
        "type": "Point",
        "coordinates": [
          8.957657099999999,
          6.678406499999999
        ]
      },
      "properties": {
        "name": "NYANYA PLAYGROUND , NYANYA",
        "ward": "NYANYA",
        "lga": "BEKWARRA",
        "state": "CROSS RIVER"
      }
    },
    {
      "type": "Feature",
      "geometry": {
        "type": "Point",
        "coordinates": [
          8.957657099999999,
          6.678406499999999
        ]
      },
      "properties": {
        "name": "NYANYA TOWN HALL, NYAYAN",
        "ward": "NYANYA",
        "lga": "BEKWARRA",
        "state": "CROSS RIVER"
      }
    },
    {
      "type": "Feature",
      "geometry": {
        "type": "Point",
        "coordinates": [
          8.914375699999999,
          6.705210500000001
        ]
      },
      "properties": {
        "name": "PRIMARY SCHOOL, NYANYA IDIGWE",
        "ward": "NYANYA",
        "lga": "BEKWARRA",
        "state": "CROSS RIVER"
      }
    },
    {
      "type": "Feature",
      "geometry": {
        "type": "Point",
        "coordinates": [
          8.914375699999999,
          6.705210500000001
        ]
      },
      "properties": {
        "name": "PRIMARY SCHOOL, ABUAGBOR - IYE , NYANYA",
        "ward": "NYANYA",
        "lga": "BEKWARRA",
        "state": "CROSS RIVER"
      }
    },
    {
      "type": "Feature",
      "geometry": {
        "type": "Point",
        "coordinates": [
          7.578665699999999,
          9.0291832
        ]
      },
      "properties": {
        "name": "HILARY STR. JUNCTION BY ST. PAUL CATHOLIC CHURCH, NYANYA",
        "ward": "NYANYA",
        "lga": "BEKWARRA",
        "state": "CROSS RIVER"
      }
    },
    {
      "type": "Feature",
      "geometry": {
        "type": "Point",
        "coordinates": [
          7.5632989,
          8.916654099999999
        ]
      },
      "properties": {
        "name": "HEALTH CENTRE, NYANYA-ULIM",
        "ward": "NYANYA",
        "lga": "BEKWARRA",
        "state": "CROSS RIVER"
      }
    },
    {
      "type": "Feature",
      "geometry": {
        "type": "Point",
        "coordinates": [
          7.225867500000001,
          4.8378112
        ]
      },
      "properties": {
        "name": "GARRI PROCESSING FACTORY, NYANYA",
        "ward": "NYANYA",
        "lga": "BEKWARRA",
        "state": "CROSS RIVER"
      }
    },
    {
      "type": "Feature",
      "geometry": {
        "type": "Point",
        "coordinates": [
          8.914375699999999,
          6.705210500000001
        ]
      },
      "properties": {
        "name": "COMMUNITY PRIMARY SCHOOL, IKPARIKOBO",
        "ward": "NYANYA",
        "lga": "BEKWARRA",
        "state": "CROSS RIVER"
      }
    },
    {
      "type": "Feature",
      "geometry": {
        "type": "Point",
        "coordinates": [
          8.9043071,
          6.6820059
        ]
      },
      "properties": {
        "name": "HEALTH CENTRE, IDIGWE",
        "ward": "NYANYA",
        "lga": "BEKWARRA",
        "state": "CROSS RIVER"
      }
    },
    {
      "type": "Feature",
      "geometry": {
        "type": "Point",
        "coordinates": [
          8.914375699999999,
          6.705210500000001
        ]
      },
      "properties": {
        "name": "PLAYGROUND,  IJIBOR",
        "ward": "UGBORO",
        "lga": "BEKWARRA",
        "state": "CROSS RIVER"
      }
    },
    {
      "type": "Feature",
      "geometry": {
        "type": "Point",
        "coordinates": [
          8.852,
          6.670899899999999
        ]
      },
      "properties": {
        "name": "IJIBOR POSTAL AGENCY",
        "ward": "UGBORO",
        "lga": "BEKWARRA",
        "state": "CROSS RIVER"
      }
    },
    {
      "type": "Feature",
      "geometry": {
        "type": "Point",
        "coordinates": [
          8.914375699999999,
          6.705210500000001
        ]
      },
      "properties": {
        "name": "COMMUNITY SEC. SCHOOL, UGBORO",
        "ward": "UGBORO",
        "lga": "BEKWARRA",
        "state": "CROSS RIVER"
      }
    },
    {
      "type": "Feature",
      "geometry": {
        "type": "Point",
        "coordinates": [
          8.914375699999999,
          6.705210500000001
        ]
      },
      "properties": {
        "name": "PRIMARY SCHOOL , UTUKWE",
        "ward": "UGBORO",
        "lga": "BEKWARRA",
        "state": "CROSS RIVER"
      }
    },
    {
      "type": "Feature",
      "geometry": {
        "type": "Point",
        "coordinates": [
          8.914375699999999,
          6.705210500000001
        ]
      },
      "properties": {
        "name": "PRIMARY SCHOOL, AKURINYI",
        "ward": "UGBORO",
        "lga": "BEKWARRA",
        "state": "CROSS RIVER"
      }
    },
    {
      "type": "Feature",
      "geometry": {
        "type": "Point",
        "coordinates": [
          8.8001,
          6.6498
        ]
      },
      "properties": {
        "name": "HEALTH CENTRE, ISHANE-AKA",
        "ward": "UGBORO",
        "lga": "BEKWARRA",
        "state": "CROSS RIVER"
      }
    },
    {
      "type": "Feature",
      "geometry": {
        "type": "Point",
        "coordinates": [
          8.852,
          6.670899899999999
        ]
      },
      "properties": {
        "name": "HEALTH CENTRE, IWISHIBI",
        "ward": "UGBORO",
        "lga": "BEKWARRA",
        "state": "CROSS RIVER"
      }
    },
    {
      "type": "Feature",
      "geometry": {
        "type": "Point",
        "coordinates": [
          8.914375699999999,
          6.705210500000001
        ]
      },
      "properties": {
        "name": "CUSTOMARY COURT PREMISES ABUOCHICHE",
        "ward": "ABUOCHICHE",
        "lga": "BEKWARRA",
        "state": "CROSS RIVER"
      }
    },
    {
      "type": "Feature",
      "geometry": {
        "type": "Point",
        "coordinates": [
          8.899701499999999,
          6.703272
        ]
      },
      "properties": {
        "name": "PLAYGROUND,  ABUOCHICHE",
        "ward": "ABUOCHICHE",
        "lga": "BEKWARRA",
        "state": "CROSS RIVER"
      }
    },
    {
      "type": "Feature",
      "geometry": {
        "type": "Point",
        "coordinates": [
          8.9099831,
          6.6968136
        ]
      },
      "properties": {
        "name": "PRIMARY SCHOOL ABUOCHICHE",
        "ward": "ABUOCHICHE",
        "lga": "BEKWARRA",
        "state": "CROSS RIVER"
      }
    },
    {
      "type": "Feature",
      "geometry": {
        "type": "Point",
        "coordinates": [
          8.9099831,
          6.6968136
        ]
      },
      "properties": {
        "name": "PRIMARY SCHOOL ITEKPA",
        "ward": "ABUOCHICHE",
        "lga": "BEKWARRA",
        "state": "CROSS RIVER"
      }
    },
    {
      "type": "Feature",
      "geometry": {
        "type": "Point",
        "coordinates": [
          8.837890999999999,
          6.899451
        ]
      },
      "properties": {
        "name": "MIKE OGAR'S JUNCTION",
        "ward": "ABUOCHICHE",
        "lga": "BEKWARRA",
        "state": "CROSS RIVER"
      }
    },
    {
      "type": "Feature",
      "geometry": {
        "type": "Point",
        "coordinates": [
          8.899701499999999,
          6.703272
        ]
      },
      "properties": {
        "name": "IRIHUNG-UCHU SQUARE",
        "ward": "ABUOCHICHE",
        "lga": "BEKWARRA",
        "state": "CROSS RIVER"
      }
    },
    {
      "type": "Feature",
      "geometry": {
        "type": "Point",
        "coordinates": [
          8.900592099999999,
          6.7062617
        ]
      },
      "properties": {
        "name": "YOUTH RESOURCE CENTRE",
        "ward": "ABUOCHICHE",
        "lga": "BEKWARRA",
        "state": "CROSS RIVER"
      }
    },
    {
      "type": "Feature",
      "geometry": {
        "type": "Point",
        "coordinates": [
          8.9050426,
          6.694432399999999
        ]
      },
      "properties": {
        "name": "MODEL PRIMARY HEALTH CENTRE",
        "ward": "ABUOCHICHE",
        "lga": "BEKWARRA",
        "state": "CROSS RIVER"
      }
    },
    {
      "type": "Feature",
      "geometry": {
        "type": "Point",
        "coordinates": [
          8.9099831,
          6.6968136
        ]
      },
      "properties": {
        "name": "PRIMARY SCHOOL,  UBUBA-IYE",
        "ward": "IBIARAGIDI",
        "lga": "BEKWARRA",
        "state": "CROSS RIVER"
      }
    },
    {
      "type": "Feature",
      "geometry": {
        "type": "Point",
        "coordinates": [
          8.914375699999999,
          6.705210500000001
        ]
      },
      "properties": {
        "name": "OPPOSITE BIBLE COLLEGE ANYIKANG",
        "ward": "IBIARAGIDI",
        "lga": "BEKWARRA",
        "state": "CROSS RIVER"
      }
    },
    {
      "type": "Feature",
      "geometry": {
        "type": "Point",
        "coordinates": [
          8.907262099999999,
          6.6902336
        ]
      },
      "properties": {
        "name": "PRIMARY SCHOOL IBIARAGIDI",
        "ward": "IBIARAGIDI",
        "lga": "BEKWARRA",
        "state": "CROSS RIVER"
      }
    },
    {
      "type": "Feature",
      "geometry": {
        "type": "Point",
        "coordinates": [
          8.914375699999999,
          6.705210500000001
        ]
      },
      "properties": {
        "name": "PLAYGROUND,  EBEGANG",
        "ward": "IBIARAGIDI",
        "lga": "BEKWARRA",
        "state": "CROSS RIVER"
      }
    },
    {
      "type": "Feature",
      "geometry": {
        "type": "Point",
        "coordinates": [
          8.3213176,
          5.1701983
        ]
      },
      "properties": {
        "name": "BUS STOP, EBEGANG",
        "ward": "IBIARAGIDI",
        "lga": "BEKWARRA",
        "state": "CROSS RIVER"
      }
    },
    {
      "type": "Feature",
      "geometry": {
        "type": "Point",
        "coordinates": [
          8.914375699999999,
          6.705210500000001
        ]
      },
      "properties": {
        "name": "IBIARAGIDI - IYE JUNCTION",
        "ward": "IBIARAGIDI",
        "lga": "BEKWARRA",
        "state": "CROSS RIVER"
      }
    },
    {
      "type": "Feature",
      "geometry": {
        "type": "Point",
        "coordinates": [
          8.914375699999999,
          6.705210500000001
        ]
      },
      "properties": {
        "name": "UBUBA - IYE JUNCTION",
        "ward": "IBIARAGIDI",
        "lga": "BEKWARRA",
        "state": "CROSS RIVER"
      }
    },
    {
      "type": "Feature",
      "geometry": {
        "type": "Point",
        "coordinates": [
          8.9043071,
          6.6820059
        ]
      },
      "properties": {
        "name": "OPEN SPACE, EBEGANG",
        "ward": "IBIARAGIDI",
        "lga": "BEKWARRA",
        "state": "CROSS RIVER"
      }
    },
    {
      "type": "Feature",
      "geometry": {
        "type": "Point",
        "coordinates": [
          8.914375699999999,
          6.705210500000001
        ]
      },
      "properties": {
        "name": "COMMUNITY PRIMARY SCHOOL, ANYIKANG",
        "ward": "IBIARAGIDI",
        "lga": "BEKWARRA",
        "state": "CROSS RIVER"
      }
    },
    {
      "type": "Feature",
      "geometry": {
        "type": "Point",
        "coordinates": [
          8.881499999999999,
          6.6826
        ]
      },
      "properties": {
        "name": "HEALTH CENTRE, ANYIKANG",
        "ward": "IBIARAGIDI",
        "lga": "BEKWARRA",
        "state": "CROSS RIVER"
      }
    },
    {
      "type": "Feature",
      "geometry": {
        "type": "Point",
        "coordinates": [
          8.914375699999999,
          6.705210500000001
        ]
      },
      "properties": {
        "name": "AYABO JUNCTION, AYABO",
        "ward": "IBIARAGIDI",
        "lga": "BEKWARRA",
        "state": "CROSS RIVER"
      }
    },
    {
      "type": "Feature",
      "geometry": {
        "type": "Point",
        "coordinates": [
          8.914375699999999,
          6.705210500000001
        ]
      },
      "properties": {
        "name": "COMMUNITY SEC. SCH. UKPAH",
        "ward": "UKPAH",
        "lga": "BEKWARRA",
        "state": "CROSS RIVER"
      }
    },
    {
      "type": "Feature",
      "geometry": {
        "type": "Point",
        "coordinates": [
          8.625665,
          5.9468288
        ]
      },
      "properties": {
        "name": "BUS STOP MARKET SQUARE UKPAH",
        "ward": "UKPAH",
        "lga": "BEKWARRA",
        "state": "CROSS RIVER"
      }
    },
    {
      "type": "Feature",
      "geometry": {
        "type": "Point",
        "coordinates": [
          8.7721635,
          6.712478200000001
        ]
      },
      "properties": {
        "name": "HOLY CHILD CONVENT PRIMARY SCHOOL UKPAH",
        "ward": "UKPAH",
        "lga": "BEKWARRA",
        "state": "CROSS RIVER"
      }
    },
    {
      "type": "Feature",
      "geometry": {
        "type": "Point",
        "coordinates": [
          8.914375699999999,
          6.705210500000001
        ]
      },
      "properties": {
        "name": "PLAYGROUND, AGBALU",
        "ward": "UKPAH",
        "lga": "BEKWARRA",
        "state": "CROSS RIVER"
      }
    },
    {
      "type": "Feature",
      "geometry": {
        "type": "Point",
        "coordinates": [
          9.1649279,
          6.6676688
        ]
      },
      "properties": {
        "name": "ST. STEPHEN'S PRIMARY SCHOOL, UKPAH",
        "ward": "UKPAH",
        "lga": "BEKWARRA",
        "state": "CROSS RIVER"
      }
    },
    {
      "type": "Feature",
      "geometry": {
        "type": "Point",
        "coordinates": [
          8.7769389,
          6.7188453
        ]
      },
      "properties": {
        "name": "UKPAH MARKET SQUARE",
        "ward": "UKPAH",
        "lga": "BEKWARRA",
        "state": "CROSS RIVER"
      }
    },
    {
      "type": "Feature",
      "geometry": {
        "type": "Point",
        "coordinates": [
          8.9099831,
          6.6968136
        ]
      },
      "properties": {
        "name": "ST. PHINBAR'S PRIMARY SCHOOL, UKARIBU",
        "ward": "UKPAH",
        "lga": "BEKWARRA",
        "state": "CROSS RIVER"
      }
    },
    {
      "type": "Feature",
      "geometry": {
        "type": "Point",
        "coordinates": [
          8.914375699999999,
          6.705210500000001
        ]
      },
      "properties": {
        "name": "UWAGBA PLAYGROUND, UKPAH",
        "ward": "UKPAH",
        "lga": "BEKWARRA",
        "state": "CROSS RIVER"
      }
    },
    {
      "type": "Feature",
      "geometry": {
        "type": "Point",
        "coordinates": [
          8.914375699999999,
          6.705210500000001
        ]
      },
      "properties": {
        "name": "ASHANKPE PLAYGROUND",
        "ward": "UKPAH",
        "lga": "BEKWARRA",
        "state": "CROSS RIVER"
      }
    },
    {
      "type": "Feature",
      "geometry": {
        "type": "Point",
        "coordinates": [
          8.382434,
          6.146942999999999
        ]
      },
      "properties": {
        "name": "ST. ANTHONY'S PRIMARY SCHOOL, UKPAH",
        "ward": "UKPAH",
        "lga": "BEKWARRA",
        "state": "CROSS RIVER"
      }
    },
    {
      "type": "Feature",
      "geometry": {
        "type": "Point",
        "coordinates": [
          8.915994399999999,
          6.626963
        ]
      },
      "properties": {
        "name": "HEALTH POST, UKPARIBU",
        "ward": "UKPAH",
        "lga": "BEKWARRA",
        "state": "CROSS RIVER"
      }
    },
    {
      "type": "Feature",
      "geometry": {
        "type": "Point",
        "coordinates": [
          8.914375699999999,
          6.705210500000001
        ]
      },
      "properties": {
        "name": "OBAGANE PLAY GROUND BETEN",
        "ward": "BETEN",
        "lga": "BEKWARRA",
        "state": "CROSS RIVER"
      }
    },
    {
      "type": "Feature",
      "geometry": {
        "type": "Point",
        "coordinates": [
          9.2012364,
          6.618772900000001
        ]
      },
      "properties": {
        "name": "ST. JUSTINE'S PRIMARY SCHOOL BETEN",
        "ward": "BETEN",
        "lga": "BEKWARRA",
        "state": "CROSS RIVER"
      }
    },
    {
      "type": "Feature",
      "geometry": {
        "type": "Point",
        "coordinates": [
          8.914375699999999,
          6.705210500000001
        ]
      },
      "properties": {
        "name": "PRIMARY SCHOOL IKANDA",
        "ward": "BETEN",
        "lga": "BEKWARRA",
        "state": "CROSS RIVER"
      }
    },
    {
      "type": "Feature",
      "geometry": {
        "type": "Point",
        "coordinates": [
          8.914375699999999,
          6.705210500000001
        ]
      },
      "properties": {
        "name": "PRIMARY SCHOOL AKPAKPA",
        "ward": "BETEN",
        "lga": "BEKWARRA",
        "state": "CROSS RIVER"
      }
    },
    {
      "type": "Feature",
      "geometry": {
        "type": "Point",
        "coordinates": [
          8.9099831,
          6.6968136
        ]
      },
      "properties": {
        "name": "PRIMARY SCHOOL UTUGBOR",
        "ward": "BETEN",
        "lga": "BEKWARRA",
        "state": "CROSS RIVER"
      }
    },
    {
      "type": "Feature",
      "geometry": {
        "type": "Point",
        "coordinates": [
          8.914375699999999,
          6.705210500000001
        ]
      },
      "properties": {
        "name": "PRIMARY SCHOOL ABUANA",
        "ward": "BETEN",
        "lga": "BEKWARRA",
        "state": "CROSS RIVER"
      }
    },
    {
      "type": "Feature",
      "geometry": {
        "type": "Point",
        "coordinates": [
          8.914375699999999,
          6.705210500000001
        ]
      },
      "properties": {
        "name": "EBIEKO TOWN HALL",
        "ward": "BETEN",
        "lga": "BEKWARRA",
        "state": "CROSS RIVER"
      }
    },
    {
      "type": "Feature",
      "geometry": {
        "type": "Point",
        "coordinates": [
          8.914375699999999,
          6.705210500000001
        ]
      },
      "properties": {
        "name": "ABUANA TOWN HALL",
        "ward": "BETEN",
        "lga": "BEKWARRA",
        "state": "CROSS RIVER"
      }
    },
    {
      "type": "Feature",
      "geometry": {
        "type": "Point",
        "coordinates": [
          8.914375699999999,
          6.705210500000001
        ]
      },
      "properties": {
        "name": "PRIMARY SCHOOL, OLOKPA",
        "ward": "BETEN",
        "lga": "BEKWARRA",
        "state": "CROSS RIVER"
      }
    },
    {
      "type": "Feature",
      "geometry": {
        "type": "Point",
        "coordinates": [
          8.748116699999999,
          5.5805318
        ]
      },
      "properties": {
        "name": "PLAYGROUND, LAGOS-IKAHOR",
        "ward": "AFRIKE OCHAGBE",
        "lga": "BEKWARRA",
        "state": "CROSS RIVER"
      }
    },
    {
      "type": "Feature",
      "geometry": {
        "type": "Point",
        "coordinates": [
          8.9099831,
          6.6968136
        ]
      },
      "properties": {
        "name": "ST. DAVID'S PRIMARY SCHOOL, OCHAGBE",
        "ward": "AFRIKE OCHAGBE",
        "lga": "BEKWARRA",
        "state": "CROSS RIVER"
      }
    },
    {
      "type": "Feature",
      "geometry": {
        "type": "Point",
        "coordinates": [
          8.914375699999999,
          6.705210500000001
        ]
      },
      "properties": {
        "name": "COMMUNITY PRI. SCHOOL,KADUNA-OCHAGBE",
        "ward": "AFRIKE OCHAGBE",
        "lga": "BEKWARRA",
        "state": "CROSS RIVER"
      }
    },
    {
      "type": "Feature",
      "geometry": {
        "type": "Point",
        "coordinates": [
          7.6857,
          5.751547
        ]
      },
      "properties": {
        "name": "LEVACHIE TOWN HALL",
        "ward": "ITIGIDI",
        "lga": "ABI",
        "state": "CROSS RIVER"
      }
    },
    {
      "type": "Feature",
      "geometry": {
        "type": "Point",
        "coordinates": [
          8.0215625,
          5.8958125
        ]
      },
      "properties": {
        "name": "COMMUNITY PRIMARY SCHOOL",
        "ward": "ITIGIDI",
        "lga": "ABI",
        "state": "CROSS RIVER"
      }
    },
    {
      "type": "Feature",
      "geometry": {
        "type": "Point",
        "coordinates": [
          8.0215625,
          5.8958125
        ]
      },
      "properties": {
        "name": "IKAMINE PLAY GROUND",
        "ward": "ITIGIDI",
        "lga": "ABI",
        "state": "CROSS RIVER"
      }
    },
    {
      "type": "Feature",
      "geometry": {
        "type": "Point",
        "coordinates": [
          8.0215625,
          5.8958125
        ]
      },
      "properties": {
        "name": "PRIMARY SCHOOL,  EMINEBOL",
        "ward": "ITIGIDI",
        "lga": "ABI",
        "state": "CROSS RIVER"
      }
    },
    {
      "type": "Feature",
      "geometry": {
        "type": "Point",
        "coordinates": [
          8.0215625,
          5.8958125
        ]
      },
      "properties": {
        "name": "NEAR ELDER ASIBONG COMPOUND",
        "ward": "ITIGIDI",
        "lga": "ABI",
        "state": "CROSS RIVER"
      }
    },
    {
      "type": "Feature",
      "geometry": {
        "type": "Point",
        "coordinates": [
          7.9712586,
          5.8587976
        ]
      },
      "properties": {
        "name": "ABEGOR TOWN HALL",
        "ward": "EBOM",
        "lga": "ABI",
        "state": "CROSS RIVER"
      }
    },
    {
      "type": "Feature",
      "geometry": {
        "type": "Point",
        "coordinates": [
          7.9712586,
          5.8587976
        ]
      },
      "properties": {
        "name": "ANOIKPTE PLAYGROUND",
        "ward": "EBOM",
        "lga": "ABI",
        "state": "CROSS RIVER"
      }
    },
    {
      "type": "Feature",
      "geometry": {
        "type": "Point",
        "coordinates": [
          8.3248296,
          4.969450399999999
        ]
      },
      "properties": {
        "name": "HEALTH CENTRE",
        "ward": "EBOM",
        "lga": "ABI",
        "state": "CROSS RIVER"
      }
    },
    {
      "type": "Feature",
      "geometry": {
        "type": "Point",
        "coordinates": [
          8.334288899999999,
          4.992921099999999
        ]
      },
      "properties": {
        "name": "EBOM PRIMARY SCHOOL",
        "ward": "EBOM",
        "lga": "ABI",
        "state": "CROSS RIVER"
      }
    },
    {
      "type": "Feature",
      "geometry": {
        "type": "Point",
        "coordinates": [
          8.748116699999999,
          5.5805318
        ]
      },
      "properties": {
        "name": "NGARABE PLAY GROUND",
        "ward": "EKUREKU II",
        "lga": "ABI",
        "state": "CROSS RIVER"
      }
    },
    {
      "type": "Feature",
      "geometry": {
        "type": "Point",
        "coordinates": [
          8.0823591,
          5.9308596
        ]
      },
      "properties": {
        "name": "PRIMARY SCHOOL ITIEGEVE",
        "ward": "EKUREKU II",
        "lga": "ABI",
        "state": "CROSS RIVER"
      }
    },
    {
      "type": "Feature",
      "geometry": {
        "type": "Point",
        "coordinates": [
          8.0823591,
          5.9308596
        ]
      },
      "properties": {
        "name": "GOVERNMENT PRIMARY SCHOOL, EGBORONYI",
        "ward": "EKUREKU II",
        "lga": "ABI",
        "state": "CROSS RIVER"
      }
    },
    {
      "type": "Feature",
      "geometry": {
        "type": "Point",
        "coordinates": [
          8.748116699999999,
          5.5805318
        ]
      },
      "properties": {
        "name": "PCN EMINEKPON",
        "ward": "EKUREKU II",
        "lga": "ABI",
        "state": "CROSS RIVER"
      }
    },
    {
      "type": "Feature",
      "geometry": {
        "type": "Point",
        "coordinates": [
          8.748116699999999,
          5.5805318
        ]
      },
      "properties": {
        "name": "NGARABE TOWNHALL",
        "ward": "EKUREKU II",
        "lga": "ABI",
        "state": "CROSS RIVER"
      }
    },
    {
      "type": "Feature",
      "geometry": {
        "type": "Point",
        "coordinates": [
          8.748116699999999,
          5.5805318
        ]
      },
      "properties": {
        "name": "AGBARA PLAY GROUND",
        "ward": "EKUREKU II",
        "lga": "ABI",
        "state": "CROSS RIVER"
      }
    },
    {
      "type": "Feature",
      "geometry": {
        "type": "Point",
        "coordinates": [
          8.748116699999999,
          5.5805318
        ]
      },
      "properties": {
        "name": "ANONGELE PLAYGROUND",
        "ward": "EKUREKU II",
        "lga": "ABI",
        "state": "CROSS RIVER"
      }
    },
    {
      "type": "Feature",
      "geometry": {
        "type": "Point",
        "coordinates": [
          8.748116699999999,
          5.5805318
        ]
      },
      "properties": {
        "name": "EGBORONYI PLAYGROUND",
        "ward": "EKUREKU II",
        "lga": "ABI",
        "state": "CROSS RIVER"
      }
    },
    {
      "type": "Feature",
      "geometry": {
        "type": "Point",
        "coordinates": [
          8.748116699999999,
          5.5805318
        ]
      },
      "properties": {
        "name": "AGBARA CIVIC CENTRE",
        "ward": "EKUREKU II",
        "lga": "ABI",
        "state": "CROSS RIVER"
      }
    },
    {
      "type": "Feature",
      "geometry": {
        "type": "Point",
        "coordinates": [
          8.748116699999999,
          5.5805318
        ]
      },
      "properties": {
        "name": "EGIZI PLAYGROUND",
        "ward": "EKUREKU II",
        "lga": "ABI",
        "state": "CROSS RIVER"
      }
    },
    {
      "type": "Feature",
      "geometry": {
        "type": "Point",
        "coordinates": [
          7.9838097,
          5.870710000000001
        ]
      },
      "properties": {
        "name": "AFAFANYI PRIMARY SCHOOL",
        "ward": "AFAFANYI/IGONIGONI",
        "lga": "ABI",
        "state": "CROSS RIVER"
      }
    },
    {
      "type": "Feature",
      "geometry": {
        "type": "Point",
        "coordinates": [
          8.0823591,
          5.9308596
        ]
      },
      "properties": {
        "name": "EZOMEZOM PLAY GROUND",
        "ward": "AFAFANYI/IGONIGONI",
        "lga": "ABI",
        "state": "CROSS RIVER"
      }
    },
    {
      "type": "Feature",
      "geometry": {
        "type": "Point",
        "coordinates": [
          7.9712586,
          5.8587976
        ]
      },
      "properties": {
        "name": "BAZOHURE PLAYGROUND",
        "ward": "AFAFANYI/IGONIGONI",
        "lga": "ABI",
        "state": "CROSS RIVER"
      }
    },
    {
      "type": "Feature",
      "geometry": {
        "type": "Point",
        "coordinates": [
          7.9668,
          5.8525
        ]
      },
      "properties": {
        "name": "HEALTH CENTRE,  IGONIGONI",
        "ward": "AFAFANYI/IGONIGONI",
        "lga": "ABI",
        "state": "CROSS RIVER"
      }
    },
    {
      "type": "Feature",
      "geometry": {
        "type": "Point",
        "coordinates": [
          8.0823591,
          5.9308596
        ]
      },
      "properties": {
        "name": "PCN II PRIMARY SCHOOL",
        "ward": "AFAFANYI/IGONIGONI",
        "lga": "ABI",
        "state": "CROSS RIVER"
      }
    },
    {
      "type": "Feature",
      "geometry": {
        "type": "Point",
        "coordinates": [
          8.349859,
          5.0812193
        ]
      },
      "properties": {
        "name": "OPEOKORI PLAYGROUND",
        "ward": "AFAFANYI/IGONIGONI",
        "lga": "ABI",
        "state": "CROSS RIVER"
      }
    },
    {
      "type": "Feature",
      "geometry": {
        "type": "Point",
        "coordinates": [
          8.0823591,
          5.9308596
        ]
      },
      "properties": {
        "name": "ADADAMA PLAY GROUND",
        "ward": "ADADAMA",
        "lga": "ABI",
        "state": "CROSS RIVER"
      }
    },
    {
      "type": "Feature",
      "geometry": {
        "type": "Point",
        "coordinates": [
          8.0823591,
          5.9308596
        ]
      },
      "properties": {
        "name": "IVONE PLAY GROUND",
        "ward": "ADADAMA",
        "lga": "ABI",
        "state": "CROSS RIVER"
      }
    },
    {
      "type": "Feature",
      "geometry": {
        "type": "Point",
        "coordinates": [
          8.0823591,
          5.9308596
        ]
      },
      "properties": {
        "name": "IMINA PLAY GROUND",
        "ward": "ADADAMA",
        "lga": "ABI",
        "state": "CROSS RIVER"
      }
    },
    {
      "type": "Feature",
      "geometry": {
        "type": "Point",
        "coordinates": [
          8.0823591,
          5.9308596
        ]
      },
      "properties": {
        "name": "IBALEBO PLAY GROUND",
        "ward": "ADADAMA",
        "lga": "ABI",
        "state": "CROSS RIVER"
      }
    },
    {
      "type": "Feature",
      "geometry": {
        "type": "Point",
        "coordinates": [
          8.349859,
          5.0812193
        ]
      },
      "properties": {
        "name": "ISONG INYANG PLAY GROUND",
        "ward": "ADADAMA",
        "lga": "ABI",
        "state": "CROSS RIVER"
      }
    },
    {
      "type": "Feature",
      "geometry": {
        "type": "Point",
        "coordinates": [
          8.0823591,
          5.9308596
        ]
      },
      "properties": {
        "name": "EMINKWE PLAY GROUND",
        "ward": "ADADAMA",
        "lga": "ABI",
        "state": "CROSS RIVER"
      }
    },
    {
      "type": "Feature",
      "geometry": {
        "type": "Point",
        "coordinates": [
          8.0823591,
          5.9308596
        ]
      },
      "properties": {
        "name": "EKPON TOWN HALL",
        "ward": "ADADAMA",
        "lga": "ABI",
        "state": "CROSS RIVER"
      }
    },
    {
      "type": "Feature",
      "geometry": {
        "type": "Point",
        "coordinates": [
          8.0823591,
          5.9308596
        ]
      },
      "properties": {
        "name": "ATANI PRIMARY SCHOOL BESIDE HEALTH CENTRE",
        "ward": "ADADAMA",
        "lga": "ABI",
        "state": "CROSS RIVER"
      }
    },
    {
      "type": "Feature",
      "geometry": {
        "type": "Point",
        "coordinates": [
          8.349859,
          5.0812193
        ]
      },
      "properties": {
        "name": "IBALEBO HEALTH POST",
        "ward": "ADADAMA",
        "lga": "ABI",
        "state": "CROSS RIVER"
      }
    },
    {
      "type": "Feature",
      "geometry": {
        "type": "Point",
        "coordinates": [
          8.349859,
          5.0812193
        ]
      },
      "properties": {
        "name": "EBOKWO PLAY GROUND",
        "ward": "USUMUTONG",
        "lga": "ABI",
        "state": "CROSS RIVER"
      }
    },
    {
      "type": "Feature",
      "geometry": {
        "type": "Point",
        "coordinates": [
          8.748116699999999,
          5.5805318
        ]
      },
      "properties": {
        "name": "EGBEZU PLAY GROUND",
        "ward": "USUMUTONG",
        "lga": "ABI",
        "state": "CROSS RIVER"
      }
    },
    {
      "type": "Feature",
      "geometry": {
        "type": "Point",
        "coordinates": [
          8.349859,
          5.0812193
        ]
      },
      "properties": {
        "name": "ENOISHORI TOWN HALL",
        "ward": "USUMUTONG",
        "lga": "ABI",
        "state": "CROSS RIVER"
      }
    },
    {
      "type": "Feature",
      "geometry": {
        "type": "Point",
        "coordinates": [
          8.349859,
          5.0812193
        ]
      },
      "properties": {
        "name": "ENOISHORI PLAY GROUND",
        "ward": "USUMUTONG",
        "lga": "ABI",
        "state": "CROSS RIVER"
      }
    },
    {
      "type": "Feature",
      "geometry": {
        "type": "Point",
        "coordinates": [
          8.349859,
          5.0812193
        ]
      },
      "properties": {
        "name": "ENOKPORE PLAY GROUND",
        "ward": "USUMUTONG",
        "lga": "ABI",
        "state": "CROSS RIVER"
      }
    },
    {
      "type": "Feature",
      "geometry": {
        "type": "Point",
        "coordinates": [
          8.349859,
          5.0812193
        ]
      },
      "properties": {
        "name": "ENOIKPOROTUM PLAY GROUND",
        "ward": "USUMUTONG",
        "lga": "ABI",
        "state": "CROSS RIVER"
      }
    },
    {
      "type": "Feature",
      "geometry": {
        "type": "Point",
        "coordinates": [
          8.349859,
          5.0812193
        ]
      },
      "properties": {
        "name": "ENOIDOM PLAY GROUND",
        "ward": "USUMUTONG",
        "lga": "ABI",
        "state": "CROSS RIVER"
      }
    },
    {
      "type": "Feature",
      "geometry": {
        "type": "Point",
        "coordinates": [
          7.972955799999999,
          5.854241500000001
        ]
      },
      "properties": {
        "name": "PRIMARY SCHOOL USUMUTONG",
        "ward": "USUMUTONG",
        "lga": "ABI",
        "state": "CROSS RIVER"
      }
    },
    {
      "type": "Feature",
      "geometry": {
        "type": "Point",
        "coordinates": [
          7.488946899999998,
          6.414725499999999
        ]
      },
      "properties": {
        "name": "ST. VINCENT PRIMARY SCHOOL ANONG",
        "ward": "EKUREKU I",
        "lga": "ABI",
        "state": "CROSS RIVER"
      }
    },
    {
      "type": "Feature",
      "geometry": {
        "type": "Point",
        "coordinates": [
          8.349859,
          5.0812193
        ]
      },
      "properties": {
        "name": "LIKPO TOWN HALL",
        "ward": "EKUREKU I",
        "lga": "ABI",
        "state": "CROSS RIVER"
      }
    },
    {
      "type": "Feature",
      "geometry": {
        "type": "Point",
        "coordinates": [
          8.349859,
          5.0812193
        ]
      },
      "properties": {
        "name": "ANONG LETAFOR PLAY GROUND",
        "ward": "EKUREKU I",
        "lga": "ABI",
        "state": "CROSS RIVER"
      }
    },
    {
      "type": "Feature",
      "geometry": {
        "type": "Point",
        "coordinates": [
          7.972955799999999,
          5.854241500000001
        ]
      },
      "properties": {
        "name": "PRIMARY SCHOOL EKUREKU",
        "ward": "EKUREKU I",
        "lga": "ABI",
        "state": "CROSS RIVER"
      }
    },
    {
      "type": "Feature",
      "geometry": {
        "type": "Point",
        "coordinates": [
          8.349859,
          5.0812193
        ]
      },
      "properties": {
        "name": "AKPOHE PLAY GROUND",
        "ward": "EKUREKU I",
        "lga": "ABI",
        "state": "CROSS RIVER"
      }
    },
    {
      "type": "Feature",
      "geometry": {
        "type": "Point",
        "coordinates": [
          8.349859,
          5.0812193
        ]
      },
      "properties": {
        "name": "AKPANKU PLAY GROUND",
        "ward": "EKUREKU I",
        "lga": "ABI",
        "state": "CROSS RIVER"
      }
    },
    {
      "type": "Feature",
      "geometry": {
        "type": "Point",
        "coordinates": [
          8.0198824,
          5.9844988
        ]
      },
      "properties": {
        "name": "EKUREKU MARKET SQUARE",
        "ward": "EKUREKU I",
        "lga": "ABI",
        "state": "CROSS RIVER"
      }
    },
    {
      "type": "Feature",
      "geometry": {
        "type": "Point",
        "coordinates": [
          8.349859,
          5.0812193
        ]
      },
      "properties": {
        "name": "AKAREFOR PLAY GROUND",
        "ward": "EKUREKU I",
        "lga": "ABI",
        "state": "CROSS RIVER"
      }
    },
    {
      "type": "Feature",
      "geometry": {
        "type": "Point",
        "coordinates": [
          8.6160674,
          6.631581499999999
        ]
      },
      "properties": {
        "name": "ANONG TOWN HALL",
        "ward": "EKUREKU I",
        "lga": "ABI",
        "state": "CROSS RIVER"
      }
    },
    {
      "type": "Feature",
      "geometry": {
        "type": "Point",
        "coordinates": [
          8.3417006,
          4.9757165
        ]
      },
      "properties": {
        "name": "LIKPO WATERSIDE TOWN HALL",
        "ward": "EKUREKU I",
        "lga": "ABI",
        "state": "CROSS RIVER"
      }
    },
    {
      "type": "Feature",
      "geometry": {
        "type": "Point",
        "coordinates": [
          8.748116699999999,
          5.5805318
        ]
      },
      "properties": {
        "name": "EKUREKU-BE PLAYGROUND",
        "ward": "EKUREKU I",
        "lga": "ABI",
        "state": "CROSS RIVER"
      }
    },
    {
      "type": "Feature",
      "geometry": {
        "type": "Point",
        "coordinates": [
          8.0823591,
          5.9308596
        ]
      },
      "properties": {
        "name": "GOVERNMENT SECONDARY SCHOOL EZEKE",
        "ward": "EKUREKU I",
        "lga": "ABI",
        "state": "CROSS RIVER"
      }
    },
    {
      "type": "Feature",
      "geometry": {
        "type": "Point",
        "coordinates": [
          8.0835963,
          5.807750299999999
        ]
      },
      "properties": {
        "name": "PRESBYTERIAN PRIMARY SCHOOL",
        "ward": "EKUREKU I",
        "lga": "ABI",
        "state": "CROSS RIVER"
      }
    },
    {
      "type": "Feature",
      "geometry": {
        "type": "Point",
        "coordinates": [
          8.349859,
          5.0812193
        ]
      },
      "properties": {
        "name": "BA EGBENG TOWN HALL",
        "ward": "IMABANA II",
        "lga": "ABI",
        "state": "CROSS RIVER"
      }
    },
    {
      "type": "Feature",
      "geometry": {
        "type": "Point",
        "coordinates": [
          8.0823591,
          5.9308596
        ]
      },
      "properties": {
        "name": "LEHANGHA PRIMARY SCHOOL",
        "ward": "IMABANA II",
        "lga": "ABI",
        "state": "CROSS RIVER"
      }
    },
    {
      "type": "Feature",
      "geometry": {
        "type": "Point",
        "coordinates": [
          8.748116699999999,
          5.5805318
        ]
      },
      "properties": {
        "name": "IKPALEGWA PLAY GROUND",
        "ward": "IMABANA II",
        "lga": "ABI",
        "state": "CROSS RIVER"
      }
    },
    {
      "type": "Feature",
      "geometry": {
        "type": "Point",
        "coordinates": [
          8.0823591,
          5.9308596
        ]
      },
      "properties": {
        "name": "IKPALEGWA PRIMARY SCHOOL",
        "ward": "IMABANA II",
        "lga": "ABI",
        "state": "CROSS RIVER"
      }
    },
    {
      "type": "Feature",
      "geometry": {
        "type": "Point",
        "coordinates": [
          8.0823591,
          5.9308596
        ]
      },
      "properties": {
        "name": "LEHANGHA PRIMARY SCHOOL",
        "ward": "IMABANA II",
        "lga": "ABI",
        "state": "CROSS RIVER"
      }
    },
    {
      "type": "Feature",
      "geometry": {
        "type": "Point",
        "coordinates": [
          8.349859,
          5.0812193
        ]
      },
      "properties": {
        "name": "POSTAL AGENCY",
        "ward": "IMABANA I",
        "lga": "ABI",
        "state": "CROSS RIVER"
      }
    },
    {
      "type": "Feature",
      "geometry": {
        "type": "Point",
        "coordinates": [
          8.148226,
          5.940265
        ]
      },
      "properties": {
        "name": "OPPOSITE MARKET SQUARE",
        "ward": "IMABANA I",
        "lga": "ABI",
        "state": "CROSS RIVER"
      }
    },
    {
      "type": "Feature",
      "geometry": {
        "type": "Point",
        "coordinates": [
          7.972955799999999,
          5.854241500000001
        ]
      },
      "properties": {
        "name": "PRIMARY SCHOOL I IMABANA",
        "ward": "IMABANA I",
        "lga": "ABI",
        "state": "CROSS RIVER"
      }
    },
    {
      "type": "Feature",
      "geometry": {
        "type": "Point",
        "coordinates": [
          8.34245,
          4.97408
        ]
      },
      "properties": {
        "name": "HEALTH CENTRE, AMOTOMOZI",
        "ward": "IMABANA I",
        "lga": "ABI",
        "state": "CROSS RIVER"
      }
    },
    {
      "type": "Feature",
      "geometry": {
        "type": "Point",
        "coordinates": [
          8.349859,
          5.0812193
        ]
      },
      "properties": {
        "name": "AKPANKU PLAY GROUND",
        "ward": "IMABANA I",
        "lga": "ABI",
        "state": "CROSS RIVER"
      }
    },
    {
      "type": "Feature",
      "geometry": {
        "type": "Point",
        "coordinates": [
          8.349859,
          5.0812193
        ]
      },
      "properties": {
        "name": "NEAR EDOGHI ITOBO'S HOUSE ECHEKWU",
        "ward": "IMABANA I",
        "lga": "ABI",
        "state": "CROSS RIVER"
      }
    },
    {
      "type": "Feature",
      "geometry": {
        "type": "Point",
        "coordinates": [
          8.0823591,
          5.9308596
        ]
      },
      "properties": {
        "name": "SECONDARY SCHOOL, EZOMEZOM",
        "ward": "IMABANA I",
        "lga": "ABI",
        "state": "CROSS RIVER"
      }
    },
    {
      "type": "Feature",
      "geometry": {
        "type": "Point",
        "coordinates": [
          8.324195399999999,
          4.998858999999999
        ]
      },
      "properties": {
        "name": "PRIMARY SCHOOL, IFAKO",
        "ward": "EKORI/ANAKU",
        "lga": "ODUKPANI",
        "state": "CROSS RIVER"
      }
    },
    {
      "type": "Feature",
      "geometry": {
        "type": "Point",
        "coordinates": [
          8.1759015,
          5.1667979
        ]
      },
      "properties": {
        "name": "PLAYGROUND, AFAHA",
        "ward": "EKORI/ANAKU",
        "lga": "ODUKPANI",
        "state": "CROSS RIVER"
      }
    },
    {
      "type": "Feature",
      "geometry": {
        "type": "Point",
        "coordinates": [
          8.2524785,
          5.184201799999999
        ]
      },
      "properties": {
        "name": "PLAYGROUND, EKENGE",
        "ward": "EKORI/ANAKU",
        "lga": "ODUKPANI",
        "state": "CROSS RIVER"
      }
    },
    {
      "type": "Feature",
      "geometry": {
        "type": "Point",
        "coordinates": [
          8.476844,
          4.875798
        ]
      },
      "properties": {
        "name": "PLAY GROUND, NYAKASANG",
        "ward": "EKORI/ANAKU",
        "lga": "ODUKPANI",
        "state": "CROSS RIVER"
      }
    },
    {
      "type": "Feature",
      "geometry": {
        "type": "Point",
        "coordinates": [
          8.324195399999999,
          4.998858999999999
        ]
      },
      "properties": {
        "name": "PRIMARY SCHOOL, NDON-NYAM",
        "ward": "EKORI/ANAKU",
        "lga": "ODUKPANI",
        "state": "CROSS RIVER"
      }
    },
    {
      "type": "Feature",
      "geometry": {
        "type": "Point",
        "coordinates": [
          8.127661100000001,
          5.1548003
        ]
      },
      "properties": {
        "name": "PLAY GROUND, INUA-AKPA",
        "ward": "EKORI/ANAKU",
        "lga": "ODUKPANI",
        "state": "CROSS RIVER"
      }
    },
    {
      "type": "Feature",
      "geometry": {
        "type": "Point",
        "coordinates": [
          8.3492484,
          5.0722947
        ]
      },
      "properties": {
        "name": "PRIMARY SCHOOL, IKOT EFFIONG OTOP",
        "ward": "EKORI/ANAKU",
        "lga": "ODUKPANI",
        "state": "CROSS RIVER"
      }
    },
    {
      "type": "Feature",
      "geometry": {
        "type": "Point",
        "coordinates": [
          8.1618601,
          5.1296389
        ]
      },
      "properties": {
        "name": "PRIMARY SCHOOL, OKPOK IKPA",
        "ward": "EKORI/ANAKU",
        "lga": "ODUKPANI",
        "state": "CROSS RIVER"
      }
    },
    {
      "type": "Feature",
      "geometry": {
        "type": "Point",
        "coordinates": [
          8.349859,
          5.0812193
        ]
      },
      "properties": {
        "name": "PLAY GROUND, NKITA",
        "ward": "EKORI/ANAKU",
        "lga": "ODUKPANI",
        "state": "CROSS RIVER"
      }
    },
    {
      "type": "Feature",
      "geometry": {
        "type": "Point",
        "coordinates": [
          8.352222,
          5.0564031
        ]
      },
      "properties": {
        "name": "POSTAL AGENCY, OKURIKANG",
        "ward": "EKORI/ANAKU",
        "lga": "ODUKPANI",
        "state": "CROSS RIVER"
      }
    },
    {
      "type": "Feature",
      "geometry": {
        "type": "Point",
        "coordinates": [
          8.476844,
          4.875798
        ]
      },
      "properties": {
        "name": "PLAY GROUND, OBOT AKPANG",
        "ward": "EKORI/ANAKU",
        "lga": "ODUKPANI",
        "state": "CROSS RIVER"
      }
    },
    {
      "type": "Feature",
      "geometry": {
        "type": "Point",
        "coordinates": [
          8.476844,
          4.875798
        ]
      },
      "properties": {
        "name": "PLAY GROUND, IKOT OFFIONG EBE",
        "ward": "EKORI/ANAKU",
        "lga": "ODUKPANI",
        "state": "CROSS RIVER"
      }
    },
    {
      "type": "Feature",
      "geometry": {
        "type": "Point",
        "coordinates": [
          8.349859,
          5.0812193
        ]
      },
      "properties": {
        "name": "PLAY GROUND, UKEM",
        "ward": "EKORI/ANAKU",
        "lga": "ODUKPANI",
        "state": "CROSS RIVER"
      }
    },
    {
      "type": "Feature",
      "geometry": {
        "type": "Point",
        "coordinates": [
          8.349859,
          5.0812193
        ]
      },
      "properties": {
        "name": "PLAY GROUND, NTA OBO",
        "ward": "EKORI/ANAKU",
        "lga": "ODUKPANI",
        "state": "CROSS RIVER"
      }
    },
    {
      "type": "Feature",
      "geometry": {
        "type": "Point",
        "coordinates": [
          8.349859,
          5.0812193
        ]
      },
      "properties": {
        "name": "PLAY GROUND, NDONITRI",
        "ward": "EKORI/ANAKU",
        "lga": "ODUKPANI",
        "state": "CROSS RIVER"
      }
    },
    {
      "type": "Feature",
      "geometry": {
        "type": "Point",
        "coordinates": [
          8.1759015,
          5.1667979
        ]
      },
      "properties": {
        "name": "PLAY GROUND, OKURIKANG",
        "ward": "EKORI/ANAKU",
        "lga": "ODUKPANI",
        "state": "CROSS RIVER"
      }
    },
    {
      "type": "Feature",
      "geometry": {
        "type": "Point",
        "coordinates": [
          8.349859,
          5.0812193
        ]
      },
      "properties": {
        "name": "OKURIKANG JUNCTION SQUARE",
        "ward": "EKORI/ANAKU",
        "lga": "ODUKPANI",
        "state": "CROSS RIVER"
      }
    },
    {
      "type": "Feature",
      "geometry": {
        "type": "Point",
        "coordinates": [
          8.3357157,
          5.0174085
        ]
      },
      "properties": {
        "name": "PRIMARY SCHOOL, MBIABO EDERE",
        "ward": "OBOMITIAT/MBIABO/EDIONG",
        "lga": "ODUKPANI",
        "state": "CROSS RIVER"
      }
    },
    {
      "type": "Feature",
      "geometry": {
        "type": "Point",
        "coordinates": [
          8.065139199999999,
          5.2501776
        ]
      },
      "properties": {
        "name": "PLAY GROUND, OBOMITIAT",
        "ward": "OBOMITIAT/MBIABO/EDIONG",
        "lga": "ODUKPANI",
        "state": "CROSS RIVER"
      }
    },
    {
      "type": "Feature",
      "geometry": {
        "type": "Point",
        "coordinates": [
          8.065139199999999,
          5.2501776
        ]
      },
      "properties": {
        "name": "PLAY GROUND, IKOT IWATT",
        "ward": "OBOMITIAT/MBIABO/EDIONG",
        "lga": "ODUKPANI",
        "state": "CROSS RIVER"
      }
    },
    {
      "type": "Feature",
      "geometry": {
        "type": "Point",
        "coordinates": [
          8.065139199999999,
          5.2501776
        ]
      },
      "properties": {
        "name": "PLAY GROUND, ISO ESUK",
        "ward": "OBOMITIAT/MBIABO/EDIONG",
        "lga": "ODUKPANI",
        "state": "CROSS RIVER"
      }
    },
    {
      "type": "Feature",
      "geometry": {
        "type": "Point",
        "coordinates": [
          8.065139199999999,
          5.2501776
        ]
      },
      "properties": {
        "name": "PLAY GROUND, AKWA IKOT",
        "ward": "OBOMITIAT/MBIABO/EDIONG",
        "lga": "ODUKPANI",
        "state": "CROSS RIVER"
      }
    },
    {
      "type": "Feature",
      "geometry": {
        "type": "Point",
        "coordinates": [
          8.324195399999999,
          4.998858999999999
        ]
      },
      "properties": {
        "name": "PRIMARY SCHOOL, EDIONG",
        "ward": "OBOMITIAT/MBIABO/EDIONG",
        "lga": "ODUKPANI",
        "state": "CROSS RIVER"
      }
    },
    {
      "type": "Feature",
      "geometry": {
        "type": "Point",
        "coordinates": [
          7.968971,
          5.27705
        ]
      },
      "properties": {
        "name": "PRIMARY SCHOOL, OBIO USIERE",
        "ward": "ENIONG",
        "lga": "ODUKPANI",
        "state": "CROSS RIVER"
      }
    },
    {
      "type": "Feature",
      "geometry": {
        "type": "Point",
        "coordinates": [
          7.9956758,
          5.3192311
        ]
      },
      "properties": {
        "name": "PRIMARY SCHOOL, ATAN ONOYOM",
        "ward": "ENIONG",
        "lga": "ODUKPANI",
        "state": "CROSS RIVER"
      }
    },
    {
      "type": "Feature",
      "geometry": {
        "type": "Point",
        "coordinates": [
          7.9785985,
          5.2407886
        ]
      },
      "properties": {
        "name": "PRIMARY SCHOOL, IKOT EBITI",
        "ward": "ENIONG",
        "lga": "ODUKPANI",
        "state": "CROSS RIVER"
      }
    },
    {
      "type": "Feature",
      "geometry": {
        "type": "Point",
        "coordinates": [
          7.8511099,
          5.333127999999999
        ]
      },
      "properties": {
        "name": "PLAY GROUND, OKPO ENIONG",
        "ward": "ENIONG",
        "lga": "ODUKPANI",
        "state": "CROSS RIVER"
      }
    },
    {
      "type": "Feature",
      "geometry": {
        "type": "Point",
        "coordinates": [
          7.941331,
          5.282795
        ]
      },
      "properties": {
        "name": "PRIMAMRY SCHOOL, ASANG ENIONG",
        "ward": "ENIONG",
        "lga": "ODUKPANI",
        "state": "CROSS RIVER"
      }
    },
    {
      "type": "Feature",
      "geometry": {
        "type": "Point",
        "coordinates": [
          8.324195399999999,
          4.998858999999999
        ]
      },
      "properties": {
        "name": "PRIMARY SCHOOL, IKOT OFFIONG EBITI",
        "ward": "ENIONG",
        "lga": "ODUKPANI",
        "state": "CROSS RIVER"
      }
    },
    {
      "type": "Feature",
      "geometry": {
        "type": "Point",
        "coordinates": [
          8.349917,
          5.3189793
        ]
      },
      "properties": {
        "name": "PLAY GROUND, NTAN OBU UKPE",
        "ward": "ENIONG",
        "lga": "ODUKPANI",
        "state": "CROSS RIVER"
      }
    },
    {
      "type": "Feature",
      "geometry": {
        "type": "Point",
        "coordinates": [
          7.851437,
          5.332456
        ]
      },
      "properties": {
        "name": "PRIMARY SCHOOL, OBOT AKPABIO",
        "ward": "ENIONG",
        "lga": "ODUKPANI",
        "state": "CROSS RIVER"
      }
    },
    {
      "type": "Feature",
      "geometry": {
        "type": "Point",
        "coordinates": [
          7.89172,
          5.3392195
        ]
      },
      "properties": {
        "name": "PRIMARY SCHOOL, ISONG INYANG",
        "ward": "ENIONG",
        "lga": "ODUKPANI",
        "state": "CROSS RIVER"
      }
    },
    {
      "type": "Feature",
      "geometry": {
        "type": "Point",
        "coordinates": [
          8.349859,
          5.0812193
        ]
      },
      "properties": {
        "name": "PLAY GROUND, UYI IKOT EKANEM",
        "ward": "ENIONG",
        "lga": "ODUKPANI",
        "state": "CROSS RIVER"
      }
    },
    {
      "type": "Feature",
      "geometry": {
        "type": "Point",
        "coordinates": [
          7.6425979,
          5.410227
        ]
      },
      "properties": {
        "name": "VILLAGE SQUARE, IKOT UDIA",
        "ward": "ENIONG",
        "lga": "ODUKPANI",
        "state": "CROSS RIVER"
      }
    },
    {
      "type": "Feature",
      "geometry": {
        "type": "Point",
        "coordinates": [
          8.349917,
          5.3189793
        ]
      },
      "properties": {
        "name": "PLAY GROUND, ODUNG ENIONG",
        "ward": "ENIONG",
        "lga": "ODUKPANI",
        "state": "CROSS RIVER"
      }
    },
    {
      "type": "Feature",
      "geometry": {
        "type": "Point",
        "coordinates": [
          8.0390739,
          5.2851079
        ]
      },
      "properties": {
        "name": "PLAYGROUND, ATAN ONOYOM",
        "ward": "ENIONG",
        "lga": "ODUKPANI",
        "state": "CROSS RIVER"
      }
    },
    {
      "type": "Feature",
      "geometry": {
        "type": "Point",
        "coordinates": [
          8.252542300000002,
          5.071067
        ]
      },
      "properties": {
        "name": "PRIMARY SCHOOL, IKOT ESSIEN",
        "ward": "CREEK TOWN II",
        "lga": "ODUKPANI",
        "state": "CROSS RIVER"
      }
    },
    {
      "type": "Feature",
      "geometry": {
        "type": "Point",
        "coordinates": [
          8.208124200000002,
          5.080613
        ]
      },
      "properties": {
        "name": "PRIMARY SCHOOL, URUA ETAK UYO",
        "ward": "CREEK TOWN II",
        "lga": "ODUKPANI",
        "state": "CROSS RIVER"
      }
    },
    {
      "type": "Feature",
      "geometry": {
        "type": "Point",
        "coordinates": [
          8.252542300000002,
          5.071067
        ]
      },
      "properties": {
        "name": "PRIMARY SCHOOL, IKOT OKON ABASI",
        "ward": "CREEK TOWN II",
        "lga": "ODUKPANI",
        "state": "CROSS RIVER"
      }
    },
    {
      "type": "Feature",
      "geometry": {
        "type": "Point",
        "coordinates": [
          8.324195399999999,
          4.998858999999999
        ]
      },
      "properties": {
        "name": "PRIMARY SCHOOL, OKIMBE",
        "ward": "CREEK TOWN II",
        "lga": "ODUKPANI",
        "state": "CROSS RIVER"
      }
    },
    {
      "type": "Feature",
      "geometry": {
        "type": "Point",
        "coordinates": [
          8.5106707,
          4.9015784
        ]
      },
      "properties": {
        "name": "PRIMARY SCHOOL, IKOT EYO OKON",
        "ward": "CREEK TOWN II",
        "lga": "ODUKPANI",
        "state": "CROSS RIVER"
      }
    },
    {
      "type": "Feature",
      "geometry": {
        "type": "Point",
        "coordinates": [
          8.349859,
          5.0812193
        ]
      },
      "properties": {
        "name": "PLAY GROUND, NYOMIDIBI",
        "ward": "CREEK TOWN II",
        "lga": "ODUKPANI",
        "state": "CROSS RIVER"
      }
    },
    {
      "type": "Feature",
      "geometry": {
        "type": "Point",
        "coordinates": [
          8.349859,
          5.0812193
        ]
      },
      "properties": {
        "name": "PLAY GROUND, IKOT EFFIOK EKPENYONG",
        "ward": "CREEK TOWN II",
        "lga": "ODUKPANI",
        "state": "CROSS RIVER"
      }
    },
    {
      "type": "Feature",
      "geometry": {
        "type": "Point",
        "coordinates": [
          8.3361141,
          4.953361699999999
        ]
      },
      "properties": {
        "name": "GENERAL HOSPITAL, UKEM",
        "ward": "CREEK TOWN II",
        "lga": "ODUKPANI",
        "state": "CROSS RIVER"
      }
    },
    {
      "type": "Feature",
      "geometry": {
        "type": "Point",
        "coordinates": [
          7.9956758,
          5.3192311
        ]
      },
      "properties": {
        "name": "PRIMARY SCHOOL, IBOHO ITO",
        "ward": "ITO/IDERE/UKWA",
        "lga": "ODUKPANI",
        "state": "CROSS RIVER"
      }
    },
    {
      "type": "Feature",
      "geometry": {
        "type": "Point",
        "coordinates": [
          8.349859,
          5.0812193
        ]
      },
      "properties": {
        "name": "PLAYGROUND, OBUKPOK ITO",
        "ward": "ITO/IDERE/UKWA",
        "lga": "ODUKPANI",
        "state": "CROSS RIVER"
      }
    },
    {
      "type": "Feature",
      "geometry": {
        "type": "Point",
        "coordinates": [
          8.349859,
          5.0812193
        ]
      },
      "properties": {
        "name": "PLAY GROUND, IKOT ESUK, ITO",
        "ward": "ITO/IDERE/UKWA",
        "lga": "ODUKPANI",
        "state": "CROSS RIVER"
      }
    },
    {
      "type": "Feature",
      "geometry": {
        "type": "Point",
        "coordinates": [
          7.926982099999999,
          5.0198022
        ]
      },
      "properties": {
        "name": "PLAY GROUND, ONO ITO",
        "ward": "ITO/IDERE/UKWA",
        "lga": "ODUKPANI",
        "state": "CROSS RIVER"
      }
    },
    {
      "type": "Feature",
      "geometry": {
        "type": "Point",
        "coordinates": [
          8.349859,
          5.0812193
        ]
      },
      "properties": {
        "name": "PLAY GROUND, OBOT ESU ITO",
        "ward": "ITO/IDERE/UKWA",
        "lga": "ODUKPANI",
        "state": "CROSS RIVER"
      }
    },
    {
      "type": "Feature",
      "geometry": {
        "type": "Point",
        "coordinates": [
          7.9705971,
          5.4770172
        ]
      },
      "properties": {
        "name": "PRIMARY SCHOOL, MBIABONG",
        "ward": "ITO/IDERE/UKWA",
        "lga": "ODUKPANI",
        "state": "CROSS RIVER"
      }
    },
    {
      "type": "Feature",
      "geometry": {
        "type": "Point",
        "coordinates": [
          7.888519499999999,
          5.3850941
        ]
      },
      "properties": {
        "name": "PLAY GROUND, EKIM/ENEN ITO",
        "ward": "ITO/IDERE/UKWA",
        "lga": "ODUKPANI",
        "state": "CROSS RIVER"
      }
    },
    {
      "type": "Feature",
      "geometry": {
        "type": "Point",
        "coordinates": [
          7.9282803,
          5.033735699999999
        ]
      },
      "properties": {
        "name": "PLAY GROUND, OBOT EKPENE ITO",
        "ward": "ITO/IDERE/UKWA",
        "lga": "ODUKPANI",
        "state": "CROSS RIVER"
      }
    },
    {
      "type": "Feature",
      "geometry": {
        "type": "Point",
        "coordinates": [
          7.960476999999999,
          5.343882
        ]
      },
      "properties": {
        "name": "PRIMARY SCHOOL, IDERE",
        "ward": "ITO/IDERE/UKWA",
        "lga": "ODUKPANI",
        "state": "CROSS RIVER"
      }
    },
    {
      "type": "Feature",
      "geometry": {
        "type": "Point",
        "coordinates": [
          8.349859,
          5.0812193
        ]
      },
      "properties": {
        "name": "PLAY GROUND, USUNG IKPA",
        "ward": "ITO/IDERE/UKWA",
        "lga": "ODUKPANI",
        "state": "CROSS RIVER"
      }
    },
    {
      "type": "Feature",
      "geometry": {
        "type": "Point",
        "coordinates": [
          7.8511099,
          5.333127999999999
        ]
      },
      "properties": {
        "name": "PLAY GROUND EWE",
        "ward": "ITO/IDERE/UKWA",
        "lga": "ODUKPANI",
        "state": "CROSS RIVER"
      }
    },
    {
      "type": "Feature",
      "geometry": {
        "type": "Point",
        "coordinates": [
          8.349859,
          5.0812193
        ]
      },
      "properties": {
        "name": "PLAY GROUND, OBOKWO OMUNO",
        "ward": "ITO/IDERE/UKWA",
        "lga": "ODUKPANI",
        "state": "CROSS RIVER"
      }
    },
    {
      "type": "Feature",
      "geometry": {
        "type": "Point",
        "coordinates": [
          8.349859,
          5.0812193
        ]
      },
      "properties": {
        "name": "PLAY GROUND, MBIAWA",
        "ward": "ITO/IDERE/UKWA",
        "lga": "ODUKPANI",
        "state": "CROSS RIVER"
      }
    },
    {
      "type": "Feature",
      "geometry": {
        "type": "Point",
        "coordinates": [
          8.349859,
          5.0812193
        ]
      },
      "properties": {
        "name": "PLAY GROUND, UBENE OKONABIA",
        "ward": "ITO/IDERE/UKWA",
        "lga": "ODUKPANI",
        "state": "CROSS RIVER"
      }
    },
    {
      "type": "Feature",
      "geometry": {
        "type": "Point",
        "coordinates": [
          8.349859,
          5.0812193
        ]
      },
      "properties": {
        "name": "PLAY GROUND, OBUKWO ESA",
        "ward": "ITO/IDERE/UKWA",
        "lga": "ODUKPANI",
        "state": "CROSS RIVER"
      }
    },
    {
      "type": "Feature",
      "geometry": {
        "type": "Point",
        "coordinates": [
          8.349859,
          5.0812193
        ]
      },
      "properties": {
        "name": "PLAY GROUND, EWEN",
        "ward": "ITO/IDERE/UKWA",
        "lga": "ODUKPANI",
        "state": "CROSS RIVER"
      }
    },
    {
      "type": "Feature",
      "geometry": {
        "type": "Point",
        "coordinates": [
          8.349859,
          5.0812193
        ]
      },
      "properties": {
        "name": "PLAY GROUND, AKANI OBIO",
        "ward": "ITO/IDERE/UKWA",
        "lga": "ODUKPANI",
        "state": "CROSS RIVER"
      }
    },
    {
      "type": "Feature",
      "geometry": {
        "type": "Point",
        "coordinates": [
          8.349859,
          5.0812193
        ]
      },
      "properties": {
        "name": "PLAY GROUND, IKESI/IKOT EDUON",
        "ward": "ITO/IDERE/UKWA",
        "lga": "ODUKPANI",
        "state": "CROSS RIVER"
      }
    },
    {
      "type": "Feature",
      "geometry": {
        "type": "Point",
        "coordinates": [
          7.9705971,
          5.4770172
        ]
      },
      "properties": {
        "name": "PRIMARY SCHOOL, MBIABONG UKWA",
        "ward": "ITO/IDERE/UKWA",
        "lga": "ODUKPANI",
        "state": "CROSS RIVER"
      }
    },
    {
      "type": "Feature",
      "geometry": {
        "type": "Point",
        "coordinates": [
          8.134930599999999,
          6.334294
        ]
      },
      "properties": {
        "name": "PLAY GROUND, IFO",
        "ward": "ITO/IDERE/UKWA",
        "lga": "ODUKPANI",
        "state": "CROSS RIVER"
      }
    },
    {
      "type": "Feature",
      "geometry": {
        "type": "Point",
        "coordinates": [
          8.349859,
          5.0812193
        ]
      },
      "properties": {
        "name": "PLAY GROUND, NUONG MFA",
        "ward": "ITO/IDERE/UKWA",
        "lga": "ODUKPANI",
        "state": "CROSS RIVER"
      }
    },
    {
      "type": "Feature",
      "geometry": {
        "type": "Point",
        "coordinates": [
          8.2311888,
          5.0973126
        ]
      },
      "properties": {
        "name": "PRIMARY SCHOOL, EFUT IBONDA",
        "ward": "ADIABO/EFUT",
        "lga": "ODUKPANI",
        "state": "CROSS RIVER"
      }
    },
    {
      "type": "Feature",
      "geometry": {
        "type": "Point",
        "coordinates": [
          8.349859,
          5.0812193
        ]
      },
      "properties": {
        "name": "PLAY GROUND, ADIABO AKANI OBIO",
        "ward": "ADIABO/EFUT",
        "lga": "ODUKPANI",
        "state": "CROSS RIVER"
      }
    },
    {
      "type": "Feature",
      "geometry": {
        "type": "Point",
        "coordinates": [
          8.349859,
          5.0812193
        ]
      },
      "properties": {
        "name": "PLAY GROUND, UKPAHATA",
        "ward": "ADIABO/EFUT",
        "lga": "ODUKPANI",
        "state": "CROSS RIVER"
      }
    },
    {
      "type": "Feature",
      "geometry": {
        "type": "Point",
        "coordinates": [
          8.349859,
          5.0812193
        ]
      },
      "properties": {
        "name": "PLAY GROUND, MKPARA OTOP",
        "ward": "ADIABO/EFUT",
        "lga": "ODUKPANI",
        "state": "CROSS RIVER"
      }
    },
    {
      "type": "Feature",
      "geometry": {
        "type": "Point",
        "coordinates": [
          8.349859,
          5.0812193
        ]
      },
      "properties": {
        "name": "PLAY GROUND, USUNG MBAKARA/IKOT EKONG",
        "ward": "ADIABO/EFUT",
        "lga": "ODUKPANI",
        "state": "CROSS RIVER"
      }
    },
    {
      "type": "Feature",
      "geometry": {
        "type": "Point",
        "coordinates": [
          8.3390415,
          5.012167
        ]
      },
      "properties": {
        "name": "OLD PRIMARY SCHOOL, IKONETO",
        "ward": "IKONETO",
        "lga": "ODUKPANI",
        "state": "CROSS RIVER"
      }
    },
    {
      "type": "Feature",
      "geometry": {
        "type": "Point",
        "coordinates": [
          8.313249299999999,
          5.052066099999999
        ]
      },
      "properties": {
        "name": "PLAYGROUND, IKONETO",
        "ward": "IKONETO",
        "lga": "ODUKPANI",
        "state": "CROSS RIVER"
      }
    },
    {
      "type": "Feature",
      "geometry": {
        "type": "Point",
        "coordinates": [
          8.3390415,
          5.012167
        ]
      },
      "properties": {
        "name": "PRIMARY SCHOOL, AKWA EFE",
        "ward": "IKONETO",
        "lga": "ODUKPANI",
        "state": "CROSS RIVER"
      }
    },
    {
      "type": "Feature",
      "geometry": {
        "type": "Point",
        "coordinates": [
          8.349859,
          5.0812193
        ]
      },
      "properties": {
        "name": "PLAY GROUND, IKOT ENIANG NKPO",
        "ward": "IKONETO",
        "lga": "ODUKPANI",
        "state": "CROSS RIVER"
      }
    },
    {
      "type": "Feature",
      "geometry": {
        "type": "Point",
        "coordinates": [
          8.349859,
          5.0812193
        ]
      },
      "properties": {
        "name": "PLAY GROUND, AKPAMFRUKIM",
        "ward": "IKONETO",
        "lga": "ODUKPANI",
        "state": "CROSS RIVER"
      }
    },
    {
      "type": "Feature",
      "geometry": {
        "type": "Point",
        "coordinates": [
          8.349859,
          5.0812193
        ]
      },
      "properties": {
        "name": "PLAY GROUND, OBUT URUA",
        "ward": "IKONETO",
        "lga": "ODUKPANI",
        "state": "CROSS RIVER"
      }
    },
    {
      "type": "Feature",
      "geometry": {
        "type": "Point",
        "coordinates": [
          8.0384351,
          5.2862348
        ]
      },
      "properties": {
        "name": "PRIMARY SCHOOL, ATAN EKI",
        "ward": "EKI",
        "lga": "ODUKPANI",
        "state": "CROSS RIVER"
      }
    },
    {
      "type": "Feature",
      "geometry": {
        "type": "Point",
        "coordinates": [
          8.0667838,
          5.2516811
        ]
      },
      "properties": {
        "name": "PLAYGROUND, ESUK ATAN EKI",
        "ward": "EKI",
        "lga": "ODUKPANI",
        "state": "CROSS RIVER"
      }
    },
    {
      "type": "Feature",
      "geometry": {
        "type": "Point",
        "coordinates": [
          8.015320299999999,
          5.2711253
        ]
      },
      "properties": {
        "name": "PLAYGROUND, OBODIO EKI",
        "ward": "EKI",
        "lga": "ODUKPANI",
        "state": "CROSS RIVER"
      }
    },
    {
      "type": "Feature",
      "geometry": {
        "type": "Point",
        "coordinates": [
          8.015320299999999,
          5.2711253
        ]
      },
      "properties": {
        "name": "PLAY GROUND, AFIA ISONG EKI",
        "ward": "EKI",
        "lga": "ODUKPANI",
        "state": "CROSS RIVER"
      }
    },
    {
      "type": "Feature",
      "geometry": {
        "type": "Point",
        "coordinates": [
          8.0384351,
          5.2862348
        ]
      },
      "properties": {
        "name": "PRIMARY SCHOOL, IDIM NDOM",
        "ward": "EKI",
        "lga": "ODUKPANI",
        "state": "CROSS RIVER"
      }
    },
    {
      "type": "Feature",
      "geometry": {
        "type": "Point",
        "coordinates": [
          8.349859,
          5.0812193
        ]
      },
      "properties": {
        "name": "PLAY GROUND, IDIM UTAN",
        "ward": "EKI",
        "lga": "ODUKPANI",
        "state": "CROSS RIVER"
      }
    },
    {
      "type": "Feature",
      "geometry": {
        "type": "Point",
        "coordinates": [
          8.1211,
          5.258689
        ]
      },
      "properties": {
        "name": "PRIMARY SCHOOL, EKPENE EKI",
        "ward": "EKI",
        "lga": "ODUKPANI",
        "state": "CROSS RIVER"
      }
    },
    {
      "type": "Feature",
      "geometry": {
        "type": "Point",
        "coordinates": [
          8.349859,
          5.0812193
        ]
      },
      "properties": {
        "name": "PLAY GROUND, OBIO NNO",
        "ward": "EKI",
        "lga": "ODUKPANI",
        "state": "CROSS RIVER"
      }
    },
    {
      "type": "Feature",
      "geometry": {
        "type": "Point",
        "coordinates": [
          8.0390739,
          5.2851079
        ]
      },
      "properties": {
        "name": "PLAY GROUND, ATAN EKI",
        "ward": "EKI",
        "lga": "ODUKPANI",
        "state": "CROSS RIVER"
      }
    },
    {
      "type": "Feature",
      "geometry": {
        "type": "Point",
        "coordinates": [
          8.349859,
          5.0812193
        ]
      },
      "properties": {
        "name": "PLAY GROUND, MKPATUK EKI",
        "ward": "EKI",
        "lga": "ODUKPANI",
        "state": "CROSS RIVER"
      }
    },
    {
      "type": "Feature",
      "geometry": {
        "type": "Point",
        "coordinates": [
          8.169658499999999,
          5.2115633
        ]
      },
      "properties": {
        "name": "PLAY GROUND, OBOT EKPENE",
        "ward": "EKI",
        "lga": "ODUKPANI",
        "state": "CROSS RIVER"
      }
    },
    {
      "type": "Feature",
      "geometry": {
        "type": "Point",
        "coordinates": [
          8.0390739,
          5.2851079
        ]
      },
      "properties": {
        "name": "PLAYGROUND, IDIM NDOM",
        "ward": "EKI",
        "lga": "ODUKPANI",
        "state": "CROSS RIVER"
      }
    },
    {
      "type": "Feature",
      "geometry": {
        "type": "Point",
        "coordinates": [
          8.207497,
          5.190881
        ]
      },
      "properties": {
        "name": "PRIMARY SCHOOL, ESUK ODOT",
        "ward": "ODOT",
        "lga": "ODUKPANI",
        "state": "CROSS RIVER"
      }
    },
    {
      "type": "Feature",
      "geometry": {
        "type": "Point",
        "coordinates": [
          8.1644806,
          5.168374
        ]
      },
      "properties": {
        "name": "PLAY GROUND, ATAN ODOT",
        "ward": "ODOT",
        "lga": "ODUKPANI",
        "state": "CROSS RIVER"
      }
    },
    {
      "type": "Feature",
      "geometry": {
        "type": "Point",
        "coordinates": [
          8.0318212,
          5.1436833
        ]
      },
      "properties": {
        "name": "PRIMARY SCHOOL, ODOT UYI",
        "ward": "ODOT",
        "lga": "ODUKPANI",
        "state": "CROSS RIVER"
      }
    },
    {
      "type": "Feature",
      "geometry": {
        "type": "Point",
        "coordinates": [
          8.137960399999999,
          5.1688734
        ]
      },
      "properties": {
        "name": "PRIMARY SCHOOL, USUNG ESUK",
        "ward": "ODOT",
        "lga": "ODUKPANI",
        "state": "CROSS RIVER"
      }
    },
    {
      "type": "Feature",
      "geometry": {
        "type": "Point",
        "coordinates": [
          8.153888199999999,
          5.2007376
        ]
      },
      "properties": {
        "name": "PLAY GROUND, EFEDEM",
        "ward": "ODOT",
        "lga": "ODUKPANI",
        "state": "CROSS RIVER"
      }
    },
    {
      "type": "Feature",
      "geometry": {
        "type": "Point",
        "coordinates": [
          8.3393579,
          5.0068769
        ]
      },
      "properties": {
        "name": "PLAY GROUND, ESUK IKWO EDET",
        "ward": "ODOT",
        "lga": "ODUKPANI",
        "state": "CROSS RIVER"
      }
    },
    {
      "type": "Feature",
      "geometry": {
        "type": "Point",
        "coordinates": [
          8.171552,
          5.190778
        ]
      },
      "properties": {
        "name": "PRIMARY SCHOOL, NDON NWONG",
        "ward": "ODOT",
        "lga": "ODUKPANI",
        "state": "CROSS RIVER"
      }
    },
    {
      "type": "Feature",
      "geometry": {
        "type": "Point",
        "coordinates": [
          8.349859,
          5.0812193
        ]
      },
      "properties": {
        "name": "PLAY GROUND USUNG ODOT/MBEREBERE",
        "ward": "ODOT",
        "lga": "ODUKPANI",
        "state": "CROSS RIVER"
      }
    },
    {
      "type": "Feature",
      "geometry": {
        "type": "Point",
        "coordinates": [
          8.349859,
          5.0812193
        ]
      },
      "properties": {
        "name": "PLAY GROUND, EKIM EBEBIT",
        "ward": "ODOT",
        "lga": "ODUKPANI",
        "state": "CROSS RIVER"
      }
    },
    {
      "type": "Feature",
      "geometry": {
        "type": "Point",
        "coordinates": [
          8.153888199999999,
          5.2007376
        ]
      },
      "properties": {
        "name": "PLAY GROUND AKWA EKIM",
        "ward": "ODOT",
        "lga": "ODUKPANI",
        "state": "CROSS RIVER"
      }
    },
    {
      "type": "Feature",
      "geometry": {
        "type": "Point",
        "coordinates": [
          7.9387279,
          5.0206399
        ]
      },
      "properties": {
        "name": "VILLAGE SQUARE, NDON NWONG",
        "ward": "ODOT",
        "lga": "ODUKPANI",
        "state": "CROSS RIVER"
      }
    },
    {
      "type": "Feature",
      "geometry": {
        "type": "Point",
        "coordinates": [
          8.274577299999999,
          4.9876588
        ]
      },
      "properties": {
        "name": "SECONDARY SCHOOL, CREEK TOWN",
        "ward": "CREEK TOWN I",
        "lga": "ODUKPANI",
        "state": "CROSS RIVER"
      }
    },
    {
      "type": "Feature",
      "geometry": {
        "type": "Point",
        "coordinates": [
          8.252542300000002,
          5.071067
        ]
      },
      "properties": {
        "name": "PRIMARY SCHOOL, UKIM ITA",
        "ward": "CREEK TOWN I",
        "lga": "ODUKPANI",
        "state": "CROSS RIVER"
      }
    },
    {
      "type": "Feature",
      "geometry": {
        "type": "Point",
        "coordinates": [
          7.945652600000001,
          5.0141249
        ]
      },
      "properties": {
        "name": "VILLAGE SQUARE, UKIM ITA",
        "ward": "CREEK TOWN I",
        "lga": "ODUKPANI",
        "state": "CROSS RIVER"
      }
    },
    {
      "type": "Feature",
      "geometry": {
        "type": "Point",
        "coordinates": [
          8.349859,
          5.0812193
        ]
      },
      "properties": {
        "name": "PRIMARY SCHOOL, USEKU",
        "ward": "CREEK TOWN I",
        "lga": "ODUKPANI",
        "state": "CROSS RIVER"
      }
    },
    {
      "type": "Feature",
      "geometry": {
        "type": "Point",
        "coordinates": [
          8.349859,
          5.0812193
        ]
      },
      "properties": {
        "name": "PRIMARY SCHOOL, FIVE TOWNS",
        "ward": "CREEK TOWN I",
        "lga": "ODUKPANI",
        "state": "CROSS RIVER"
      }
    },
    {
      "type": "Feature",
      "geometry": {
        "type": "Point",
        "coordinates": [
          8.2251053,
          5.0186772
        ]
      },
      "properties": {
        "name": "PRIMARY SCHOOL, IKOT ESU",
        "ward": "CREEK TOWN I",
        "lga": "ODUKPANI",
        "state": "CROSS RIVER"
      }
    },
    {
      "type": "Feature",
      "geometry": {
        "type": "Point",
        "coordinates": [
          8.349859,
          5.0812193
        ]
      },
      "properties": {
        "name": "PRIMARY SCHOOL, ESINE UFOT",
        "ward": "CREEK TOWN I",
        "lga": "ODUKPANI",
        "state": "CROSS RIVER"
      }
    },
    {
      "type": "Feature",
      "geometry": {
        "type": "Point",
        "coordinates": [
          8.349859,
          5.0812193
        ]
      },
      "properties": {
        "name": "VILLAGE SQUARE, ESINE UFOT",
        "ward": "CREEK TOWN I",
        "lga": "ODUKPANI",
        "state": "CROSS RIVER"
      }
    },
    {
      "type": "Feature",
      "geometry": {
        "type": "Point",
        "coordinates": [
          8.2589695,
          5.015648
        ]
      },
      "properties": {
        "name": "PRIMARY SCHOOL, EFUT IFAKO",
        "ward": "CREEK TOWN I",
        "lga": "ODUKPANI",
        "state": "CROSS RIVER"
      }
    },
    {
      "type": "Feature",
      "geometry": {
        "type": "Point",
        "coordinates": [
          8.2524785,
          5.184201799999999
        ]
      },
      "properties": {
        "name": "PLAY GROUND, MBOMBORI",
        "ward": "CREEK TOWN I",
        "lga": "ODUKPANI",
        "state": "CROSS RIVER"
      }
    },
    {
      "type": "Feature",
      "geometry": {
        "type": "Point",
        "coordinates": [
          8.3393579,
          5.0068769
        ]
      },
      "properties": {
        "name": "PLAYGROUND, EKEMKPON",
        "ward": "ONIMAN-KIONG",
        "lga": "ODUKPANI",
        "state": "CROSS RIVER"
      }
    },
    {
      "type": "Feature",
      "geometry": {
        "type": "Point",
        "coordinates": [
          8.349859,
          5.0812193
        ]
      },
      "properties": {
        "name": "PLAYGROUND, IKOT OKON AKIBA",
        "ward": "ONIMAN-KIONG",
        "lga": "ODUKPANI",
        "state": "CROSS RIVER"
      }
    },
    {
      "type": "Feature",
      "geometry": {
        "type": "Point",
        "coordinates": [
          8.349859,
          5.0812193
        ]
      },
      "properties": {
        "name": "PRIMARY SCHOOL, OKOYONG USANG ABASI",
        "ward": "ONIMAN-KIONG",
        "lga": "ODUKPANI",
        "state": "CROSS RIVER"
      }
    },
    {
      "type": "Feature",
      "geometry": {
        "type": "Point",
        "coordinates": [
          8.349859,
          5.0812193
        ]
      },
      "properties": {
        "name": "PLAY GROUND, IKOT NYONG",
        "ward": "ONIMAN-KIONG",
        "lga": "ODUKPANI",
        "state": "CROSS RIVER"
      }
    },
    {
      "type": "Feature",
      "geometry": {
        "type": "Point",
        "coordinates": [
          8.349859,
          5.0812193
        ]
      },
      "properties": {
        "name": "PLAY GROUND, OKPAN-KIONG",
        "ward": "ONIMAN-KIONG",
        "lga": "ODUKPANI",
        "state": "CROSS RIVER"
      }
    },
    {
      "type": "Feature",
      "geometry": {
        "type": "Point",
        "coordinates": [
          8.349859,
          5.0812193
        ]
      },
      "properties": {
        "name": "PLAY GROUND, ATAN OKOYONG",
        "ward": "ONIMAN-KIONG",
        "lga": "ODUKPANI",
        "state": "CROSS RIVER"
      }
    },
    {
      "type": "Feature",
      "geometry": {
        "type": "Point",
        "coordinates": [
          8.339910699999999,
          5.0027503
        ]
      },
      "properties": {
        "name": "HEALTH CENTRE, USUNG ESUK OKOYONG",
        "ward": "ONIMAN-KIONG",
        "lga": "ODUKPANI",
        "state": "CROSS RIVER"
      }
    },
    {
      "type": "Feature",
      "geometry": {
        "type": "Point",
        "coordinates": [
          8.2524785,
          5.184201799999999
        ]
      },
      "properties": {
        "name": "PLAYGROUND, IKOT ESSIEN",
        "ward": "ONIMAN-KIONG",
        "lga": "ODUKPANI",
        "state": "CROSS RIVER"
      }
    },
    {
      "type": "Feature",
      "geometry": {
        "type": "Point",
        "coordinates": [
          8.349859,
          5.0812193
        ]
      },
      "properties": {
        "name": "ESUK OTU, PRIMARY SCHOOL",
        "ward": "ODUKPANI CENTRAL",
        "lga": "ODUKPANI",
        "state": "CROSS RIVER"
      }
    },
    {
      "type": "Feature",
      "geometry": {
        "type": "Point",
        "coordinates": [
          8.3234669,
          5.0625111
        ]
      },
      "properties": {
        "name": "PRIMARY SCHOOL, ADIABO IKOT OTU IBUOT",
        "ward": "ODUKPANI CENTRAL",
        "lga": "ODUKPANI",
        "state": "CROSS RIVER"
      }
    },
    {
      "type": "Feature",
      "geometry": {
        "type": "Point",
        "coordinates": [
          8.3234669,
          5.0625111
        ]
      },
      "properties": {
        "name": "PRIMARY SCHOOL, ESINE UFOT ADIABO",
        "ward": "ODUKPANI CENTRAL",
        "lga": "ODUKPANI",
        "state": "CROSS RIVER"
      }
    },
    {
      "type": "Feature",
      "geometry": {
        "type": "Point",
        "coordinates": [
          8.349859,
          5.0812193
        ]
      },
      "properties": {
        "name": "CAMP SQUARE, BANGA CAMP",
        "ward": "ODUKPANI CENTRAL",
        "lga": "ODUKPANI",
        "state": "CROSS RIVER"
      }
    },
    {
      "type": "Feature",
      "geometry": {
        "type": "Point",
        "coordinates": [
          8.3390415,
          5.012167
        ]
      },
      "properties": {
        "name": "PRIMARY SCHOOL, C.O.P.E.",
        "ward": "ODUKPANI CENTRAL",
        "lga": "ODUKPANI",
        "state": "CROSS RIVER"
      }
    },
    {
      "type": "Feature",
      "geometry": {
        "type": "Point",
        "coordinates": [
          8.3547725,
          5.0446015
        ]
      },
      "properties": {
        "name": "PRIMARY SCHOOL, AKIM AKIM",
        "ward": "ODUKPANI CENTRAL",
        "lga": "ODUKPANI",
        "state": "CROSS RIVER"
      }
    },
    {
      "type": "Feature",
      "geometry": {
        "type": "Point",
        "coordinates": [
          8.349859,
          5.0812193
        ]
      },
      "properties": {
        "name": "TOWN HALL, AKPUNG",
        "ward": "ODUKPANI CENTRAL",
        "lga": "ODUKPANI",
        "state": "CROSS RIVER"
      }
    },
    {
      "type": "Feature",
      "geometry": {
        "type": "Point",
        "coordinates": [
          8.349553199999999,
          5.0352637
        ]
      },
      "properties": {
        "name": "HEALTH CENTRE, ODUKPANI",
        "ward": "ODUKPANI CENTRAL",
        "lga": "ODUKPANI",
        "state": "CROSS RIVER"
      }
    },
    {
      "type": "Feature",
      "geometry": {
        "type": "Point",
        "coordinates": [
          8.349859,
          5.0812193
        ]
      },
      "properties": {
        "name": "PLAY GROUND, ODUYAMA",
        "ward": "ODUKPANI CENTRAL",
        "lga": "ODUKPANI",
        "state": "CROSS RIVER"
      }
    },
    {
      "type": "Feature",
      "geometry": {
        "type": "Point",
        "coordinates": [
          8.349859,
          5.0812193
        ]
      },
      "properties": {
        "name": "ODUKPANI JUNCTION SQUARE",
        "ward": "ODUKPANI CENTRAL",
        "lga": "ODUKPANI",
        "state": "CROSS RIVER"
      }
    },
    {
      "type": "Feature",
      "geometry": {
        "type": "Point",
        "coordinates": [
          8.349859,
          5.0812193
        ]
      },
      "properties": {
        "name": "CAMP SQUARE, PAMOL ODUKPANI",
        "ward": "ODUKPANI CENTRAL",
        "lga": "ODUKPANI",
        "state": "CROSS RIVER"
      }
    },
    {
      "type": "Feature",
      "geometry": {
        "type": "Point",
        "coordinates": [
          8.349859,
          5.0812193
        ]
      },
      "properties": {
        "name": "FIVE MILES CAMP",
        "ward": "ODUKPANI CENTRAL",
        "lga": "ODUKPANI",
        "state": "CROSS RIVER"
      }
    },
    {
      "type": "Feature",
      "geometry": {
        "type": "Point",
        "coordinates": [
          8.3234669,
          5.0625111
        ]
      },
      "properties": {
        "name": "GOVT. SEC. SCH. ADIABO",
        "ward": "ODUKPANI CENTRAL",
        "lga": "ODUKPANI",
        "state": "CROSS RIVER"
      }
    },
    {
      "type": "Feature",
      "geometry": {
        "type": "Point",
        "coordinates": [
          8.349859,
          5.0812193
        ]
      },
      "properties": {
        "name": "PLAYGROUND OCHIOSERA VILLAGE",
        "ward": "ODUKPANI CENTRAL",
        "lga": "ODUKPANI",
        "state": "CROSS RIVER"
      }
    },
    {
      "type": "Feature",
      "geometry": {
        "type": "Point",
        "coordinates": [
          8.349859,
          5.0812193
        ]
      },
      "properties": {
        "name": "COMM. SQUARE, ESINE UFOT",
        "ward": "ODUKPANI CENTRAL",
        "lga": "ODUKPANI",
        "state": "CROSS RIVER"
      }
    },
    {
      "type": "Feature",
      "geometry": {
        "type": "Point",
        "coordinates": [
          8.3693036,
          5.3538256
        ]
      },
      "properties": {
        "name": "COMP. SEC. SCH. NEW NETIM",
        "ward": "ODUKPANI CENTRAL",
        "lga": "ODUKPANI",
        "state": "CROSS RIVER"
      }
    },
    {
      "type": "Feature",
      "geometry": {
        "type": "Point",
        "coordinates": [
          8.349859,
          5.0812193
        ]
      },
      "properties": {
        "name": "OKOROBA LAYOUT, ODUKPANI",
        "ward": "ODUKPANI CENTRAL",
        "lga": "ODUKPANI",
        "state": "CROSS RIVER"
      }
    },
    {
      "type": "Feature",
      "geometry": {
        "type": "Point",
        "coordinates": [
          8.349859,
          5.0812193
        ]
      },