{
  "type": "FeatureCollection",
  "features": [
    {
      "type": "Feature",
      "geometry": {
        "type": "Point",
        "coordinates": [
          5.1707211,
          7.856310199999998
        ]
      },
      "properties": {
        "name": "TOWN HALL , AAFIN I AND II",
        "ward": "OSI",
        "lga": "IDO / OSI",
        "state": "EKITI"
      }
    },
    {
      "type": "Feature",
      "geometry": {
        "type": "Point",
        "coordinates": [
          5.267178299999999,
          7.6113403
        ]
      },
      "properties": {
        "name": "ST PAUL'S PRIMARY SCHOOL , AAFIN III",
        "ward": "OSI",
        "lga": "IDO / OSI",
        "state": "EKITI"
      }
    },
    {
      "type": "Feature",
      "geometry": {
        "type": "Point",
        "coordinates": [
          5.1877,
          7.8433613
        ]
      },
      "properties": {
        "name": "NEAR ELEJU'S HOUSE , TEMIDAYO",
        "ward": "OSI",
        "lga": "IDO / OSI",
        "state": "EKITI"
      }
    },
    {
      "type": "Feature",
      "geometry": {
        "type": "Point",
        "coordinates": [
          5.175567,
          7.857638
        ]
      },
      "properties": {
        "name": "NEAR EGBEDI'S HOUSE, INISA  I",
        "ward": "OSI",
        "lga": "IDO / OSI",
        "state": "EKITI"
      }
    },
    {
      "type": "Feature",
      "geometry": {
        "type": "Point",
        "coordinates": [
          5.1625529,
          7.7894907
        ]
      },
      "properties": {
        "name": "NEAR ODESANMII'S HOUSE, INISA  II",
        "ward": "OSI",
        "lga": "IDO / OSI",
        "state": "EKITI"
      }
    },
    {
      "type": "Feature",
      "geometry": {
        "type": "Point",
        "coordinates": [
          5.1877,
          7.8433613
        ]
      },
      "properties": {
        "name": "IMODAN MARKET , IMODAN",
        "ward": "OSI",
        "lga": "IDO / OSI",
        "state": "EKITI"
      }
    },
    {
      "type": "Feature",
      "geometry": {
        "type": "Point",
        "coordinates": [
          5.205790899999999,
          7.861778999999999
        ]
      },
      "properties": {
        "name": "NEAR EMILA'S HOUSE , IDOFIN",
        "ward": "OSI",
        "lga": "IDO / OSI",
        "state": "EKITI"
      }
    },
    {
      "type": "Feature",
      "geometry": {
        "type": "Point",
        "coordinates": [
          5.184829,
          7.846705000000001
        ]
      },
      "properties": {
        "name": "METHODIST PRIMARY SCHOOL , IWARO",
        "ward": "OSI",
        "lga": "IDO / OSI",
        "state": "EKITI"
      }
    },
    {
      "type": "Feature",
      "geometry": {
        "type": "Point",
        "coordinates": [
          5.184829,
          7.846705000000001
        ]
      },
      "properties": {
        "name": "R. C. M. PRIMARY SCHOOL, EYINLATA / EJEMUSU",
        "ward": "OSI",
        "lga": "IDO / OSI",
        "state": "EKITI"
      }
    },
    {
      "type": "Feature",
      "geometry": {
        "type": "Point",
        "coordinates": [
          5.1625529,
          7.7894907
        ]
      },
      "properties": {
        "name": "NEAR OLUARE'S HOUSE , IJOPA",
        "ward": "OSI",
        "lga": "IDO / OSI",
        "state": "EKITI"
      }
    },
    {
      "type": "Feature",
      "geometry": {
        "type": "Point",
        "coordinates": [
          5.1707211,
          7.856310199999998
        ]
      },
      "properties": {
        "name": "NEAR CHIEF OGUNTOYINBO'S HOUSE TEMIDIRE",
        "ward": "OSI",
        "lga": "IDO / OSI",
        "state": "EKITI"
      }
    },
    {
      "type": "Feature",
      "geometry": {
        "type": "Point",
        "coordinates": [
          5.1588657,
          7.661991599999999
        ]
      },
      "properties": {
        "name": "NEAR CHIEF ALAAYE'S HOUSE , ALAAYE'S COMPOUND",
        "ward": "OSI",
        "lga": "IDO / OSI",
        "state": "EKITI"
      }
    },
    {
      "type": "Feature",
      "geometry": {
        "type": "Point",
        "coordinates": [
          5.235949499999999,
          7.796338
        ]
      },
      "properties": {
        "name": "N. D. C. AREA / AYEPE , N. D. C. COMPOUND",
        "ward": "USI",
        "lga": "IDO / OSI",
        "state": "EKITI"
      }
    },
    {
      "type": "Feature",
      "geometry": {
        "type": "Point",
        "coordinates": [
          5.1847329,
          7.845460399999999
        ]
      },
      "properties": {
        "name": "IWORO  I  , C. A. C. PRIMARY SCHOOL I",
        "ward": "USI",
        "lga": "IDO / OSI",
        "state": "EKITI"
      }
    },
    {
      "type": "Feature",
      "geometry": {
        "type": "Point",
        "coordinates": [
          5.1847329,
          7.845460399999999
        ]
      },
      "properties": {
        "name": "IWORO  I  , C. A. C. PRIMARY SCHOOL II",
        "ward": "USI",
        "lga": "IDO / OSI",
        "state": "EKITI"
      }
    },
    {
      "type": "Feature",
      "geometry": {
        "type": "Point",
        "coordinates": [
          5.198472799999999,
          7.606567600000001
        ]
      },
      "properties": {
        "name": "IWORO II , IWORO STREET",
        "ward": "USI",
        "lga": "IDO / OSI",
        "state": "EKITI"
      }
    },
    {
      "type": "Feature",
      "geometry": {
        "type": "Point",
        "coordinates": [
          5.151243099999999,
          7.8527006
        ]
      },
      "properties": {
        "name": "OKE ODI I, NEAR ANGLICAN CHURCH I",
        "ward": "USI",
        "lga": "IDO / OSI",
        "state": "EKITI"
      }
    },
    {
      "type": "Feature",
      "geometry": {
        "type": "Point",
        "coordinates": [
          5.151243099999999,
          7.8527006
        ]
      },
      "properties": {
        "name": "OKE ODI I, NEAR ANGLICAN CHURCH II",
        "ward": "USI",
        "lga": "IDO / OSI",
        "state": "EKITI"
      }
    },
    {
      "type": "Feature",
      "geometry": {
        "type": "Point",
        "coordinates": [
          5.205790899999999,
          7.861778999999999
        ]
      },
      "properties": {
        "name": "OKE ODI II , UPPER GATE",
        "ward": "USI",
        "lga": "IDO / OSI",
        "state": "EKITI"
      }
    },
    {
      "type": "Feature",
      "geometry": {
        "type": "Point",
        "coordinates": [
          5.167227700000001,
          7.8931011
        ]
      },
      "properties": {
        "name": "POST AREA OFFICE , ST ANDREW'S SCHOOL",
        "ward": "USI",
        "lga": "IDO / OSI",
        "state": "EKITI"
      }
    },
    {
      "type": "Feature",
      "geometry": {
        "type": "Point",
        "coordinates": [
          5.171090899999999,
          7.8799367
        ]
      },
      "properties": {
        "name": "USI HIGH SCHOOL / USI HIGH SCHOOL",
        "ward": "USI",
        "lga": "IDO / OSI",
        "state": "EKITI"
      }
    },
    {
      "type": "Feature",
      "geometry": {
        "type": "Point",
        "coordinates": [
          5.1707211,
          7.856310199999998
        ]
      },
      "properties": {
        "name": "OKE JEBBA NEAR NOBLE'S HOUSE",
        "ward": "USI",
        "lga": "IDO / OSI",
        "state": "EKITI"
      }
    },
    {
      "type": "Feature",
      "geometry": {
        "type": "Point",
        "coordinates": [
          5.1707211,
          7.856310199999998
        ]
      },
      "properties": {
        "name": "AAFIN / AWORO , TOWN HALL",
        "ward": "USI",
        "lga": "IDO / OSI",
        "state": "EKITI"
      }
    },
    {
      "type": "Feature",
      "geometry": {
        "type": "Point",
        "coordinates": [
          5.1707211,
          7.856310199999998
        ]
      },
      "properties": {
        "name": "ONA OMI OSUN I AND II , NEAR ADEIDE'S HOUSE",
        "ward": "USI",
        "lga": "IDO / OSI",
        "state": "EKITI"
      }
    },
    {
      "type": "Feature",
      "geometry": {
        "type": "Point",
        "coordinates": [
          5.205790899999999,
          7.861778999999999
        ]
      },
      "properties": {
        "name": "IDIESI AREA , NEAR IDI ESI",
        "ward": "USI",
        "lga": "IDO / OSI",
        "state": "EKITI"
      }
    },
    {
      "type": "Feature",
      "geometry": {
        "type": "Point",
        "coordinates": [
          5.266937599999999,
          8.0199883
        ]
      },
      "properties": {
        "name": "UNITY AREA , UNITY SECONDARY SCHOOL",
        "ward": "USI",
        "lga": "IDO / OSI",
        "state": "EKITI"
      }
    },
    {
      "type": "Feature",
      "geometry": {
        "type": "Point",
        "coordinates": [
          5.223290899999999,
          7.621685599999999
        ]
      },
      "properties": {
        "name": "TOWN HALL , TEMIDIRE / IFAKI ROAD",
        "ward": "IGBOLE / IFISIN / AAYE",
        "lga": "IDO / OSI",
        "state": "EKITI"
      }
    },
    {
      "type": "Feature",
      "geometry": {
        "type": "Point",
        "coordinates": [
          5.223290899999999,
          7.621685599999999
        ]
      },
      "properties": {
        "name": "MARKET STALL , EJIMOKO",
        "ward": "IGBOLE / IFISIN / AAYE",
        "lga": "IDO / OSI",
        "state": "EKITI"
      }
    },
    {
      "type": "Feature",
      "geometry": {
        "type": "Point",
        "coordinates": [
          5.2177015,
          7.823914599999999
        ]
      },
      "properties": {
        "name": "MATERNITY CENTRE , OKE IFISIN / ILAMOD",
        "ward": "IGBOLE / IFISIN / AAYE",
        "lga": "IDO / OSI",
        "state": "EKITI"
      }
    },
    {
      "type": "Feature",
      "geometry": {
        "type": "Point",
        "coordinates": [
          5.2079906,
          7.792799899999999
        ]
      },
      "properties": {
        "name": "INIKA COMPOUND/COMMUNITY PRIMARY SCHOOL",
        "ward": "IGBOLE / IFISIN / AAYE",
        "lga": "IDO / OSI",
        "state": "EKITI"
      }
    },
    {
      "type": "Feature",
      "geometry": {
        "type": "Point",
        "coordinates": [
          5.190138399999999,
          7.8023523
        ]
      },
      "properties": {
        "name": "TOWN HALL , IDOFIN / AAFIN",
        "ward": "IGBOLE / IFISIN / AAYE",
        "lga": "IDO / OSI",
        "state": "EKITI"
      }
    },
    {
      "type": "Feature",
      "geometry": {
        "type": "Point",
        "coordinates": [
          5.185900300000001,
          7.847341699999999
        ]
      },
      "properties": {
        "name": "OKE ODE,NEAR OGUNLEYE'S HOUSE",
        "ward": "IGBOLE / IFISIN / AAYE",
        "lga": "IDO / OSI",
        "state": "EKITI"
      }
    },
    {
      "type": "Feature",
      "geometry": {
        "type": "Point",
        "coordinates": [
          5.1877,
          7.8433613
        ]
      },
      "properties": {
        "name": "NEAR CHIEF ALUKO'S HOUSE,  IKEFON",
        "ward": "IGBOLE / IFISIN / AAYE",
        "lga": "IDO / OSI",
        "state": "EKITI"
      }
    },
    {
      "type": "Feature",
      "geometry": {
        "type": "Point",
        "coordinates": [
          5.190138399999999,
          7.8023523
        ]
      },
      "properties": {
        "name": "AT ILAYAN QUARTERS, ILAYAN",
        "ward": "IGBOLE / IFISIN / AAYE",
        "lga": "IDO / OSI",
        "state": "EKITI"
      }
    },
    {
      "type": "Feature",
      "geometry": {
        "type": "Point",
        "coordinates": [
          5.1847329,
          7.845460399999999
        ]
      },
      "properties": {
        "name": "NEAR ALHAJI'S ODO IJU'S HOUSE / ILE OBANLA",
        "ward": "AYETORO  I",
        "lga": "IDO / OSI",
        "state": "EKITI"
      }
    },
    {
      "type": "Feature",
      "geometry": {
        "type": "Point",
        "coordinates": [
          5.1228129,
          7.987178800000001
        ]
      },
      "properties": {
        "name": "S. D. A. PRIMARY SCHOOL , ILE ODOGUN",
        "ward": "AYETORO  I",
        "lga": "IDO / OSI",
        "state": "EKITI"
      }
    },
    {
      "type": "Feature",
      "geometry": {
        "type": "Point",
        "coordinates": [
          5.2526398,
          7.710363200000001
        ]
      },
      "properties": {
        "name": "OKE URO TOWN HALL , ILE AWU",
        "ward": "AYETORO  I",
        "lga": "IDO / OSI",
        "state": "EKITI"
      }
    },
    {
      "type": "Feature",
      "geometry": {
        "type": "Point",
        "coordinates": [
          5.1429768,
          7.9276899
        ]
      },
      "properties": {
        "name": "ST CHARLE'S PRIMARY SCHOOL , OKE URO",
        "ward": "AYETORO  I",
        "lga": "IDO / OSI",
        "state": "EKITI"
      }
    },
    {
      "type": "Feature",
      "geometry": {
        "type": "Point",
        "coordinates": [
          5.175567,
          7.857638
        ]
      },
      "properties": {
        "name": "NEAR OSUTA'S HOUSE , ILE OSUTA",
        "ward": "AYETORO  I",
        "lga": "IDO / OSI",
        "state": "EKITI"
      }
    },
    {
      "type": "Feature",
      "geometry": {
        "type": "Point",
        "coordinates": [
          5.1456099,
          7.925936099999999
        ]
      },
      "properties": {
        "name": "NEAR ECELO SQUARE,  AAFIN",
        "ward": "AYETORO  II",
        "lga": "IDO / OSI",
        "state": "EKITI"
      }
    },
    {
      "type": "Feature",
      "geometry": {
        "type": "Point",
        "coordinates": [
          5.087265299999999,
          7.828709
        ]
      },
      "properties": {
        "name": "ODOSI TOWN HALL , ODOSI",
        "ward": "AYETORO  II",
        "lga": "IDO / OSI",
        "state": "EKITI"
      }
    },
    {
      "type": "Feature",
      "geometry": {
        "type": "Point",
        "coordinates": [
          5.1456099,
          7.925936099999999
        ]
      },
      "properties": {
        "name": "NEAR ORISA OKO , OKE OKIN",
        "ward": "AYETORO  II",
        "lga": "IDO / OSI",
        "state": "EKITI"
      }
    },
    {
      "type": "Feature",
      "geometry": {
        "type": "Point",
        "coordinates": [
          5.2318063,
          7.654627000000001
        ]
      },
      "properties": {
        "name": "ST JOSEPH'S PRIMARY SCHOOL , ILEAAYE",
        "ward": "AYETORO  II",
        "lga": "IDO / OSI",
        "state": "EKITI"
      }
    },
    {
      "type": "Feature",
      "geometry": {
        "type": "Point",
        "coordinates": [
          5.205912,
          7.6625881
        ]
      },
      "properties": {
        "name": "NEAR ABA ATIBA'S HOUSE , ILE ABA ATIBA",
        "ward": "AYETORO  II",
        "lga": "IDO / OSI",
        "state": "EKITI"
      }
    },
    {
      "type": "Feature",
      "geometry": {
        "type": "Point",
        "coordinates": [
          5.1588657,
          7.661991599999999
        ]
      },
      "properties": {
        "name": "NEAR OGBOYA'S HOUSE , ILE OLOGBOYA",
        "ward": "AYETORO  II",
        "lga": "IDO / OSI",
        "state": "EKITI"
      }
    },
    {
      "type": "Feature",
      "geometry": {
        "type": "Point",
        "coordinates": [
          5.1228129,
          7.987178800000001
        ]
      },
      "properties": {
        "name": "S. D. A. PRIMARY SCHOOL SAJUKU I",
        "ward": "AYETORO  II",
        "lga": "IDO / OSI",
        "state": "EKITI"
      }
    },
    {
      "type": "Feature",
      "geometry": {
        "type": "Point",
        "coordinates": [
          5.1428592,
          7.950175799999999
        ]
      },
      "properties": {
        "name": "APOSTOLIC SCHOOL , SAJUKU II",
        "ward": "AYETORO  II",
        "lga": "IDO / OSI",
        "state": "EKITI"
      }
    },
    {
      "type": "Feature",
      "geometry": {
        "type": "Point",
        "coordinates": [
          5.154650999999999,
          7.9165262
        ]
      },
      "properties": {
        "name": "MATERNITY CENTRE , ILE ODOFIN I AND II",
        "ward": "AYETORO  II",
        "lga": "IDO / OSI",
        "state": "EKITI"
      }
    },
    {
      "type": "Feature",
      "geometry": {
        "type": "Point",
        "coordinates": [
          5.1807021,
          7.848387199999999
        ]
      },
      "properties": {
        "name": "OMODEWA , OMODEWA PRIMARY SCHOOL",
        "ward": "IDO  II",
        "lga": "IDO / OSI",
        "state": "EKITI"
      }
    },
    {
      "type": "Feature",
      "geometry": {
        "type": "Point",
        "coordinates": [
          5.1707211,
          7.856310199999998
        ]
      },
      "properties": {
        "name": "OKE ARE IN FRONT OF LICENCING OFFICE",
        "ward": "IDO  II",
        "lga": "IDO / OSI",
        "state": "EKITI"
      }
    },
    {
      "type": "Feature",
      "geometry": {
        "type": "Point",
        "coordinates": [
          5.184829,
          7.846705000000001
        ]
      },
      "properties": {
        "name": "OKE SAPE , METHODIST PRIMARY SCHOOL, IDO - EKITI",
        "ward": "IDO  II",
        "lga": "IDO / OSI",
        "state": "EKITI"
      }
    },
    {
      "type": "Feature",
      "geometry": {
        "type": "Point",
        "coordinates": [
          5.1877,
          7.8433613
        ]
      },
      "properties": {
        "name": "SALORO'S COMPOUND , NEAR SALORO'S HOUSE  I",
        "ward": "IDO  II",
        "lga": "IDO / OSI",
        "state": "EKITI"
      }
    },
    {
      "type": "Feature",
      "geometry": {
        "type": "Point",
        "coordinates": [
          5.184829,
          7.846705000000001
        ]
      },
      "properties": {
        "name": "OKE BAREKE, ODO - IDO PRIMARY SCHOOL IDO EKITI",
        "ward": "IDO  II",
        "lga": "IDO / OSI",
        "state": "EKITI"
      }
    },
    {
      "type": "Feature",
      "geometry": {
        "type": "Point",
        "coordinates": [
          5.1847329,
          7.845460399999999
        ]
      },
      "properties": {
        "name": "IMILA , APOSTOLIC SCHOOL",
        "ward": "IDO  II",
        "lga": "IDO / OSI",
        "state": "EKITI"
      }
    },
    {
      "type": "Feature",
      "geometry": {
        "type": "Point",
        "coordinates": [
          5.1847329,
          7.845460399999999
        ]
      },
      "properties": {
        "name": "OSASONA'S COMPOUND AJOWA PRIMARY SCHOOL",
        "ward": "IDO  II",
        "lga": "IDO / OSI",
        "state": "EKITI"
      }
    },
    {
      "type": "Feature",
      "geometry": {
        "type": "Point",
        "coordinates": [
          3.329529,
          6.6418163
        ]
      },
      "properties": {
        "name": "AKOREWOLU , COKER SAW MILL JUNCTION",
        "ward": "IDO  II",
        "lga": "IDO / OSI",
        "state": "EKITI"
      }
    },
    {
      "type": "Feature",
      "geometry": {
        "type": "Point",
        "coordinates": [
          5.1877,
          7.8433613
        ]
      },
      "properties": {
        "name": "OPEN SPACE AT ABARE JUCTION",
        "ward": "IDO  II",
        "lga": "IDO / OSI",
        "state": "EKITI"
      }
    },
    {
      "type": "Feature",
      "geometry": {
        "type": "Point",
        "coordinates": [
          5.1915641,
          7.880908600000001
        ]
      },
      "properties": {
        "name": "C. A. C. PRIMARY SCHOOL / IPARA OLOFIN",
        "ward": "IFAKI II",
        "lga": "IDO / OSI",
        "state": "EKITI"
      }
    },
    {
      "type": "Feature",
      "geometry": {
        "type": "Point",
        "coordinates": [
          5.1787592,
          7.8510642
        ]
      },
      "properties": {
        "name": "OPEN SPACE NEAR ADEBAYO'S HOUSE, OMI ONIYO",
        "ward": "IFAKI II",
        "lga": "IDO / OSI",
        "state": "EKITI"
      }
    },
    {
      "type": "Feature",
      "geometry": {
        "type": "Point",
        "coordinates": [
          5.184829,
          7.846705000000001
        ]
      },
      "properties": {
        "name": "METHODIST PRIMARY SCHOOL , ILOGBE",
        "ward": "IFAKI II",
        "lga": "IDO / OSI",
        "state": "EKITI"
      }
    },
    {
      "type": "Feature",
      "geometry": {
        "type": "Point",
        "coordinates": [
          5.2406213,
          7.7934902
        ]
      },
      "properties": {
        "name": "OKE EJELU , OKE EJELU",
        "ward": "IFAKI II",
        "lga": "IDO / OSI",
        "state": "EKITI"
      }
    },
    {
      "type": "Feature",
      "geometry": {
        "type": "Point",
        "coordinates": [
          5.244639299999999,
          7.780552800000001
        ]
      },
      "properties": {
        "name": "VERTINARY CENTRE , ILAO",
        "ward": "IFAKI II",
        "lga": "IDO / OSI",
        "state": "EKITI"
      }
    },
    {
      "type": "Feature",
      "geometry": {
        "type": "Point",
        "coordinates": [
          5.235949499999999,
          7.796338
        ]
      },
      "properties": {
        "name": "IGBO OLOKO/NEAR CHIEF DADA'S HOUSE",
        "ward": "IFAKI II",
        "lga": "IDO / OSI",
        "state": "EKITI"
      }
    },
    {
      "type": "Feature",
      "geometry": {
        "type": "Point",
        "coordinates": [
          5.235949499999999,
          7.796338
        ]
      },
      "properties": {
        "name": "APIPEREKUN NEAR HEALTH CENTRE",
        "ward": "IFAKI II",
        "lga": "IDO / OSI",
        "state": "EKITI"
      }
    },
    {
      "type": "Feature",
      "geometry": {
        "type": "Point",
        "coordinates": [
          5.1787592,
          7.8510642
        ]
      },
      "properties": {
        "name": "OPEN SPACE NEAR OLOKUN MARKET",
        "ward": "IFAKI II",
        "lga": "IDO / OSI",
        "state": "EKITI"
      }
    },
    {
      "type": "Feature",
      "geometry": {
        "type": "Point",
        "coordinates": [
          5.235949499999999,
          7.796338
        ]
      },
      "properties": {
        "name": "COMMUNITY HALL ALONG ESUREROAD",
        "ward": "IFAKI II",
        "lga": "IDO / OSI",
        "state": "EKITI"
      }
    },
    {
      "type": "Feature",
      "geometry": {
        "type": "Point",
        "coordinates": [
          5.235949499999999,
          7.796338
        ]
      },
      "properties": {
        "name": "OPEN SPACE AT OLD IFAKI MOTORPARK",
        "ward": "IFAKI II",
        "lga": "IDO / OSI",
        "state": "EKITI"
      }
    },
    {
      "type": "Feature",
      "geometry": {
        "type": "Point",
        "coordinates": [
          5.175567,
          7.857638
        ]
      },
      "properties": {
        "name": "OGBEGUN ALAO NEAR MR. OGUN'S HOUSE",
        "ward": "ILOGBO",
        "lga": "IDO / OSI",
        "state": "EKITI"
      }
    },
    {
      "type": "Feature",
      "geometry": {
        "type": "Point",
        "coordinates": [
          5.1877,
          7.8433613
        ]
      },
      "properties": {
        "name": "ODODE ILE EYEBUNTUN I",
        "ward": "ILOGBO",
        "lga": "IDO / OSI",
        "state": "EKITI"
      }
    },
    {
      "type": "Feature",
      "geometry": {
        "type": "Point",
        "coordinates": [
          5.5853597,
          7.816293099999999
        ]
      },
      "properties": {
        "name": "ODODE ILE EYEBUNTUN II",
        "ward": "ILOGBO",
        "lga": "IDO / OSI",
        "state": "EKITI"
      }
    },
    {
      "type": "Feature",
      "geometry": {
        "type": "Point",
        "coordinates": [
          5.1877,
          7.8433613
        ]
      },
      "properties": {
        "name": "ENUNRIN , NEAR ENUNRIN'S HOUSE",
        "ward": "ILOGBO",
        "lga": "IDO / OSI",
        "state": "EKITI"
      }
    },
    {
      "type": "Feature",
      "geometry": {
        "type": "Point",
        "coordinates": [
          5.1487272,
          7.856518500000001
        ]
      },
      "properties": {
        "name": "ETI OMI AREA , ST JOHN'S ANGLICAN SCHOOL",
        "ward": "ILOGBO",
        "lga": "IDO / OSI",
        "state": "EKITI"
      }
    },
    {
      "type": "Feature",
      "geometry": {
        "type": "Point",
        "coordinates": [
          5.205790899999999,
          7.861778999999999
        ]
      },
      "properties": {
        "name": "OKE OJA , NEAR , ILE ABALUARE",
        "ward": "ILOGBO",
        "lga": "IDO / OSI",
        "state": "EKITI"
      }
    },
    {
      "type": "Feature",
      "geometry": {
        "type": "Point",
        "coordinates": [
          5.151243099999999,
          7.8527006
        ]
      },
      "properties": {
        "name": "ILE OLOFIN , OLD ANGLICAN CHURCH",
        "ward": "ILOGBO",
        "lga": "IDO / OSI",
        "state": "EKITI"
      }
    },
    {
      "type": "Feature",
      "geometry": {
        "type": "Point",
        "coordinates": [
          5.175567,
          7.857638
        ]
      },
      "properties": {
        "name": "IMUTA I , II, AND III , NEAR BABATOPE'S HOUSE",
        "ward": "ILOGBO",
        "lga": "IDO / OSI",
        "state": "EKITI"
      }
    },
    {
      "type": "Feature",
      "geometry": {
        "type": "Point",
        "coordinates": [
          5.1915641,
          7.880908600000001
        ]
      },
      "properties": {
        "name": "EYIGBO , C. A. C. PRIMARY SCHOOL",
        "ward": "ILOGBO",
        "lga": "IDO / OSI",
        "state": "EKITI"
      }
    },
    {
      "type": "Feature",
      "geometry": {
        "type": "Point",
        "coordinates": [
          5.1707211,
          7.856310199999998
        ]
      },
      "properties": {
        "name": "AAFIN AREA , TOWN HALL",
        "ward": "ILOGBO",
        "lga": "IDO / OSI",
        "state": "EKITI"
      }
    },
    {
      "type": "Feature",
      "geometry": {
        "type": "Point",
        "coordinates": [
          5.167227700000001,
          7.8931011
        ]
      },
      "properties": {
        "name": "USI / IDO ROAD, NEAR NEW BANK",
        "ward": "ILOGBO",
        "lga": "IDO / OSI",
        "state": "EKITI"
      }
    },
    {
      "type": "Feature",
      "geometry": {
        "type": "Point",
        "coordinates": [
          5.1731014,
          7.7941456
        ]
      },
      "properties": {
        "name": "SURULERE , A. U. D. , PRIMARY SACHOOL",
        "ward": "ILOGBO",
        "lga": "IDO / OSI",
        "state": "EKITI"
      }
    },
    {
      "type": "Feature",
      "geometry": {
        "type": "Point",
        "coordinates": [
          5.1734206,
          7.8747174
        ]
      },
      "properties": {
        "name": "TEMIDIRE , BETTER LIFE",
        "ward": "ILOGBO",
        "lga": "IDO / OSI",
        "state": "EKITI"
      }
    },
    {
      "type": "Feature",
      "geometry": {
        "type": "Point",
        "coordinates": [
          5.1847329,
          7.845460399999999
        ]
      },
      "properties": {
        "name": "A . U. D. PRIMARY SCHOOL , EWURIN",
        "ward": "IFAKI I",
        "lga": "IDO / OSI",
        "state": "EKITI"
      }
    },
    {
      "type": "Feature",
      "geometry": {
        "type": "Point",
        "coordinates": [
          5.235949499999999,
          7.796338
        ]
      },
      "properties": {
        "name": "MR. ADERIYE'S HOUSE (OPEN SPACE)",
        "ward": "IFAKI I",
        "lga": "IDO / OSI",
        "state": "EKITI"
      }
    },
    {
      "type": "Feature",
      "geometry": {
        "type": "Point",
        "coordinates": [
          5.184829,
          7.846705000000001
        ]
      },
      "properties": {
        "name": "METHODIST PRIMARY SCHOOL / ILADO / IWORE / ALUPAJA",
        "ward": "IFAKI I",
        "lga": "IDO / OSI",
        "state": "EKITI"
      }
    },
    {
      "type": "Feature",
      "geometry": {
        "type": "Point",
        "coordinates": [
          5.417088199999999,
          7.6369442
        ]
      },
      "properties": {
        "name": "ST PETER'S PRIMARY SCHOOL / ADURALERE",
        "ward": "IFAKI I",
        "lga": "IDO / OSI",
        "state": "EKITI"
      }
    },
    {
      "type": "Feature",
      "geometry": {
        "type": "Point",
        "coordinates": [
          5.235949499999999,
          7.796338
        ]
      },
      "properties": {
        "name": "OPEN SPACE IN FRONT OF ATIBA MARKET , IDI OSE",
        "ward": "IFAKI I",
        "lga": "IDO / OSI",
        "state": "EKITI"
      }
    },
    {
      "type": "Feature",
      "geometry": {
        "type": "Point",
        "coordinates": [
          5.1707211,
          7.856310199999998
        ]
      },
      "properties": {
        "name": "EGUN TOWN HALL , EGUN  I",
        "ward": "IFAKI I",
        "lga": "IDO / OSI",
        "state": "EKITI"
      }
    },
    {
      "type": "Feature",
      "geometry": {
        "type": "Point",
        "coordinates": [
          5.241338799999999,
          7.7954773
        ]
      },
      "properties": {
        "name": "NEAR EGUN , EGUN   II",
        "ward": "IFAKI I",
        "lga": "IDO / OSI",
        "state": "EKITI"
      }
    },
    {
      "type": "Feature",
      "geometry": {
        "type": "Point",
        "coordinates": [
          5.2207678,
          7.8174717
        ]
      },
      "properties": {
        "name": "NEAR THE PALACE , PALACE AREA",
        "ward": "IFAKI I",
        "lga": "IDO / OSI",
        "state": "EKITI"
      }
    },
    {
      "type": "Feature",
      "geometry": {
        "type": "Point",
        "coordinates": [
          5.2335387,
          7.832626299999999
        ]
      },
      "properties": {
        "name": "ILETIN I AT ILETIN",
        "ward": "ORIN / ORA",
        "lga": "IDO / OSI",
        "state": "EKITI"
      }
    },
    {
      "type": "Feature",
      "geometry": {
        "type": "Point",
        "coordinates": [
          5.1877,
          7.8433613
        ]
      },
      "properties": {
        "name": "ILETIN II NEAR  ILETIN",
        "ward": "ORIN / ORA",
        "lga": "IDO / OSI",
        "state": "EKITI"
      }
    },
    {
      "type": "Feature",
      "geometry": {
        "type": "Point",
        "coordinates": [
          5.184829,
          7.846705000000001
        ]
      },
      "properties": {
        "name": "IFAKI ROAD , METHODIST PRIMARY SCHOOL I",
        "ward": "ORIN / ORA",
        "lga": "IDO / OSI",
        "state": "EKITI"
      }
    },
    {
      "type": "Feature",
      "geometry": {
        "type": "Point",
        "coordinates": [
          5.184829,
          7.846705000000001
        ]
      },
      "properties": {
        "name": "IFAKI ROAD , METHODIST PRIMARY SCHOOL II",
        "ward": "ORIN / ORA",
        "lga": "IDO / OSI",
        "state": "EKITI"
      }
    },
    {
      "type": "Feature",
      "geometry": {
        "type": "Point",
        "coordinates": [
          5.52116,
          7.8026001
        ]
      },
      "properties": {
        "name": "AWOLOWO ROAD , MARKET STALL",
        "ward": "ORIN / ORA",
        "lga": "IDO / OSI",
        "state": "EKITI"
      }
    },
    {
      "type": "Feature",
      "geometry": {
        "type": "Point",
        "coordinates": [
          5.2893433,
          7.6009909
        ]
      },
      "properties": {
        "name": "FARM SETTLEMENT, FARM SETTLEMENT",
        "ward": "ORIN / ORA",
        "lga": "IDO / OSI",
        "state": "EKITI"
      }
    },
    {
      "type": "Feature",
      "geometry": {
        "type": "Point",
        "coordinates": [
          5.087265299999999,
          7.828709
        ]
      },
      "properties": {
        "name": "OGBON OJA , TOWN HALL",
        "ward": "ORIN / ORA",
        "lga": "IDO / OSI",
        "state": "EKITI"
      }
    },
    {
      "type": "Feature",
      "geometry": {
        "type": "Point",
        "coordinates": [
          3.9122676,
          6.9479624
        ]
      },
      "properties": {
        "name": "IWOYE I / IWOYE HALL",
        "ward": "ORIN / ORA",
        "lga": "IDO / OSI",
        "state": "EKITI"
      }
    },
    {
      "type": "Feature",
      "geometry": {
        "type": "Point",
        "coordinates": [
          5.2177015,
          7.823914599999999
        ]
      },
      "properties": {
        "name": "IDO ROAD NEAR MATERNITY CENTRE",
        "ward": "ORIN / ORA",
        "lga": "IDO / OSI",
        "state": "EKITI"
      }
    },
    {
      "type": "Feature",
      "geometry": {
        "type": "Point",
        "coordinates": [
          5.1877,
          7.8433613
        ]
      },
      "properties": {
        "name": "IDI AGBAGBA NEAR IDI AGBAGBGA",
        "ward": "ORIN / ORA",
        "lga": "IDO / OSI",
        "state": "EKITI"
      }
    },
    {
      "type": "Feature",
      "geometry": {
        "type": "Point",
        "coordinates": [
          5.2370788,
          7.612512799999998
        ]
      },
      "properties": {
        "name": "IDEMO, OLD METHODIST MISSION",
        "ward": "ORIN / ORA",
        "lga": "IDO / OSI",
        "state": "EKITI"
      }
    },
    {
      "type": "Feature",
      "geometry": {
        "type": "Point",
        "coordinates": [
          5.184829,
          7.846705000000001
        ]
      },
      "properties": {
        "name": "OKE ORA I AAFIN OJU OJA METHODIST PRY SCHOOL",
        "ward": "ORIN / ORA",
        "lga": "IDO / OSI",
        "state": "EKITI"
      }
    },
    {
      "type": "Feature",
      "geometry": {
        "type": "Point",
        "coordinates": [
          5.1847329,
          7.845460399999999
        ]
      },
      "properties": {
        "name": "ODO ORA I , NEAR BABA EGBE'S HOUSE",
        "ward": "ORIN / ORA",
        "lga": "IDO / OSI",
        "state": "EKITI"
      }
    },
    {
      "type": "Feature",
      "geometry": {
        "type": "Point",
        "coordinates": [
          5.178538,
          7.8469968
        ]
      },
      "properties": {
        "name": "EJEMU COMPOUND , ST JOHN'S HALL",
        "ward": "IDO  I",
        "lga": "IDO / OSI",
        "state": "EKITI"
      }
    },
    {
      "type": "Feature",
      "geometry": {
        "type": "Point",
        "coordinates": [
          5.1707211,
          7.856310199999998
        ]
      },
      "properties": {
        "name": "OKE DOBA / COURT , NEAR AYODELE'S HOUSE",
        "ward": "IDO  I",
        "lga": "IDO / OSI",
        "state": "EKITI"
      }
    },
    {
      "type": "Feature",
      "geometry": {
        "type": "Point",
        "coordinates": [
          5.1763754,
          7.848398100000001
        ]
      },
      "properties": {
        "name": "A. U. D. PRIMARY SCHOOL  I",
        "ward": "IDO  I",
        "lga": "IDO / OSI",
        "state": "EKITI"
      }
    },
    {
      "type": "Feature",
      "geometry": {
        "type": "Point",
        "coordinates": [
          5.1763754,
          7.848398100000001
        ]
      },
      "properties": {
        "name": "A. U. D. PRIMARY SCHOOL  II",
        "ward": "IDO  I",
        "lga": "IDO / OSI",
        "state": "EKITI"
      }
    },
    {
      "type": "Feature",
      "geometry": {
        "type": "Point",
        "coordinates": [
          5.178264599999999,
          7.849041599999999
        ]
      },
      "properties": {
        "name": "OGBON EYINDI, STREET BENEDICT'S SCHOOL  I",
        "ward": "IDO  I",
        "lga": "IDO / OSI",
        "state": "EKITI"
      }
    },
    {
      "type": "Feature",
      "geometry": {
        "type": "Point",
        "coordinates": [
          5.178264599999999,
          7.849041599999999
        ]
      },
      "properties": {
        "name": "OGBON EYINDE, STREET BENEDICT SCHOOL  II",
        "ward": "IDO  I",
        "lga": "IDO / OSI",
        "state": "EKITI"
      }
    },
    {
      "type": "Feature",
      "geometry": {
        "type": "Point",
        "coordinates": [
          5.175567,
          7.857638
        ]
      },
      "properties": {
        "name": "FASULUS / OLOGEBA'S COMPOUND , NEAR FASULA'S HOUSE",
        "ward": "IDO  I",
        "lga": "IDO / OSI",
        "state": "EKITI"
      }
    },
    {
      "type": "Feature",
      "geometry": {
        "type": "Point",
        "coordinates": [
          5.1877,
          7.8433613
        ]
      },
      "properties": {
        "name": "APANISILE / ODOAJANA , NEAR APANISILE 'S HOUSE",
        "ward": "IDO  I",
        "lga": "IDO / OSI",
        "state": "EKITI"
      }
    },
    {
      "type": "Feature",
      "geometry": {
        "type": "Point",
        "coordinates": [
          5.2419376,
          7.7936885
        ]
      },
      "properties": {
        "name": "OKE OJA , MARKET STALL",
        "ward": "IDO  I",
        "lga": "IDO / OSI",
        "state": "EKITI"
      }
    },
    {
      "type": "Feature",
      "geometry": {
        "type": "Point",
        "coordinates": [
          5.175567,
          7.857638
        ]
      },
      "properties": {
        "name": "INISA , ST. NEAR ASOSANYIN'S HOUSE",
        "ward": "IDO  I",
        "lga": "IDO / OSI",
        "state": "EKITI"
      }
    },
    {
      "type": "Feature",
      "geometry": {
        "type": "Point",
        "coordinates": [
          5.181849400000001,
          7.842285400000001
        ]
      },
      "properties": {
        "name": "IYEDI, OKE AANU PRIMARY SCHOOL",
        "ward": "IDO  I",
        "lga": "IDO / OSI",
        "state": "EKITI"
      }
    },
    {
      "type": "Feature",
      "geometry": {
        "type": "Point",
        "coordinates": [
          5.1847329,
          7.845460399999999
        ]
      },
      "properties": {
        "name": "OKE / ODO IYEDI , NEAR OLUMOJA'S HOUSE",
        "ward": "IDO  I",
        "lga": "IDO / OSI",
        "state": "EKITI"
      }
    },
    {
      "type": "Feature",
      "geometry": {
        "type": "Point",
        "coordinates": [
          5.1877,
          7.8433613
        ]
      },
      "properties": {
        "name": "HOSPITAL ROAD , NEAR DEKUNLOLA'S HOUSE  I",
        "ward": "IDO  I",
        "lga": "IDO / OSI",
        "state": "EKITI"
      }
    },
    {
      "type": "Feature",
      "geometry": {
        "type": "Point",
        "coordinates": [
          5.1877,
          7.8433613
        ]
      },
      "properties": {
        "name": "HOSPITAL ROAD , NEAR DEKUNLOLA'S HOUSE  II",
        "ward": "IDO  I",
        "lga": "IDO / OSI",
        "state": "EKITI"
      }
    },
    {
      "type": "Feature",
      "geometry": {
        "type": "Point",
        "coordinates": [
          5.175567,
          7.857638
        ]
      },
      "properties": {
        "name": "OSI JUNCTION , NEAR AYO OLUGBOYE'S HOUSE",
        "ward": "IDO  I",
        "lga": "IDO / OSI",
        "state": "EKITI"
      }
    },
    {
      "type": "Feature",
      "geometry": {
        "type": "Point",
        "coordinates": [
          5.175567,
          7.857638
        ]
      },
      "properties": {
        "name": "ISAPE , NEAR FASUYI'S HOUSE",
        "ward": "IDO  I",
        "lga": "IDO / OSI",
        "state": "EKITI"
      }
    },
    {
      "type": "Feature",
      "geometry": {
        "type": "Point",
        "coordinates": [
          5.1877,
          7.8433613
        ]
      },
      "properties": {
        "name": "EREKESIN / BANJI'S NEAR BANJI'S HOUSE",
        "ward": "IDO  I",
        "lga": "IDO / OSI",
        "state": "EKITI"
      }
    },
    {
      "type": "Feature",
      "geometry": {
        "type": "Point",
        "coordinates": [
          5.1877,
          7.8433613
        ]
      },
      "properties": {
        "name": "AYEGUNLE / ISEOLUWA , NEAR IFEDUN'S HOUSE",
        "ward": "IDO  I",
        "lga": "IDO / OSI",
        "state": "EKITI"
      }
    },
    {
      "type": "Feature",
      "geometry": {
        "type": "Point",
        "coordinates": [
          5.2210706,
          7.6015313
        ]
      },
      "properties": {
        "name": "AYEGUNLE , AT ISE OLUWA ROAD",
        "ward": "IDO  I",
        "lga": "IDO / OSI",
        "state": "EKITI"
      }
    },
    {
      "type": "Feature",
      "geometry": {
        "type": "Point",
        "coordinates": [
          5.1787592,
          7.8510642
        ]
      },
      "properties": {
        "name": "OPEN SPACE AT ADEPEJU LANE 3,ALAPO",
        "ward": "IDO  I",
        "lga": "IDO / OSI",
        "state": "EKITI"
      }
    },
    {
      "type": "Feature",
      "geometry": {
        "type": "Point",
        "coordinates": [
          5.230127,
          7.4985886
        ]
      },
      "properties": {
        "name": "POST OFFICE BUS STOP - SAYA /POST OFFICE EREJA",
        "ward": "ODOSE",
        "lga": "IKERE",
        "state": "EKITI"
      }
    },
    {
      "type": "Feature",
      "geometry": {
        "type": "Point",
        "coordinates": [
          5.180465799999999,
          7.461122099999999
        ]
      },
      "properties": {
        "name": "NEAR MARKET PLACE ODOSE - OISA OYINKUNRIN",
        "ward": "ODOSE",
        "lga": "IKERE",
        "state": "EKITI"
      }
    },
    {
      "type": "Feature",
      "geometry": {
        "type": "Point",
        "coordinates": [
          5.2416019,
          7.4959915
        ]
      },
      "properties": {
        "name": "NEAR CHURCH OF THE LORD - CHURCH OF THE LORD AREA",
        "ward": "ODOSE",
        "lga": "IKERE",
        "state": "EKITI"
      }
    },
    {
      "type": "Feature",
      "geometry": {
        "type": "Point",
        "coordinates": [
          5.184829,
          7.846705000000001
        ]
      },
      "properties": {
        "name": "METHODIST PRIMARY SCHOOL - ILUMOBA",
        "ward": "ODOSE",
        "lga": "IKERE",
        "state": "EKITI"
      }
    },
    {
      "type": "Feature",
      "geometry": {
        "type": "Point",
        "coordinates": [
          5.2447649,
          7.498988300000001
        ]
      },
      "properties": {
        "name": "ST BRIDGET PRIMARY SCHOOL - ALASA ODO",
        "ward": "ODOSE",
        "lga": "IKERE",
        "state": "EKITI"
      }
    },
    {
      "type": "Feature",
      "geometry": {
        "type": "Point",
        "coordinates": [
          5.228150299999999,
          7.504357400000001
        ]
      },
      "properties": {
        "name": "L. A. PRIMARY SCHOOL - OLOGUNLEKO / ALOFIN",
        "ward": "ODOSE",
        "lga": "IKERE",
        "state": "EKITI"
      }
    },
    {
      "type": "Feature",
      "geometry": {
        "type": "Point",
        "coordinates": [
          5.180465799999999,
          7.461122099999999
        ]
      },
      "properties": {
        "name": "NEW F. S. P. TRAINING CENTRE - NEW MARKET AREA",
        "ward": "ODOSE",
        "lga": "IKERE",
        "state": "EKITI"
      }
    },
    {
      "type": "Feature",
      "geometry": {
        "type": "Point",
        "coordinates": [
          5.2420912,
          7.493755299999999
        ]
      },
      "properties": {
        "name": "PUBLIC PARK  NEAR ROUND ABOUT",
        "ward": "ODOSE",
        "lga": "IKERE",
        "state": "EKITI"
      }
    },
    {
      "type": "Feature",
      "geometry": {
        "type": "Point",
        "coordinates": [
          5.2314824,
          7.498179999999999
        ]
      },
      "properties": {
        "name": "OPEN SPACE AT BAMITALE ALAFIATAYO / MOSHOOD",
        "ward": "ODOSE",
        "lga": "IKERE",
        "state": "EKITI"
      }
    },
    {
      "type": "Feature",
      "geometry": {
        "type": "Point",
        "coordinates": [
          5.229560200000001,
          7.4972412
        ]
      },
      "properties": {
        "name": "EDEMO HALL - EDEMO HALL AREA",
        "ward": "IDEMO",
        "lga": "IKERE",
        "state": "EKITI"
      }
    },
    {
      "type": "Feature",
      "geometry": {
        "type": "Point",
        "coordinates": [
          5.2130659,
          7.577647699999999
        ]
      },
      "properties": {
        "name": "OPA RERE HALL - OPA RERE HALL",
        "ward": "IDEMO",
        "lga": "IKERE",
        "state": "EKITI"
      }
    },
    {
      "type": "Feature",
      "geometry": {
        "type": "Point",
        "coordinates": [
          5.171973599999999,
          7.262386100000001
        ]
      },
      "properties": {
        "name": "ODEPETU HALL - ODE PETU HALL",
        "ward": "IDEMO",
        "lga": "IKERE",
        "state": "EKITI"
      }
    },
    {
      "type": "Feature",
      "geometry": {
        "type": "Point",
        "coordinates": [
          5.228150299999999,
          7.504357400000001
        ]
      },
      "properties": {
        "name": "L. A. PRIMARY SCHOOL / ADEMUSIRE",
        "ward": "IDEMO",
        "lga": "IKERE",
        "state": "EKITI"
      }
    },
    {
      "type": "Feature",
      "geometry": {
        "type": "Point",
        "coordinates": [
          5.223475,
          7.515541000000001
        ]
      },
      "properties": {
        "name": "EBENEZER A. / C. SCHOOL - ELEMOSO",
        "ward": "IDEMO",
        "lga": "IKERE",
        "state": "EKITI"
      }
    },
    {
      "type": "Feature",
      "geometry": {
        "type": "Point",
        "coordinates": [
          5.2370788,
          7.612512799999998
        ]
      },
      "properties": {
        "name": "SARUKU AJIBOYE HALL - AJIBOYE HALL AREA",
        "ward": "IDEMO",
        "lga": "IKERE",
        "state": "EKITI"
      }
    },
    {
      "type": "Feature",
      "geometry": {
        "type": "Point",
        "coordinates": [
          5.2314824,
          7.498179999999999
        ]
      },
      "properties": {
        "name": "ALABISOYE HALL - EJEMUA ALABISOYE",
        "ward": "IDEMO",
        "lga": "IKERE",
        "state": "EKITI"
      }
    },
    {
      "type": "Feature",
      "geometry": {
        "type": "Point",
        "coordinates": [
          5.2370788,
          7.612512799999998
        ]
      },
      "properties": {
        "name": "NEAR KING'S PALACE - AAFIN",
        "ward": "ATIBA/AAFIN",
        "lga": "IKERE",
        "state": "EKITI"
      }
    },
    {
      "type": "Feature",
      "geometry": {
        "type": "Point",
        "coordinates": [
          5.246667800000001,
          7.4946215
        ]
      },
      "properties": {
        "name": "ARO ATIBA HALL - SAO AGBADAMU",
        "ward": "ATIBA/AAFIN",
        "lga": "IKERE",
        "state": "EKITI"
      }
    },
    {
      "type": "Feature",
      "geometry": {
        "type": "Point",
        "coordinates": [
          5.229926499999999,
          7.503837
        ]
      },
      "properties": {
        "name": "ELEMO ODO HALL - AKAMUJA",
        "ward": "ATIBA/AAFIN",
        "lga": "IKERE",
        "state": "EKITI"
      }
    },
    {
      "type": "Feature",
      "geometry": {
        "type": "Point",
        "coordinates": [
          5.228150299999999,
          7.504357400000001
        ]
      },
      "properties": {
        "name": "L. A. PRIMARY SCHOOL - OWALEMISORO",
        "ward": "ATIBA/AAFIN",
        "lga": "IKERE",
        "state": "EKITI"
      }
    },
    {
      "type": "Feature",
      "geometry": {
        "type": "Point",
        "coordinates": [
          5.3790255,
          7.6259815
        ]
      },
      "properties": {
        "name": "ST LUKE'S PRIMARY SCHOOL  - AKOMOLAGBE",
        "ward": "ATIBA/AAFIN",
        "lga": "IKERE",
        "state": "EKITI"
      }
    },
    {
      "type": "Feature",
      "geometry": {
        "type": "Point",
        "coordinates": [
          5.3790255,
          7.6259815
        ]
      },
      "properties": {
        "name": "ST LUKE'S PRIMARY SCHOOL - AYALODI",
        "ward": "ATIBA/AAFIN",
        "lga": "IKERE",
        "state": "EKITI"
      }
    },
    {
      "type": "Feature",
      "geometry": {
        "type": "Point",
        "coordinates": [
          5.228931900000001,
          7.4793009
        ]
      },
      "properties": {
        "name": "CUSTOM BUILDING - AJOLAGUN",
        "ward": "ATIBA/AAFIN",
        "lga": "IKERE",
        "state": "EKITI"
      }
    },
    {
      "type": "Feature",
      "geometry": {
        "type": "Point",
        "coordinates": [
          5.2314824,
          7.498179999999999
        ]
      },
      "properties": {
        "name": "OPEN SPACE AT OBATERU LANE",
        "ward": "ATIBA/AAFIN",
        "lga": "IKERE",
        "state": "EKITI"
      }
    },
    {
      "type": "Feature",
      "geometry": {
        "type": "Point",
        "coordinates": [
          5.223290899999999,
          7.621685599999999
        ]
      },
      "properties": {
        "name": "OPEN SPACE AT OJA OBA COMPLEX",
        "ward": "ATIBA/AAFIN",
        "lga": "IKERE",
        "state": "EKITI"
      }
    },
    {
      "type": "Feature",
      "geometry": {
        "type": "Point",
        "coordinates": [
          5.7492238,
          7.7695291
        ]
      },
      "properties": {
        "name": "ST. SILAS ANGLICAN NURSERY/ PRIMARY SCHOOL, URO",
        "ward": "ATIBA/AAFIN",
        "lga": "IKERE",
        "state": "EKITI"
      }
    },
    {
      "type": "Feature",
      "geometry": {
        "type": "Point",
        "coordinates": [
          5.2319339,
          7.4991241
        ]
      },
      "properties": {
        "name": "AJOLAGUN HIGH SCHOOL",
        "ward": "ATIBA/AAFIN",
        "lga": "IKERE",
        "state": "EKITI"
      }
    },
    {
      "type": "Feature",
      "geometry": {
        "type": "Point",
        "coordinates": [
          5.223902499999999,
          7.496111099999999
        ]
      },
      "properties": {
        "name": "OLOGUNSABA HALL - OLOGUNSABA",
        "ward": "OKERUKU",
        "lga": "IKERE",
        "state": "EKITI"
      }
    },
    {
      "type": "Feature",
      "geometry": {
        "type": "Point",
        "coordinates": [
          5.2181855,
          7.4918713
        ]
      },
      "properties": {
        "name": "ASAO HALL - ASAO",
        "ward": "OKERUKU",
        "lga": "IKERE",
        "state": "EKITI"
      }
    },
    {
      "type": "Feature",
      "geometry": {
        "type": "Point",
        "coordinates": [
          5.2181855,
          7.4918713
        ]
      },
      "properties": {
        "name": "OISA AGBEGEDE HALL - OISA AGBEGEDE",
        "ward": "OKERUKU",
        "lga": "IKERE",
        "state": "EKITI"
      }
    },
    {
      "type": "Feature",
      "geometry": {
        "type": "Point",
        "coordinates": [
          5.228931900000001,
          7.4793009
        ]
      },
      "properties": {
        "name": "RENU ORISAJEWI HALL - RENU ORISAJEWI  I",
        "ward": "OKERUKU",
        "lga": "IKERE",
        "state": "EKITI"
      }
    },
    {
      "type": "Feature",
      "geometry": {
        "type": "Point",
        "coordinates": [
          5.2299948,
          7.497400799999999
        ]
      },
      "properties": {
        "name": "IDI - ISIN JUNCTION UNDER THE (TREE) IDI - ISIN RENU ORISAJEWI  II",
        "ward": "OKERUKU",
        "lga": "IKERE",
        "state": "EKITI"
      }
    },
    {
      "type": "Feature",
      "geometry": {
        "type": "Point",
        "coordinates": [
          5.2181855,
          7.4918713
        ]
      },
      "properties": {
        "name": "OFAMOFURU HALL - OFAMOFURU",
        "ward": "OKERUKU",
        "lga": "IKERE",
        "state": "EKITI"
      }
    },
    {
      "type": "Feature",
      "geometry": {
        "type": "Point",
        "coordinates": [
          5.2372719,
          7.489117599999999
        ]
      },
      "properties": {
        "name": "L. A. PRIMARY SCHOOL - L. A. SCHOOL",
        "ward": "OKERUKU",
        "lga": "IKERE",
        "state": "EKITI"
      }
    },
    {
      "type": "Feature",
      "geometry": {
        "type": "Point",
        "coordinates": [
          5.2181855,
          7.4918713
        ]
      },
      "properties": {
        "name": "OISA ALADA HALL",
        "ward": "OKERUKU",
        "lga": "IKERE",
        "state": "EKITI"
      }
    },
    {
      "type": "Feature",
      "geometry": {
        "type": "Point",
        "coordinates": [
          5.2250159,
          7.5106066
        ]
      },
      "properties": {
        "name": "OPEN SPACE/ T-JUNCTION AT ATEGBESAN",
        "ward": "OKERUKU",
        "lga": "IKERE",
        "state": "EKITI"
      }
    },
    {
      "type": "Feature",
      "geometry": {
        "type": "Point",
        "coordinates": [
          5.2125054,
          7.4953233
        ]
      },
      "properties": {
        "name": "ELEYINMI HALL",
        "ward": "OKERUKU",
        "lga": "IKERE",
        "state": "EKITI"
      }
    },
    {
      "type": "Feature",
      "geometry": {
        "type": "Point",
        "coordinates": [
          5.3102503,
          7.665581
        ]
      },
      "properties": {
        "name": "AGABA OLA HALL",
        "ward": "OKERUKU",
        "lga": "IKERE",
        "state": "EKITI"
      }
    },
    {
      "type": "Feature",
      "geometry": {
        "type": "Point",
        "coordinates": [
          5.2161274,
          7.4588884
        ]
      },
      "properties": {
        "name": "OPEN SPACE AT ADESUGBA/ OFF NITEL",
        "ward": "OKERUKU",
        "lga": "IKERE",
        "state": "EKITI"
      }
    },
    {
      "type": "Feature",
      "geometry": {
        "type": "Point",
        "coordinates": [
          5.2177643,
          7.629675599999999
        ]
      },
      "properties": {
        "name": "HOLY TRINITY PRIMARY SCHOOL - OISA ONISE ALE",
        "ward": "OKE - OSUN",
        "lga": "IKERE",
        "state": "EKITI"
      }
    },
    {
      "type": "Feature",
      "geometry": {
        "type": "Point",
        "coordinates": [
          5.2390593,
          7.507070799999999
        ]
      },
      "properties": {
        "name": "A. U. D. PRIMARY SCHOOL - AJOBO / A. U. D.",
        "ward": "OKE - OSUN",
        "lga": "IKERE",
        "state": "EKITI"
      }
    },
    {
      "type": "Feature",
      "geometry": {
        "type": "Point",
        "coordinates": [
          5.310220699999999,
          7.7992472
        ]
      },
      "properties": {
        "name": "UNITY SECONDARY SCHOOL /  UNITY SECONDARY AREA  I",
        "ward": "OKE - OSUN",
        "lga": "IKERE",
        "state": "EKITI"
      }
    },
    {
      "type": "Feature",
      "geometry": {
        "type": "Point",
        "coordinates": [
          5.310220699999999,
          7.7992472
        ]
      },
      "properties": {
        "name": "UNITY SECONDARY SCHOOL /  UNITY SECONDARY AREA  II",
        "ward": "OKE - OSUN",
        "lga": "IKERE",
        "state": "EKITI"
      }
    },
    {
      "type": "Feature",
      "geometry": {
        "type": "Point",
        "coordinates": [
          5.225711899999999,
          7.4750574
        ]
      },
      "properties": {
        "name": "COMMUNITY PRIMARY SCHOOL - ONIYO WELFARE",
        "ward": "OKE - OSUN",
        "lga": "IKERE",
        "state": "EKITI"
      }
    },
    {
      "type": "Feature",
      "geometry": {
        "type": "Point",
        "coordinates": [
          4.667987699999999,
          7.9153789
        ]
      },
      "properties": {
        "name": "GARAGE BUS STOP - UGBOOKA JUNCTION",
        "ward": "OKE - OSUN",
        "lga": "IKERE",
        "state": "EKITI"
      }
    },
    {
      "type": "Feature",
      "geometry": {
        "type": "Point",
        "coordinates": [
          5.228931900000001,
          7.4793009
        ]
      },
      "properties": {
        "name": "OPEN SPACE IN FRONT OF GOVERNMENT SPECIAL SCHOOL FOR THE BLIND",
        "ward": "OKE - OSUN",
        "lga": "IKERE",
        "state": "EKITI"
      }
    },
    {
      "type": "Feature",
      "geometry": {
        "type": "Point",
        "coordinates": [
          5.2314999,
          7.4928
        ]
      },
      "properties": {
        "name": "OPEN SPACE AT ALADEJEBI MOFERERE",
        "ward": "OKE - OSUN",
        "lga": "IKERE",
        "state": "EKITI"
      }
    },
    {
      "type": "Feature",
      "geometry": {
        "type": "Point",
        "coordinates": [
          4.5325479,
          7.761144700000001
        ]
      },
      "properties": {
        "name": "OPEN SPACE AT OGO OLUWA JUNCTION NEAR C&S",
        "ward": "OKE - OSUN",
        "lga": "IKERE",
        "state": "EKITI"
      }
    },
    {
      "type": "Feature",
      "geometry": {
        "type": "Point",
        "coordinates": [
          5.2333433,
          7.5000113
        ]
      },
      "properties": {
        "name": "OKITIKO HALL - OKITIKO",
        "ward": "ILAPETU / IJAO",
        "lga": "IKERE",
        "state": "EKITI"
      }
    },
    {
      "type": "Feature",
      "geometry": {
        "type": "Point",
        "coordinates": [
          5.2333433,
          7.5000113
        ]
      },
      "properties": {
        "name": "EJIMO HALL - EJIMO",
        "ward": "ILAPETU / IJAO",
        "lga": "IKERE",
        "state": "EKITI"
      }
    },
    {
      "type": "Feature",
      "geometry": {
        "type": "Point",
        "coordinates": [
          5.2161274,
          7.4588884
        ]
      },
      "properties": {
        "name": "OLOWU HALL - OLOWU",
        "ward": "ILAPETU / IJAO",
        "lga": "IKERE",
        "state": "EKITI"
      }
    },
    {
      "type": "Feature",
      "geometry": {
        "type": "Point",
        "coordinates": [
          5.2271014,
          7.4687904
        ]
      },
      "properties": {
        "name": "AJOLEHINOGUN HALL - AJOLEHINOGUN",
        "ward": "ILAPETU / IJAO",
        "lga": "IKERE",
        "state": "EKITI"
      }
    },
    {
      "type": "Feature",
      "geometry": {
        "type": "Point",
        "coordinates": [
          5.233886399999999,
          7.501335200000001
        ]
      },
      "properties": {
        "name": "BAPTIST PRIMARY SCHOOL - IJAO HALL",
        "ward": "ILAPETU / IJAO",
        "lga": "IKERE",
        "state": "EKITI"
      }
    },
    {
      "type": "Feature",
      "geometry": {
        "type": "Point",
        "coordinates": [
          5.2116221,
          7.572131000000001
        ]
      },
      "properties": {
        "name": "ST PETER'S PRIMARY SCHOOL - IJAO",
        "ward": "ILAPETU / IJAO",
        "lga": "IKERE",
        "state": "EKITI"
      }
    },
    {
      "type": "Feature",
      "geometry": {
        "type": "Point",
        "coordinates": [
          5.2370788,
          7.612512799999998
        ]
      },
      "properties": {
        "name": "EKUASA - AWADOIERUA HALL - EKUASA AWADOIERUA",
        "ward": "UGELE / AROKU",
        "lga": "IKERE",
        "state": "EKITI"
      }
    },
    {
      "type": "Feature",
      "geometry": {
        "type": "Point",
        "coordinates": [
          5.2370788,
          7.612512799999998
        ]
      },
      "properties": {
        "name": "AMUAKUN HALL  - AMUAKUN",
        "ward": "UGELE / AROKU",
        "lga": "IKERE",
        "state": "EKITI"
      }
    },
    {
      "type": "Feature",
      "geometry": {
        "type": "Point",
        "coordinates": [
          5.260072099999999,
          7.7140666
        ]
      },
      "properties": {
        "name": "EKUASA OGANGAN HALL - EKUASA ALAPANSAPA",
        "ward": "UGELE / AROKU",
        "lga": "IKERE",
        "state": "EKITI"
      }
    },
    {
      "type": "Feature",
      "geometry": {
        "type": "Point",
        "coordinates": [
          5.2161274,
          7.4588884
        ]
      },
      "properties": {
        "name": "OLORIAWO HALL - OLORIAWO / AROWOLO",
        "ward": "UGELE / AROKU",
        "lga": "IKERE",
        "state": "EKITI"
      }
    },
    {
      "type": "Feature",
      "geometry": {
        "type": "Point",
        "coordinates": [
          5.223902499999999,
          7.496111099999999
        ]
      },
      "properties": {
        "name": "OSAGBURU HALL / SAO ONILEKE",
        "ward": "UGELE / AROKU",
        "lga": "IKERE",
        "state": "EKITI"
      }
    },
    {
      "type": "Feature",
      "geometry": {
        "type": "Point",
        "coordinates": [
          5.223902499999999,
          7.496111099999999
        ]
      },
      "properties": {
        "name": "OSAGBURU HALL / OKE OLOTI",
        "ward": "UGELE / AROKU",
        "lga": "IKERE",
        "state": "EKITI"
      }
    },
    {
      "type": "Feature",
      "geometry": {
        "type": "Point",
        "coordinates": [
          5.2130659,
          7.577647699999999
        ]
      },
      "properties": {
        "name": "AJAKA HALL - AJAKA HALL",
        "ward": "UGELE / AROKU",
        "lga": "IKERE",
        "state": "EKITI"
      }
    },
    {
      "type": "Feature",
      "geometry": {
        "type": "Point",
        "coordinates": [
          5.223902499999999,
          7.496111099999999
        ]
      },
      "properties": {
        "name": "ILE-IMI / OLUPEGBA",
        "ward": "UGELE / AROKU",
        "lga": "IKERE",
        "state": "EKITI"
      }
    },
    {
      "type": "Feature",
      "geometry": {
        "type": "Point",
        "coordinates": [
          5.2291398,
          7.504745799999999
        ]
      },
      "properties": {
        "name": "ST. JOHN'S PRIMARY SCHOOL - ALUKOGEGE",
        "ward": "ARE ARAROMI",
        "lga": "IKERE",
        "state": "EKITI"
      }
    },
    {
      "type": "Feature",
      "geometry": {
        "type": "Point",
        "coordinates": [
          5.2319339,
          7.499123999999999
        ]
      },
      "properties": {
        "name": "ST. MARY'S  PRIMARY SCHOOL - ALUKOGEGE",
        "ward": "ARE ARAROMI",
        "lga": "IKERE",
        "state": "EKITI"
      }
    },
    {
      "type": "Feature",
      "geometry": {
        "type": "Point",
        "coordinates": [
          5.2319339,
          7.499123999999999
        ]
      },
      "properties": {
        "name": "GOD'S GRACE PRIMARY SCHOOL - ADEWUNMI / OBATAYO",
        "ward": "ARE ARAROMI",
        "lga": "IKERE",
        "state": "EKITI"
      }
    },
    {
      "type": "Feature",
      "geometry": {
        "type": "Point",
        "coordinates": [
          5.2390593,
          7.507070799999999
        ]
      },
      "properties": {
        "name": "A. U. D. PRIMARY SCHOOL - OLUMUROKO  I",
        "ward": "ARE ARAROMI",
        "lga": "IKERE",
        "state": "EKITI"
      }
    },
    {
      "type": "Feature",
      "geometry": {
        "type": "Point",
        "coordinates": [
          5.2390593,
          7.507070799999999
        ]
      },
      "properties": {
        "name": "A. U. D. PRIMARY SCHOOL - OLUMUROKO  II",
        "ward": "ARE ARAROMI",
        "lga": "IKERE",
        "state": "EKITI"
      }
    },
    {
      "type": "Feature",
      "geometry": {
        "type": "Point",
        "coordinates": [
          5.2364592,
          7.499249600000001
        ]
      },
      "properties": {
        "name": "GOD'S GRACE PRIMARY SCHOOL - ALAKALOKO  I",
        "ward": "ARE ARAROMI",
        "lga": "IKERE",
        "state": "EKITI"
      }
    },
    {
      "type": "Feature",
      "geometry": {
        "type": "Point",
        "coordinates": [
          5.1378344,
          7.770020400000001
        ]
      },
      "properties": {
        "name": "ST JAME'S PRIMARY SCHOOL - ARAROMI",
        "ward": "ARE ARAROMI",
        "lga": "IKERE",
        "state": "EKITI"
      }
    },
    {
      "type": "Feature",
      "geometry": {
        "type": "Point",
        "coordinates": [
          5.225711899999999,
          7.4750574
        ]
      },
      "properties": {
        "name": "COMMUNITY PRIMARY SCHOOL - OKONDO / ASO VILLAGE",
        "ward": "ARE ARAROMI",
        "lga": "IKERE",
        "state": "EKITI"
      }
    },
    {
      "type": "Feature",
      "geometry": {
        "type": "Point",
        "coordinates": [
          5.2420912,
          7.493755299999999
        ]
      },
      "properties": {
        "name": "OPEN SPACE AT AYETORO/ORITA MERIN JUNCTION",
        "ward": "ARE ARAROMI",
        "lga": "IKERE",
        "state": "EKITI"
      }
    },
    {
      "type": "Feature",
      "geometry": {
        "type": "Point",
        "coordinates": [
          5.2353029,
          7.4992242
        ]
      },
      "properties": {
        "name": "OPEN SPACE AT BAMITALE ALONG ST. MARYS ROAD",
        "ward": "ARE ARAROMI",
        "lga": "IKERE",
        "state": "EKITI"
      }
    },
    {
      "type": "Feature",
      "geometry": {
        "type": "Point",
        "coordinates": [
          5.2353029,
          7.4992242
        ]
      },
      "properties": {
        "name": "OPEN SPACE AT OKE IGBE JUNCTION",
        "ward": "ARE ARAROMI",
        "lga": "IKERE",
        "state": "EKITI"
      }
    },
    {
      "type": "Feature",
      "geometry": {
        "type": "Point",
        "coordinates": [
          5.2319339,
          7.4991241
        ]
      },
      "properties": {
        "name": "IKERE HIGH SCHOOL",
        "ward": "ARE ARAROMI",
        "lga": "IKERE",
        "state": "EKITI"
      }
    },
    {
      "type": "Feature",
      "geometry": {
        "type": "Point",
        "coordinates": [
          5.255457,
          7.494522799999999
        ]
      },
      "properties": {
        "name": "IN FRONT OF STATE SPECIALIST HOSPITAL",
        "ward": "ARE ARAROMI",
        "lga": "IKERE",
        "state": "EKITI"
      }
    },
    {
      "type": "Feature",
      "geometry": {
        "type": "Point",
        "coordinates": [
          5.2244777,
          7.591558200000001
        ]
      },
      "properties": {
        "name": "IFESOWAPO COMMUNITY NUR/PRY SCHOOL",
        "ward": "ARE ARAROMI",
        "lga": "IKERE",
        "state": "EKITI"
      }
    },
    {
      "type": "Feature",
      "geometry": {
        "type": "Point",
        "coordinates": [
          5.241061,
          7.498969499999999
        ]
      },
      "properties": {
        "name": "OPEN SPACE AT OKEGBE HILL NEAR VICTORY CITY",
        "ward": "ARE ARAROMI",
        "lga": "IKERE",
        "state": "EKITI"
      }
    },
    {
      "type": "Feature",
      "geometry": {
        "type": "Point",
        "coordinates": [
          5.240991699999999,
          7.6783302
        ]
      },
      "properties": {
        "name": "ABA OYO HALL - ABA OYO",
        "ward": "AGBADO / OYO",
        "lga": "IKERE",
        "state": "EKITI"
      }
    },
    {
      "type": "Feature",
      "geometry": {
        "type": "Point",
        "coordinates": [
          5.246667800000001,
          7.4946215
        ]
      },
      "properties": {
        "name": "ALAYINRIN HALL - ALAYINRIN",
        "ward": "AGBADO / OYO",
        "lga": "IKERE",
        "state": "EKITI"
      }
    },
    {
      "type": "Feature",
      "geometry": {
        "type": "Point",
        "coordinates": [
          5.2146285,
          7.492530299999999
        ]
      },
      "properties": {
        "name": "ST. PIUS PRIMARY SCHOOL - GBOLAGUN",
        "ward": "AGBADO / OYO",
        "lga": "IKERE",
        "state": "EKITI"
      }
    },
    {
      "type": "Feature",
      "geometry": {
        "type": "Point",
        "coordinates": [
          5.172962,
          7.493100699999999
        ]
      },
      "properties": {
        "name": "COLLEGE OF EDUCATION BUS STOP, COLLEGE OF EDUCATION / OKE AYEYE",
        "ward": "AGBADO / OYO",
        "lga": "IKERE",
        "state": "EKITI"
      }
    },
    {
      "type": "Feature",
      "geometry": {
        "type": "Point",
        "coordinates": [
          5.2125054,
          7.4953233
        ]
      },
      "properties": {
        "name": "ELEYO HIGH SCHOOL HALL - ELEYO HIGH SCHOOL HALL",
        "ward": "AGBADO / OYO",
        "lga": "IKERE",
        "state": "EKITI"
      }
    },
    {
      "type": "Feature",
      "geometry": {
        "type": "Point",
        "coordinates": [
          5.225711899999999,
          7.4750574
        ]
      },
      "properties": {
        "name": "AGBADO/ OYO COMMUNITY PRY SCHOOL",
        "ward": "AGBADO / OYO",
        "lga": "IKERE",
        "state": "EKITI"
      }
    },
    {
      "type": "Feature",
      "geometry": {
        "type": "Point",
        "coordinates": [
          5.2246904,
          7.6062763
        ]
      },
      "properties": {
        "name": "TEPO-TIYO JUNCTION NEAR APOSTOLIC FAITH",
        "ward": "AGBADO / OYO",
        "lga": "IKERE",
        "state": "EKITI"
      }
    },
    {
      "type": "Feature",
      "geometry": {
        "type": "Point",
        "coordinates": [
          5.2370789,
          7.612512799999998
        ]
      },
      "properties": {
        "name": "OPEN SPACE AT HIGH COURT",
        "ward": "AGBADO / OYO",
        "lga": "IKERE",
        "state": "EKITI"
      }
    },
    {
      "type": "Feature",
      "geometry": {
        "type": "Point",
        "coordinates": [
          3.9094424,
          7.877623799999999
        ]
      },
      "properties": {
        "name": "OPEN SPACE AT ASEYORI JUNCTION/ OPPOSITE SAWMILL",
        "ward": "AGBADO / OYO",
        "lga": "IKERE",
        "state": "EKITI"
      }
    },
    {
      "type": "Feature",
      "geometry": {
        "type": "Point",
        "coordinates": [
          5.229926499999999,
          7.503837
        ]
      },
      "properties": {
        "name": "MARKET PLACE - ODOFIN COMPOUND",
        "ward": "AFAO / KAJOLA",
        "lga": "IKERE",
        "state": "EKITI"
      }
    },
    {
      "type": "Feature",
      "geometry": {
        "type": "Point",
        "coordinates": [
          5.229926499999999,
          7.503837
        ]
      },
      "properties": {
        "name": "ARO HALL - ARO COMPOUND PRIMISES",
        "ward": "AFAO / KAJOLA",
        "lga": "IKERE",
        "state": "EKITI"
      }
    },
    {
      "type": "Feature",
      "geometry": {
        "type": "Point",
        "coordinates": [
          5.2162283,
          7.5262858
        ]
      },
      "properties": {
        "name": "AFAO MARKET - AJAGEMO",
        "ward": "AFAO / KAJOLA",
        "lga": "IKERE",
        "state": "EKITI"
      }
    },
    {
      "type": "Feature",
      "geometry": {
        "type": "Point",
        "coordinates": [
          5.2291398,
          7.504745799999999
        ]
      },
      "properties": {
        "name": "ST JOHN'S PRIMARY SCHOOL - ILOJE COMPOUND",
        "ward": "AFAO / KAJOLA",
        "lga": "IKERE",
        "state": "EKITI"
      }
    },
    {
      "type": "Feature",
      "geometry": {
        "type": "Point",
        "coordinates": [
          5.228150299999999,
          7.504357400000001
        ]
      },
      "properties": {
        "name": "L. A. PRIMARY SCHOOL - OISA  / OLUSUA",
        "ward": "AFAO / KAJOLA",
        "lga": "IKERE",
        "state": "EKITI"
      }
    },
    {
      "type": "Feature",
      "geometry": {
        "type": "Point",
        "coordinates": [
          5.2285789,
          7.488148799999999
        ]
      },
      "properties": {
        "name": "ANNCO SCHOOL - ANNCO AREA",
        "ward": "AFAO / KAJOLA",
        "lga": "IKERE",
        "state": "EKITI"
      }
    },
    {
      "type": "Feature",
      "geometry": {
        "type": "Point",
        "coordinates": [
          5.2293946,
          7.505922399999999
        ]
      },
      "properties": {
        "name": "HEALTH CENTRE - OKE ORIRO  I",
        "ward": "AFAO / KAJOLA",
        "lga": "IKERE",
        "state": "EKITI"
      }
    },
    {
      "type": "Feature",
      "geometry": {
        "type": "Point",
        "coordinates": [
          5.2293946,
          7.505922399999999
        ]
      },
      "properties": {
        "name": "HEALTH CENTRE - OKE ORIRO  II",
        "ward": "AFAO / KAJOLA",
        "lga": "IKERE",
        "state": "EKITI"
      }
    },
    {
      "type": "Feature",
      "geometry": {
        "type": "Point",
        "coordinates": [
          5.2229433,
          7.5207482
        ]
      },
      "properties": {
        "name": "ADO GARAGE - ILUPEJU SAWMILL",
        "ward": "AFAO / KAJOLA",
        "lga": "IKERE",
        "state": "EKITI"
      }
    },
    {
      "type": "Feature",
      "geometry": {
        "type": "Point",
        "coordinates": [
          5.180465799999999,
          7.461122099999999
        ]
      },
      "properties": {
        "name": "OPEN SPACE AT ARO/ ODOFIN/ENEJAN JUNCTION",
        "ward": "AFAO / KAJOLA",
        "lga": "IKERE",
        "state": "EKITI"
      }
    },
    {
      "type": "Feature",
      "geometry": {
        "type": "Point",
        "coordinates": [
          5.235299899999999,
          7.612999999999999
        ]
      },
      "properties": {
        "name": "BASIC HEALTH CENTRE ODO-ORO AFAO",
        "ward": "AFAO / KAJOLA",
        "lga": "IKERE",
        "state": "EKITI"
      }
    },
    {
      "type": "Feature",
      "geometry": {
        "type": "Point",
        "coordinates": [
          5.229926499999999,
          7.503837
        ]
      },
      "properties": {
        "name": "OPEN SPACE AT AKOMOLEDE",
        "ward": "AFAO / KAJOLA",
        "lga": "IKERE",
        "state": "EKITI"
      }
    },
    {
      "type": "Feature",
      "geometry": {
        "type": "Point",
        "coordinates": [
          5.218902400000001,
          7.550961399999999
        ]
      },
      "properties": {
        "name": "OPEN SPACE AT SHASHA MARKET",
        "ward": "AFAO / KAJOLA",
        "lga": "IKERE",
        "state": "EKITI"
      }
    },
    {
      "type": "Feature",
      "geometry": {
        "type": "Point",
        "coordinates": [
          5.2293946,
          7.505922399999999
        ]
      },
      "properties": {
        "name": "ILUTUNTUN, HEALTH CENTRE AFAO/ KAJOLA",
        "ward": "AFAO / KAJOLA",
        "lga": "IKERE",
        "state": "EKITI"
      }
    },
    {
      "type": "Feature",
      "geometry": {
        "type": "Point",
        "coordinates": [
          5.2237313,
          7.5150684
        ]
      },
      "properties": {
        "name": "AFRICAN CHURCH  COMPREHENSIVE HIGH SCHOOL",
        "ward": "AFAO / KAJOLA",
        "lga": "IKERE",
        "state": "EKITI"
      }
    },
    {
      "type": "Feature",
      "geometry": {
        "type": "Point",
        "coordinates": [
          5.2116221,
          7.572131000000001
        ]
      },
      "properties": {
        "name": "ILUPEJU PRIMARY NSCHOOL BEHINDE, ADO GARAGE",
        "ward": "AFAO / KAJOLA",
        "lga": "IKERE",
        "state": "EKITI"
      }
    },
    {
      "type": "Feature",
      "geometry": {
        "type": "Point",
        "coordinates": [
          5.382653299999999,
          7.623036399999998
        ]
      },
      "properties": {
        "name": "OPEN SPACE AT OBASANJO ESTATE JUNCTION/ FAGBOHUN",
        "ward": "AFAO / KAJOLA",
        "lga": "IKERE",
        "state": "EKITI"
      }
    },
    {
      "type": "Feature",
      "geometry": {
        "type": "Point",
        "coordinates": [
          5.2161274,
          7.4588884
        ]
      },
      "properties": {
        "name": "EKUASA OLORIAWO HALL - EKUASA",
        "ward": "OGBONJANA",
        "lga": "IKERE",
        "state": "EKITI"
      }
    },
    {
      "type": "Feature",
      "geometry": {
        "type": "Point",
        "coordinates": [
          5.2246904,
          7.6062763
        ]
      },
      "properties": {
        "name": "ASAE OKOROKORO HALL - ABEGUNDE / APOSTOLIC",
        "ward": "OGBONJANA",
        "lga": "IKERE",
        "state": "EKITI"
      }
    },
    {
      "type": "Feature",
      "geometry": {
        "type": "Point",
        "coordinates": [
          5.246667800000001,
          7.4946215
        ]
      },
      "properties": {
        "name": "ISAOYE HALL / SALOTUN  / SAYA",
        "ward": "OGBONJANA",
        "lga": "IKERE",
        "state": "EKITI"
      }
    },
    {
      "type": "Feature",
      "geometry": {
        "type": "Point",
        "coordinates": [
          5.223902499999999,
          7.496111099999999
        ]
      },
      "properties": {
        "name": "ELEJOKA HALL - ODOKORO / ONIJOKA",
        "ward": "OGBONJANA",
        "lga": "IKERE",
        "state": "EKITI"
      }
    },
    {
      "type": "Feature",
      "geometry": {
        "type": "Point",
        "coordinates": [
          5.2349565,
          7.498950400000001
        ]
      },
      "properties": {
        "name": "ST. THOMAS PRIMARY ANGLICAN SCHOOL ESELOMO -SALOTUN ASAO",
        "ward": "OGBONJANA",
        "lga": "IKERE",
        "state": "EKITI"
      }
    },
    {
      "type": "Feature",
      "geometry": {
        "type": "Point",
        "coordinates": [
          5.2334565,
          7.494159100000001
        ]
      },
      "properties": {
        "name": "ST. JOSEPH PRIMARY SCHOOL - OLOWA",
        "ward": "OGBONJANA",
        "lga": "IKERE",
        "state": "EKITI"
      }
    },
    {
      "type": "Feature",
      "geometry": {
        "type": "Point",
        "coordinates": [
          5.2315843,
          7.493015600000001
        ]
      },
      "properties": {
        "name": "C.A.C CHURCH, C. A. C CHURCH",
        "ward": "OGBONJANA",
        "lga": "IKERE",
        "state": "EKITI"
      }
    },
    {
      "type": "Feature",
      "geometry": {
        "type": "Point",
        "coordinates": [
          5.2250159,
          7.5106066
        ]
      },
      "properties": {
        "name": "OPEN SPACE AT T-JUNCTION AT ASAE OMOWA",
        "ward": "OGBONJANA",
        "lga": "IKERE",
        "state": "EKITI"
      }
    },
    {
      "type": "Feature",
      "geometry": {
        "type": "Point",
        "coordinates": [
          5.2308045,
          7.4986225
        ]
      },
      "properties": {
        "name": "OPEN SPACE AT GEGE MARKET SQUARE",
        "ward": "OGBONJANA",
        "lga": "IKERE",
        "state": "EKITI"
      }
    },
    {
      "type": "Feature",
      "geometry": {
        "type": "Point",
        "coordinates": [
          5.2415598,
          7.6491804
        ]
      },
      "properties": {
        "name": "IREMO , MATERNITY CENTRE , IJESHAMODU ROAD",
        "ward": "IYE  III",
        "lga": "ILEJEMEJE",
        "state": "EKITI"
      }
    },
    {
      "type": "Feature",
      "geometry": {
        "type": "Point",
        "coordinates": [
          4.928172,
          7.6524498
        ]
      },
      "properties": {
        "name": "IMOSE , IN FRONT OF BABA LOLA'S HOUSE",
        "ward": "IYE  III",
        "lga": "ILEJEMEJE",
        "state": "EKITI"
      }
    },
    {
      "type": "Feature",
      "geometry": {
        "type": "Point",
        "coordinates": [
          5.223307699999999,
          7.957310300000001
        ]
      },
      "properties": {
        "name": "OWAKUTA , ISAPA HALL",
        "ward": "IYE  III",
        "lga": "ILEJEMEJE",
        "state": "EKITI"
      }
    },
    {
      "type": "Feature",
      "geometry": {
        "type": "Point",
        "coordinates": [
          5.223307699999999,
          7.957310300000001
        ]
      },
      "properties": {
        "name": "AAFIN , IN FRONT OF ONIYE'S HOUSE",
        "ward": "IYE  III",
        "lga": "ILEJEMEJE",
        "state": "EKITI"
      }
    },
    {
      "type": "Feature",
      "geometry": {
        "type": "Point",
        "coordinates": [
          5.223307699999999,
          7.957310300000001
        ]
      },
      "properties": {
        "name": "IGBEDE , IN FRONT OF OYEDELE'S HOUSE",
        "ward": "IYE  III",
        "lga": "ILEJEMEJE",
        "state": "EKITI"
      }
    },
    {
      "type": "Feature",
      "geometry": {
        "type": "Point",
        "coordinates": [
          5.223307699999999,
          7.957310300000001
        ]
      },
      "properties": {
        "name": "ISE , IN FRONT OF AKINWUNMI'S HOUSE",
        "ward": "IYE  III",
        "lga": "ILEJEMEJE",
        "state": "EKITI"
      }
    },
    {
      "type": "Feature",
      "geometry": {
        "type": "Point",
        "coordinates": [
          5.087265299999999,
          7.828709
        ]
      },
      "properties": {
        "name": "OKE ODE I , TOWN HALL",
        "ward": "IJESAMODU",
        "lga": "ILEJEMEJE",
        "state": "EKITI"
      }
    },
    {
      "type": "Feature",
      "geometry": {
        "type": "Point",
        "coordinates": [
          5.087265299999999,
          7.828709
        ]
      },
      "properties": {
        "name": "OKE ODE II , TOWN HALL",
        "ward": "IJESAMODU",
        "lga": "ILEJEMEJE",
        "state": "EKITI"
      }
    },
    {
      "type": "Feature",
      "geometry": {
        "type": "Point",
        "coordinates": [
          5.216057,
          7.9606092
        ]
      },
      "properties": {
        "name": "ODO ODE ST. LUKES PRIMARY SCHOOL",
        "ward": "IJESAMODU",
        "lga": "ILEJEMEJE",
        "state": "EKITI"
      }
    },
    {
      "type": "Feature",
      "geometry": {
        "type": "Point",
        "coordinates": [
          5.216057,
          7.9606092
        ]
      },
      "properties": {
        "name": "ARAROMI QUARTERS, ST. LUKES PRIMARY SCHOOL",
        "ward": "IJESAMODU",
        "lga": "ILEJEMEJE",
        "state": "EKITI"
      }
    },
    {
      "type": "Feature",
      "geometry": {
        "type": "Point",
        "coordinates": [
          5.223307699999999,
          7.957310300000001
        ]
      },
      "properties": {
        "name": "ALEJA QUARTERS , IN FRONT OF CHIEF OLUKOSI'S HOUSE",
        "ward": "IJESAMODU",
        "lga": "ILEJEMEJE",
        "state": "EKITI"
      }
    },
    {
      "type": "Feature",
      "geometry": {
        "type": "Point",
        "coordinates": [
          5.223307699999999,
          7.957310300000001
        ]
      },
      "properties": {
        "name": "EGENA QUARTERS, IN FRONT OF ONIJOKA'S HOUSE",
        "ward": "IJESAMODU",
        "lga": "ILEJEMEJE",
        "state": "EKITI"
      }
    },
    {
      "type": "Feature",
      "geometry": {
        "type": "Point",
        "coordinates": [
          5.223307699999999,
          7.957310300000001
        ]
      },
      "properties": {
        "name": "ORI EGUN , IN FRONT OF OLASEHINDE'S HOUSE",
        "ward": "IJESAMODU",
        "lga": "ILEJEMEJE",
        "state": "EKITI"
      }
    },
    {
      "type": "Feature",
      "geometry": {
        "type": "Point",
        "coordinates": [
          5.3309652,
          7.799223699999999
        ]
      },
      "properties": {
        "name": "OJULE OLORO  I AND II, IN FRONT OF OSOLO'S HOUSE",
        "ward": "OBADA",
        "lga": "ILEJEMEJE",
        "state": "EKITI"
      }
    },
    {
      "type": "Feature",
      "geometry": {
        "type": "Point",
        "coordinates": [
          5.223307699999999,
          7.957310300000001
        ]
      },
      "properties": {
        "name": "OJULE AAFIN , IN FRONT OF AGBETOKE'S HOUSE",
        "ward": "OBADA",
        "lga": "ILEJEMEJE",
        "state": "EKITI"
      }
    },
    {
      "type": "Feature",
      "geometry": {
        "type": "Point",
        "coordinates": [
          5.223307699999999,
          7.957310300000001
        ]
      },
      "properties": {
        "name": "ILIJE STREET , IN FRONT OF OWOEYE'S HOUSE",
        "ward": "OBADA",
        "lga": "ILEJEMEJE",
        "state": "EKITI"
      }
    },
    {
      "type": "Feature",
      "geometry": {
        "type": "Point",
        "coordinates": [
          5.223307699999999,
          7.957310300000001
        ]
      },
      "properties": {
        "name": "ISOLO I AND II , INFRONT OF AWOLOPE'S HOUSE",
        "ward": "OBADA",
        "lga": "ILEJEMEJE",
        "state": "EKITI"
      }
    },
    {
      "type": "Feature",
      "geometry": {
        "type": "Point",
        "coordinates": [
          5.2305828,
          7.955061899999999
        ]
      },
      "properties": {
        "name": "IYE ROAD  II, COMMUNITY PRIMARY SCHOOL",
        "ward": "OBADA",
        "lga": "ILEJEMEJE",
        "state": "EKITI"
      }
    },
    {
      "type": "Feature",
      "geometry": {
        "type": "Point",
        "coordinates": [
          5.2305828,
          7.955061899999999
        ]
      },
      "properties": {
        "name": "ILISEMO I IYEMOKUN PRIMARY SCHOOL",
        "ward": "IYE  II",
        "lga": "ILEJEMEJE",
        "state": "EKITI"
      }
    },
    {
      "type": "Feature",
      "geometry": {
        "type": "Point",
        "coordinates": [
          5.2231327,
          7.9517079
        ]
      },
      "properties": {
        "name": "ILISEMO II  IYEMOKUN PRIMARY SCHOOL",
        "ward": "IYE  II",
        "lga": "ILEJEMEJE",
        "state": "EKITI"
      }
    },
    {
      "type": "Feature",
      "geometry": {
        "type": "Point",
        "coordinates": [
          5.223307699999999,
          7.957310300000001
        ]
      },
      "properties": {
        "name": "ILE EBU , INFROONT OF OLAIFA'S HOUSE",
        "ward": "IYE  II",
        "lga": "ILEJEMEJE",
        "state": "EKITI"
      }
    },
    {
      "type": "Feature",
      "geometry": {
        "type": "Point",
        "coordinates": [
          5.223307699999999,
          7.957310300000001
        ]
      },
      "properties": {
        "name": "ODO IDERA , INFRONT OF ADEOSOUN'S HOUSE",
        "ward": "IYE  II",
        "lga": "ILEJEMEJE",
        "state": "EKITI"
      }
    },
    {
      "type": "Feature",
      "geometry": {
        "type": "Point",
        "coordinates": [
          5.223307699999999,
          7.957310300000001
        ]
      },
      "properties": {
        "name": "ILE ASALU / OKERE , ILEFON HALL",
        "ward": "IYE  II",
        "lga": "ILEJEMEJE",
        "state": "EKITI"
      }
    },
    {
      "type": "Feature",
      "geometry": {
        "type": "Point",
        "coordinates": [
          5.223307699999999,
          7.957310300000001
        ]
      },
      "properties": {
        "name": "ILE PORO , IN FRONT OF OMOLA'S HOUSE",
        "ward": "IYE  II",
        "lga": "ILEJEMEJE",
        "state": "EKITI"
      }
    },
    {
      "type": "Feature",
      "geometry": {
        "type": "Point",
        "coordinates": [
          5.1927034,
          7.622354899999999
        ]
      },
      "properties": {
        "name": "COURT HALL , COURT HALL",
        "ward": "EWU",
        "lga": "ILEJEMEJE",
        "state": "EKITI"
      }
    },
    {
      "type": "Feature",
      "geometry": {
        "type": "Point",
        "coordinates": [
          5.223307699999999,
          7.957310300000001
        ]
      },
      "properties": {
        "name": "AAFIN , AAFIN",
        "ward": "EWU",
        "lga": "ILEJEMEJE",
        "state": "EKITI"
      }
    },
    {
      "type": "Feature",
      "geometry": {
        "type": "Point",
        "coordinates": [
          5.223307699999999,
          7.957310300000001
        ]
      },
      "properties": {
        "name": "AKUAJO , AKUAJO",
        "ward": "EWU",
        "lga": "ILEJEMEJE",
        "state": "EKITI"
      }
    },
    {
      "type": "Feature",
      "geometry": {
        "type": "Point",
        "coordinates": [
          5.223307699999999,
          7.957310300000001
        ]
      },
      "properties": {
        "name": "TEMIDIRE IN FRONT OF SAJUKU'S HOUSE",
        "ward": "EWU",
        "lga": "ILEJEMEJE",
        "state": "EKITI"
      }
    },
    {
      "type": "Feature",
      "geometry": {
        "type": "Point",
        "coordinates": [
          5.223307699999999,
          7.957310300000001
        ]
      },
      "properties": {
        "name": "ODO APEJOYE , IN FRONT OF CHIEF ODOFIN'S HOUSE",
        "ward": "EWU",
        "lga": "ILEJEMEJE",
        "state": "EKITI"
      }
    },
    {
      "type": "Feature",
      "geometry": {
        "type": "Point",
        "coordinates": [
          5.216057,
          7.9606092
        ]
      },
      "properties": {
        "name": "ILISEMO I , IN FRONT OF OLAJUBU'S HOUSE",
        "ward": "IPERE",
        "lga": "ILEJEMEJE",
        "state": "EKITI"
      }
    },
    {
      "type": "Feature",
      "geometry": {
        "type": "Point",
        "coordinates": [
          5.223307699999999,
          7.957310300000001
        ]
      },
      "properties": {
        "name": "ILISEMO II , IN FRONT OF EISAJOFI'S HOUSE",
        "ward": "IPERE",
        "lga": "ILEJEMEJE",
        "state": "EKITI"
      }
    },
    {
      "type": "Feature",
      "geometry": {
        "type": "Point",
        "coordinates": [
          5.223307699999999,
          7.957310300000001
        ]
      },
      "properties": {
        "name": "IGBEDE ODO I, IN FRONT OF ILESANMI'S HOUSE",
        "ward": "IPERE",
        "lga": "ILEJEMEJE",
        "state": "EKITI"
      }
    },
    {
      "type": "Feature",
      "geometry": {
        "type": "Point",
        "coordinates": [
          5.223307699999999,
          7.957310300000001
        ]
      },
      "properties": {
        "name": "ISABA I , IN FRONT OF OSASONA'S HOUSE",
        "ward": "IPERE",
        "lga": "ILEJEMEJE",
        "state": "EKITI"
      }
    },
    {
      "type": "Feature",
      "geometry": {
        "type": "Point",
        "coordinates": [
          5.223307699999999,
          7.957310300000001
        ]
      },
      "properties": {
        "name": "ISABA II , IN FRONT OF OMONIYI'S HOUSE",
        "ward": "IPERE",
        "lga": "ILEJEMEJE",
        "state": "EKITI"
      }
    },
    {
      "type": "Feature",
      "geometry": {
        "type": "Point",
        "coordinates": [
          5.0701109,
          7.812597899999999
        ]
      },
      "properties": {
        "name": "IJEMO II , TOWN HALL",
        "ward": "IPERE",
        "lga": "ILEJEMEJE",
        "state": "EKITI"
      }
    },
    {
      "type": "Feature",
      "geometry": {
        "type": "Point",
        "coordinates": [
          5.1614534,
          8.087712699999999
        ]
      },
      "properties": {
        "name": "ODO OWA I , IN FRONT OF ELEDA'S HOUSE   I",
        "ward": "EDA ONIYO",
        "lga": "ILEJEMEJE",
        "state": "EKITI"
      }
    },
    {
      "type": "Feature",
      "geometry": {
        "type": "Point",
        "coordinates": [
          5.223307699999999,
          7.957310300000001
        ]
      },
      "properties": {
        "name": "OKE IGBANA , INFRONT OF BABA EGBE'S HOUSE",
        "ward": "EDA ONIYO",
        "lga": "ILEJEMEJE",
        "state": "EKITI"
      }
    },
    {
      "type": "Feature",
      "geometry": {
        "type": "Point",
        "coordinates": [
          5.223307699999999,
          7.957310300000001
        ]
      },
      "properties": {
        "name": "ISALU / IGBANA ,IN FRONT OF AGBANA'S HOUSE",
        "ward": "EDA ONIYO",
        "lga": "ILEJEMEJE",
        "state": "EKITI"
      }
    },
    {
      "type": "Feature",
      "geometry": {
        "type": "Point",
        "coordinates": [
          5.2632201,
          7.985873300000001
        ]
      },
      "properties": {
        "name": "ARAROMI , INFRONT OF IYALAJE'S HOUSE",
        "ward": "EDA ONIYO",
        "lga": "ILEJEMEJE",
        "state": "EKITI"
      }
    },
    {
      "type": "Feature",
      "geometry": {
        "type": "Point",
        "coordinates": [
          5.223307699999999,
          7.957310300000001
        ]
      },
      "properties": {
        "name": "ILEMESO , IN FRONT OF ONIGEMO'S HOUSE",
        "ward": "EDA ONIYO",
        "lga": "ILEJEMEJE",
        "state": "EKITI"
      }
    },
    {
      "type": "Feature",
      "geometry": {
        "type": "Point",
        "coordinates": [
          5.223307699999999,
          7.957310300000001
        ]
      },
      "properties": {
        "name": "OJULEMOBA , IN FRONT OF CHIEF OGUNTIFA'S HOUSE",
        "ward": "EDA ONIYO",
        "lga": "ILEJEMEJE",
        "state": "EKITI"
      }
    },
    {
      "type": "Feature",
      "geometry": {
        "type": "Point",
        "coordinates": [
          5.223307699999999,
          7.957310300000001
        ]
      },
      "properties": {
        "name": "ODOFIN AREA , IN FRONT OF ADEOSUN'S HOUSE",
        "ward": "ILUDUN I",
        "lga": "ILEJEMEJE",
        "state": "EKITI"
      }
    },
    {
      "type": "Feature",
      "geometry": {
        "type": "Point",
        "coordinates": [
          5.223307699999999,
          7.957310300000001
        ]
      },
      "properties": {
        "name": "ARAROMI , IN FRONT OF J. K.'S",
        "ward": "ILUDUN I",
        "lga": "ILEJEMEJE",
        "state": "EKITI"
      }
    },
    {
      "type": "Feature",
      "geometry": {
        "type": "Point",
        "coordinates": [
          5.223307699999999,
          7.957310300000001
        ]
      },
      "properties": {
        "name": "IJARO , IN FRONT OF OGUNLEYE'S HOUSE",
        "ward": "ILUDUN I",
        "lga": "ILEJEMEJE",
        "state": "EKITI"
      }
    },
    {
      "type": "Feature",
      "geometry": {
        "type": "Point",
        "coordinates": [
          5.2488573,
          7.9439752
        ]
      },
      "properties": {
        "name": "OKE ILUDUN  II  , ST. DAVID'S SCHOOL",
        "ward": "ILUDUN I",
        "lga": "ILEJEMEJE",
        "state": "EKITI"
      }
    },
    {
      "type": "Feature",
      "geometry": {
        "type": "Point",
        "coordinates": [
          5.2211773,
          7.620137799999999
        ]
      },
      "properties": {
        "name": "IWOROKO , IN FRONT OF TOBA'S HOUSE",
        "ward": "ILUDUN I",
        "lga": "ILEJEMEJE",
        "state": "EKITI"
      }
    },
    {
      "type": "Feature",
      "geometry": {
        "type": "Point",
        "coordinates": [
          5.223307699999999,
          7.957310300000001
        ]
      },
      "properties": {
        "name": "ILISEMO , IN FRONT OF CHIEF OBANLA'S HOUSE",
        "ward": "ILUDUN I",
        "lga": "ILEJEMEJE",
        "state": "EKITI"
      }
    },
    {
      "type": "Feature",
      "geometry": {
        "type": "Point",
        "coordinates": [
          5.2305828,
          7.955061899999999
        ]
      },
      "properties": {
        "name": "OKEUN , TOWN HALL",
        "ward": "IYE  I",
        "lga": "ILEJEMEJE",
        "state": "EKITI"
      }
    },
    {
      "type": "Feature",
      "geometry": {
        "type": "Point",
        "coordinates": [
          5.223307699999999,
          7.957310300000001
        ]
      },