{
  "type": "FeatureCollection",
  "features": [
    {
      "type": "Feature",
      "geometry": {
        "type": "Point",
        "coordinates": [
          7.4690688,
          6.2482945
        ]
      },
      "properties": {
        "name": "UMUATUBO VILLAGE HALL",
        "ward": "OGBAKU",
        "lga": "AWGU",
        "state": "ENUGU"
      }
    },
    {
      "type": "Feature",
      "geometry": {
        "type": "Point",
        "coordinates": [
          7.490816700000001,
          6.4034005
        ]
      },
      "properties": {
        "name": "OBODO AJANI (ENUGU MBIO)",
        "ward": "OGBAKU",
        "lga": "AWGU",
        "state": "ENUGU"
      }
    },
    {
      "type": "Feature",
      "geometry": {
        "type": "Point",
        "coordinates": [
          7.476958,
          6.2507256
        ]
      },
      "properties": {
        "name": "UHUAGBOM VILLAGE HALL",
        "ward": "OGBAKU",
        "lga": "AWGU",
        "state": "ENUGU"
      }
    },
    {
      "type": "Feature",
      "geometry": {
        "type": "Point",
        "coordinates": [
          7.499159100000001,
          6.2145106
        ]
      },
      "properties": {
        "name": "MBIO PRIMARY SCHOOL I",
        "ward": "OGBAKU",
        "lga": "AWGU",
        "state": "ENUGU"
      }
    },
    {
      "type": "Feature",
      "geometry": {
        "type": "Point",
        "coordinates": [
          7.4790901,
          6.0780322
        ]
      },
      "properties": {
        "name": "OBODO IHIANI",
        "ward": "OGBAKU",
        "lga": "AWGU",
        "state": "ENUGU"
      }
    },
    {
      "type": "Feature",
      "geometry": {
        "type": "Point",
        "coordinates": [
          7.4912187,
          6.1904825
        ]
      },
      "properties": {
        "name": "COMM. SCHOOL EZIAMA",
        "ward": "OGBAKU",
        "lga": "AWGU",
        "state": "ENUGU"
      }
    },
    {
      "type": "Feature",
      "geometry": {
        "type": "Point",
        "coordinates": [
          7.507945299999999,
          6.2058136
        ]
      },
      "properties": {
        "name": "EKE MARKET SQUARE",
        "ward": "OGBAKU",
        "lga": "AWGU",
        "state": "ENUGU"
      }
    },
    {
      "type": "Feature",
      "geometry": {
        "type": "Point",
        "coordinates": [
          7.4790901,
          6.0780322
        ]
      },
      "properties": {
        "name": "OBODO NGENE UKWU (AWTOR)",
        "ward": "OGBAKU",
        "lga": "AWGU",
        "state": "ENUGU"
      }
    },
    {
      "type": "Feature",
      "geometry": {
        "type": "Point",
        "coordinates": [
          6.9558519,
          5.5692129
        ]
      },
      "properties": {
        "name": "CENTRAL SCHOOL OGBAKU I",
        "ward": "OGBAKU",
        "lga": "AWGU",
        "state": "ENUGU"
      }
    },
    {
      "type": "Feature",
      "geometry": {
        "type": "Point",
        "coordinates": [
          6.9558519,
          5.5692129
        ]
      },
      "properties": {
        "name": "CENTRAL SCHOOL OGBAKU II",
        "ward": "OGBAKU",
        "lga": "AWGU",
        "state": "ENUGU"
      }
    },
    {
      "type": "Feature",
      "geometry": {
        "type": "Point",
        "coordinates": [
          7.4532148,
          6.1158152
        ]
      },
      "properties": {
        "name": "NWAUGBA (UNAPPROVED SEC. SHOOL)",
        "ward": "OGBAKU",
        "lga": "AWGU",
        "state": "ENUGU"
      }
    },
    {
      "type": "Feature",
      "geometry": {
        "type": "Point",
        "coordinates": [
          7.499159100000001,
          6.2145106
        ]
      },
      "properties": {
        "name": "MBIO PRIMARY SCHOOL II",
        "ward": "OGBAKU",
        "lga": "AWGU",
        "state": "ENUGU"
      }
    },
    {
      "type": "Feature",
      "geometry": {
        "type": "Point",
        "coordinates": [
          7.4912187,
          6.1904825
        ]
      },
      "properties": {
        "name": "CENT. SCH. OGBAKU III",
        "ward": "OGBAKU",
        "lga": "AWGU",
        "state": "ENUGU"
      }
    },
    {
      "type": "Feature",
      "geometry": {
        "type": "Point",
        "coordinates": [
          7.507945299999999,
          6.2058136
        ]
      },
      "properties": {
        "name": "ODUME TOWN HALL EXIAMA, OGBAKU",
        "ward": "OGBAKU",
        "lga": "AWGU",
        "state": "ENUGU"
      }
    },
    {
      "type": "Feature",
      "geometry": {
        "type": "Point",
        "coordinates": [
          7.476073499999999,
          6.064004199999999
        ]
      },
      "properties": {
        "name": "JOINT OSCHOOL AMOFIA",
        "ward": "AWGU II",
        "lga": "AWGU",
        "state": "ENUGU"
      }
    },
    {
      "type": "Feature",
      "geometry": {
        "type": "Point",
        "coordinates": [
          7.476073499999999,
          6.064004199999999
        ]
      },
      "properties": {
        "name": "COMM. SCHOOL ONOLI I",
        "ward": "AWGU II",
        "lga": "AWGU",
        "state": "ENUGU"
      }
    },
    {
      "type": "Feature",
      "geometry": {
        "type": "Point",
        "coordinates": [
          7.476073499999999,
          6.064004199999999
        ]
      },
      "properties": {
        "name": "COMM. SCHOOL ONOLI II",
        "ward": "AWGU II",
        "lga": "AWGU",
        "state": "ENUGU"
      }
    },
    {
      "type": "Feature",
      "geometry": {
        "type": "Point",
        "coordinates": [
          7.476073499999999,
          6.064004199999999
        ]
      },
      "properties": {
        "name": "COMM. SCHOOL AWGU",
        "ward": "AWGU II",
        "lga": "AWGU",
        "state": "ENUGU"
      }
    },
    {
      "type": "Feature",
      "geometry": {
        "type": "Point",
        "coordinates": [
          7.4790901,
          6.0780322
        ]
      },
      "properties": {
        "name": "OBODO AMETA OBUOFFIA SQUARE",
        "ward": "AWGU II",
        "lga": "AWGU",
        "state": "ENUGU"
      }
    },
    {
      "type": "Feature",
      "geometry": {
        "type": "Point",
        "coordinates": [
          7.469917199999999,
          6.0778766
        ]
      },
      "properties": {
        "name": "OGWUMABIRI SQUARE AWGU I",
        "ward": "AWGU II",
        "lga": "AWGU",
        "state": "ENUGU"
      }
    },
    {
      "type": "Feature",
      "geometry": {
        "type": "Point",
        "coordinates": [
          7.4714215,
          6.2498719
        ]
      },
      "properties": {
        "name": "OYE UMUHU MARKET SQUARE I",
        "ward": "AWGU II",
        "lga": "AWGU",
        "state": "ENUGU"
      }
    },
    {
      "type": "Feature",
      "geometry": {
        "type": "Point",
        "coordinates": [
          7.4790901,
          6.0780322
        ]
      },
      "properties": {
        "name": "OYE UMUHU MARKET SQUARE II",
        "ward": "AWGU II",
        "lga": "AWGU",
        "state": "ENUGU"
      }
    },
    {
      "type": "Feature",
      "geometry": {
        "type": "Point",
        "coordinates": [
          7.476073499999999,
          6.064004199999999
        ]
      },
      "properties": {
        "name": "JOINT SCHOOL AWGU",
        "ward": "AWGU II",
        "lga": "AWGU",
        "state": "ENUGU"
      }
    },
    {
      "type": "Feature",
      "geometry": {
        "type": "Point",
        "coordinates": [
          7.480358900000001,
          6.0443594
        ]
      },
      "properties": {
        "name": "AMAJIRIJI VILLAGE SQUARE",
        "ward": "AWGU II",
        "lga": "AWGU",
        "state": "ENUGU"
      }
    },
    {
      "type": "Feature",
      "geometry": {
        "type": "Point",
        "coordinates": [
          7.4790901,
          6.0780322
        ]
      },
      "properties": {
        "name": "UHUANYA PUBLIC SQUARE",
        "ward": "AWGU II",
        "lga": "AWGU",
        "state": "ENUGU"
      }
    },
    {
      "type": "Feature",
      "geometry": {
        "type": "Point",
        "coordinates": [
          7.480358900000001,
          6.0443594
        ]
      },
      "properties": {
        "name": "OGWUMABIRI SQUARE AWGU II",
        "ward": "AWGU II",
        "lga": "AWGU",
        "state": "ENUGU"
      }
    },
    {
      "type": "Feature",
      "geometry": {
        "type": "Point",
        "coordinates": [
          7.4790901,
          6.0780322
        ]
      },
      "properties": {
        "name": "EZIUMUHU PUBLIC SQUARE",
        "ward": "AWGU II",
        "lga": "AWGU",
        "state": "ENUGU"
      }
    },
    {
      "type": "Feature",
      "geometry": {
        "type": "Point",
        "coordinates": [
          7.4790901,
          6.0780322
        ]
      },
      "properties": {
        "name": "EKE AMAIWE VILLAGE HALL",
        "ward": "AWGU II",
        "lga": "AWGU",
        "state": "ENUGU"
      }
    },
    {
      "type": "Feature",
      "geometry": {
        "type": "Point",
        "coordinates": [
          7.472743299999999,
          6.0558479
        ]
      },
      "properties": {
        "name": "COMMUNITY SCHOOL AWGU II",
        "ward": "AWGU II",
        "lga": "AWGU",
        "state": "ENUGU"
      }
    },
    {
      "type": "Feature",
      "geometry": {
        "type": "Point",
        "coordinates": [
          7.476073499999999,
          6.064004199999999
        ]
      },
      "properties": {
        "name": "TOWN HALL OBUOFFIA",
        "ward": "AWGU II",
        "lga": "AWGU",
        "state": "ENUGU"
      }
    },
    {
      "type": "Feature",
      "geometry": {
        "type": "Point",
        "coordinates": [
          7.4790901,
          6.0780322
        ]
      },
      "properties": {
        "name": "AMAGU UMUHU SQUARE",
        "ward": "AWGU II",
        "lga": "AWGU",
        "state": "ENUGU"
      }
    },
    {
      "type": "Feature",
      "geometry": {
        "type": "Point",
        "coordinates": [
          7.4711436,
          6.076509799999999
        ]
      },
      "properties": {
        "name": "IN-FRONT OF CORPERS LODGE",
        "ward": "AWGU II",
        "lga": "AWGU",
        "state": "ENUGU"
      }
    },
    {
      "type": "Feature",
      "geometry": {
        "type": "Point",
        "coordinates": [
          7.480358900000001,
          6.0443594
        ]
      },
      "properties": {
        "name": "AMEBO OLIKWU VILLAGE SQUARE",
        "ward": "AWGU II",
        "lga": "AWGU",
        "state": "ENUGU"
      }
    },
    {
      "type": "Feature",
      "geometry": {
        "type": "Point",
        "coordinates": [
          7.4790901,
          6.0780322
        ]
      },
      "properties": {
        "name": "OBODO UHUAGWU TOWN HALL",
        "ward": "AWGU II",
        "lga": "AWGU",
        "state": "ENUGU"
      }
    },
    {
      "type": "Feature",
      "geometry": {
        "type": "Point",
        "coordinates": [
          7.480358900000001,
          6.0443594
        ]
      },
      "properties": {
        "name": "UGWUORJI OGWUMABIRI SQUARE",
        "ward": "AWGU II",
        "lga": "AWGU",
        "state": "ENUGU"
      }
    },
    {
      "type": "Feature",
      "geometry": {
        "type": "Point",
        "coordinates": [
          7.4790901,
          6.0780322
        ]
      },
      "properties": {
        "name": "EZIUMUHU TOWN HALL",
        "ward": "AWGU II",
        "lga": "AWGU",
        "state": "ENUGU"
      }
    },
    {
      "type": "Feature",
      "geometry": {
        "type": "Point",
        "coordinates": [
          7.4308348,
          6.1909926
        ]
      },
      "properties": {
        "name": "CENTRAL SCHOOL OGUGU",
        "ward": "OWELLI/AMOLI/UGBO/OGUGU",
        "lga": "AWGU",
        "state": "ENUGU"
      }
    },
    {
      "type": "Feature",
      "geometry": {
        "type": "Point",
        "coordinates": [
          7.4489531,
          6.174833
        ]
      },
      "properties": {
        "name": "OBODO AMANABO",
        "ward": "OWELLI/AMOLI/UGBO/OGUGU",
        "lga": "AWGU",
        "state": "ENUGU"
      }
    },
    {
      "type": "Feature",
      "geometry": {
        "type": "Point",
        "coordinates": [
          7.4489531,
          6.174833
        ]
      },
      "properties": {
        "name": "IBITE PRIMARY SCHOOL",
        "ward": "OWELLI/AMOLI/UGBO/OGUGU",
        "lga": "AWGU",
        "state": "ENUGU"
      }
    },
    {
      "type": "Feature",
      "geometry": {
        "type": "Point",
        "coordinates": [
          7.462380100000001,
          6.198190599999999
        ]
      },
      "properties": {
        "name": "OBODO VILLAGE SQUARE",
        "ward": "OWELLI/AMOLI/UGBO/OGUGU",
        "lga": "AWGU",
        "state": "ENUGU"
      }
    },
    {
      "type": "Feature",
      "geometry": {
        "type": "Point",
        "coordinates": [
          7.4489531,
          6.174833
        ]
      },
      "properties": {
        "name": "UGWU AMAGBE",
        "ward": "OWELLI/AMOLI/UGBO/OGUGU",
        "lga": "AWGU",
        "state": "ENUGU"
      }
    },
    {
      "type": "Feature",
      "geometry": {
        "type": "Point",
        "coordinates": [
          7.4489531,
          6.174833
        ]
      },
      "properties": {
        "name": "ENUGU OWELLI COMM. SCHOOL",
        "ward": "OWELLI/AMOLI/UGBO/OGUGU",
        "lga": "AWGU",
        "state": "ENUGU"
      }
    },
    {
      "type": "Feature",
      "geometry": {
        "type": "Point",
        "coordinates": [
          7.4489531,
          6.174833
        ]
      },
      "properties": {
        "name": "UPE SCHOOL I",
        "ward": "OWELLI/AMOLI/UGBO/OGUGU",
        "lga": "AWGU",
        "state": "ENUGU"
      }
    },
    {
      "type": "Feature",
      "geometry": {
        "type": "Point",
        "coordinates": [
          7.4489531,
          6.174833
        ]
      },
      "properties": {
        "name": "UPE SCHOOL II",
        "ward": "OWELLI/AMOLI/UGBO/OGUGU",
        "lga": "AWGU",
        "state": "ENUGU"
      }
    },
    {
      "type": "Feature",
      "geometry": {
        "type": "Point",
        "coordinates": [
          7.4489531,
          6.174833
        ]
      },
      "properties": {
        "name": "UZAM SQUARE I",
        "ward": "OWELLI/AMOLI/UGBO/OGUGU",
        "lga": "AWGU",
        "state": "ENUGU"
      }
    },
    {
      "type": "Feature",
      "geometry": {
        "type": "Point",
        "coordinates": [
          7.4489531,
          6.174833
        ]
      },
      "properties": {
        "name": "OWELLI COURT I",
        "ward": "OWELLI/AMOLI/UGBO/OGUGU",
        "lga": "AWGU",
        "state": "ENUGU"
      }
    },
    {
      "type": "Feature",
      "geometry": {
        "type": "Point",
        "coordinates": [
          7.461151699999999,
          6.182928
        ]
      },
      "properties": {
        "name": "NKWO OGUGU",
        "ward": "OWELLI/AMOLI/UGBO/OGUGU",
        "lga": "AWGU",
        "state": "ENUGU"
      }
    },
    {
      "type": "Feature",
      "geometry": {
        "type": "Point",
        "coordinates": [
          7.4489531,
          6.174833
        ]
      },
      "properties": {
        "name": "OBODO UMUNNA",
        "ward": "OWELLI/AMOLI/UGBO/OGUGU",
        "lga": "AWGU",
        "state": "ENUGU"
      }
    },
    {
      "type": "Feature",
      "geometry": {
        "type": "Point",
        "coordinates": [
          7.4489531,
          6.174833
        ]
      },
      "properties": {
        "name": "PRIMARY SCHOOL ANONO OWELLI",
        "ward": "OWELLI/AMOLI/UGBO/OGUGU",
        "lga": "AWGU",
        "state": "ENUGU"
      }
    },
    {
      "type": "Feature",
      "geometry": {
        "type": "Point",
        "coordinates": [
          7.4489531,
          6.174833
        ]
      },
      "properties": {
        "name": "OBODO UHUOKPALA",
        "ward": "OWELLI/AMOLI/UGBO/OGUGU",
        "lga": "AWGU",
        "state": "ENUGU"
      }
    },
    {
      "type": "Feature",
      "geometry": {
        "type": "Point",
        "coordinates": [
          7.4308348,
          6.1909926
        ]
      },
      "properties": {
        "name": "CENTRAL SCHOOL AMOLI",
        "ward": "OWELLI/AMOLI/UGBO/OGUGU",
        "lga": "AWGU",
        "state": "ENUGU"
      }
    },
    {
      "type": "Feature",
      "geometry": {
        "type": "Point",
        "coordinates": [
          7.4489531,
          6.174833
        ]
      },
      "properties": {
        "name": "OHUMAGU VILLAGE SQUARE",
        "ward": "OWELLI/AMOLI/UGBO/OGUGU",
        "lga": "AWGU",
        "state": "ENUGU"
      }
    },
    {
      "type": "Feature",
      "geometry": {
        "type": "Point",
        "coordinates": [
          7.4811745,
          6.1755423
        ]
      },
      "properties": {
        "name": "HEALTH CENTRE AMOLI",
        "ward": "OWELLI/AMOLI/UGBO/OGUGU",
        "lga": "AWGU",
        "state": "ENUGU"
      }
    },
    {
      "type": "Feature",
      "geometry": {
        "type": "Point",
        "coordinates": [
          7.4489531,
          6.174833
        ]
      },
      "properties": {
        "name": "OBODO AKPU-OKA",
        "ward": "OWELLI/AMOLI/UGBO/OGUGU",
        "lga": "AWGU",
        "state": "ENUGU"
      }
    },
    {
      "type": "Feature",
      "geometry": {
        "type": "Point",
        "coordinates": [
          7.4489531,
          6.174833
        ]
      },
      "properties": {
        "name": "OTUNKU C.P.S",
        "ward": "OWELLI/AMOLI/UGBO/OGUGU",
        "lga": "AWGU",
        "state": "ENUGU"
      }
    },
    {
      "type": "Feature",
      "geometry": {
        "type": "Point",
        "coordinates": [
          7.4489531,
          6.174833
        ]
      },
      "properties": {
        "name": "JOINT SCHOOL OHUMAGU",
        "ward": "OWELLI/AMOLI/UGBO/OGUGU",
        "lga": "AWGU",
        "state": "ENUGU"
      }
    },
    {
      "type": "Feature",
      "geometry": {
        "type": "Point",
        "coordinates": [
          7.4415107,
          6.196030599999999
        ]
      },
      "properties": {
        "name": "TECHNICAL SCHOOL AMOLI",
        "ward": "OWELLI/AMOLI/UGBO/OGUGU",
        "lga": "AWGU",
        "state": "ENUGU"
      }
    },
    {
      "type": "Feature",
      "geometry": {
        "type": "Point",
        "coordinates": [
          7.4489531,
          6.174833
        ]
      },
      "properties": {
        "name": "OBODO UMUAGWU AMOLI",
        "ward": "OWELLI/AMOLI/UGBO/OGUGU",
        "lga": "AWGU",
        "state": "ENUGU"
      }
    },
    {
      "type": "Feature",
      "geometry": {
        "type": "Point",
        "coordinates": [
          7.4489531,
          6.174833
        ]
      },
      "properties": {
        "name": "C.P.S. UGBOKPALA I",
        "ward": "OWELLI/AMOLI/UGBO/OGUGU",
        "lga": "AWGU",
        "state": "ENUGU"
      }
    },
    {
      "type": "Feature",
      "geometry": {
        "type": "Point",
        "coordinates": [
          7.4489531,
          6.174833
        ]
      },
      "properties": {
        "name": "C.P.S. UGBOKPALA II",
        "ward": "OWELLI/AMOLI/UGBO/OGUGU",
        "lga": "AWGU",
        "state": "ENUGU"
      }
    },
    {
      "type": "Feature",
      "geometry": {
        "type": "Point",
        "coordinates": [
          7.4489531,
          6.174833
        ]
      },
      "properties": {
        "name": "UZAM SQUARE II",
        "ward": "OWELLI/AMOLI/UGBO/OGUGU",
        "lga": "AWGU",
        "state": "ENUGU"
      }
    },
    {
      "type": "Feature",
      "geometry": {
        "type": "Point",
        "coordinates": [
          7.4489531,
          6.174833
        ]
      },
      "properties": {
        "name": "OWELLI COURT II",
        "ward": "OWELLI/AMOLI/UGBO/OGUGU",
        "lga": "AWGU",
        "state": "ENUGU"
      }
    },
    {
      "type": "Feature",
      "geometry": {
        "type": "Point",
        "coordinates": [
          7.4489531,
          6.174833
        ]
      },
      "properties": {
        "name": "TECH. SCH. AMOLI",
        "ward": "OWELLI/AMOLI/UGBO/OGUGU",
        "lga": "AWGU",
        "state": "ENUGU"
      }
    },
    {
      "type": "Feature",
      "geometry": {
        "type": "Point",
        "coordinates": [
          7.4489531,
          6.174833
        ]
      },
      "properties": {
        "name": "INOMALIA VILLAGE SQUARE",
        "ward": "OWELLI/AMOLI/UGBO/OGUGU",
        "lga": "AWGU",
        "state": "ENUGU"
      }
    },
    {
      "type": "Feature",
      "geometry": {
        "type": "Point",
        "coordinates": [
          7.4489531,
          6.174833
        ]
      },
      "properties": {
        "name": "C.P.S. UGBONABOR I",
        "ward": "OWELLI/AMOLI/UGBO/OGUGU",
        "lga": "AWGU",
        "state": "ENUGU"
      }
    },
    {
      "type": "Feature",
      "geometry": {
        "type": "Point",
        "coordinates": [
          7.4489531,
          6.174833
        ]
      },
      "properties": {
        "name": "C.P.S. UGBONABOR II",
        "ward": "OWELLI/AMOLI/UGBO/OGUGU",
        "lga": "AWGU",
        "state": "ENUGU"
      }
    },
    {
      "type": "Feature",
      "geometry": {
        "type": "Point",
        "coordinates": [
          7.4489531,
          6.174833
        ]
      },
      "properties": {
        "name": "OBODO OHU VILLAGE SQUARE",
        "ward": "OWELLI/AMOLI/UGBO/OGUGU",
        "lga": "AWGU",
        "state": "ENUGU"
      }
    },
    {
      "type": "Feature",
      "geometry": {
        "type": "Point",
        "coordinates": [
          7.4489531,
          6.174833
        ]
      },
      "properties": {
        "name": "C.P.S. NGENE UGBO",
        "ward": "OWELLI/AMOLI/UGBO/OGUGU",
        "lga": "AWGU",
        "state": "ENUGU"
      }
    },
    {
      "type": "Feature",
      "geometry": {
        "type": "Point",
        "coordinates": [
          7.4489531,
          6.174833
        ]
      },
      "properties": {
        "name": "OBODO UKPAMANU",
        "ward": "OWELLI/AMOLI/UGBO/OGUGU",
        "lga": "AWGU",
        "state": "ENUGU"
      }
    },
    {
      "type": "Feature",
      "geometry": {
        "type": "Point",
        "coordinates": [
          7.4489531,
          6.174833
        ]
      },
      "properties": {
        "name": "EKE-OGA VILLAGE SQUARE NGENEUGBO",
        "ward": "OWELLI/AMOLI/UGBO/OGUGU",
        "lga": "AWGU",
        "state": "ENUGU"
      }
    },
    {
      "type": "Feature",
      "geometry": {
        "type": "Point",
        "coordinates": [
          7.4489531,
          6.174833
        ]
      },
      "properties": {
        "name": "UMUAGAMA VILLAGE HALL",
        "ward": "OWELLI/AMOLI/UGBO/OGUGU",
        "lga": "AWGU",
        "state": "ENUGU"
      }
    },
    {
      "type": "Feature",
      "geometry": {
        "type": "Point",
        "coordinates": [
          7.4489531,
          6.174833
        ]
      },
      "properties": {
        "name": "UGWU OJI NGOLODO VILLAGE SQUARE",
        "ward": "OWELLI/AMOLI/UGBO/OGUGU",
        "lga": "AWGU",
        "state": "ENUGU"
      }
    },
    {
      "type": "Feature",
      "geometry": {
        "type": "Point",
        "coordinates": [
          7.4735999,
          6.0757578
        ]
      },
      "properties": {
        "name": "TOWN SCHOOL AWGU I",
        "ward": "AWGU I",
        "lga": "AWGU",
        "state": "ENUGU"
      }
    },
    {
      "type": "Feature",
      "geometry": {
        "type": "Point",
        "coordinates": [
          7.476073499999999,
          6.064004199999999
        ]
      },
      "properties": {
        "name": "TOWN SCHOOL AWGU II",
        "ward": "AWGU I",
        "lga": "AWGU",
        "state": "ENUGU"
      }
    },
    {
      "type": "Feature",
      "geometry": {
        "type": "Point",
        "coordinates": [
          7.476073499999999,
          6.064004199999999
        ]
      },
      "properties": {
        "name": "CENTRAL SCHOOL AWGU I",
        "ward": "AWGU I",
        "lga": "AWGU",
        "state": "ENUGU"
      }
    },
    {
      "type": "Feature",
      "geometry": {
        "type": "Point",
        "coordinates": [
          7.476073499999999,
          6.064004199999999
        ]
      },
      "properties": {
        "name": "CENTRAL SCHOOL AWGU II",
        "ward": "AWGU I",
        "lga": "AWGU",
        "state": "ENUGU"
      }
    },
    {
      "type": "Feature",
      "geometry": {
        "type": "Point",
        "coordinates": [
          7.476073499999999,
          6.064004199999999
        ]
      },
      "properties": {
        "name": "COMM. SCHOOL ADOGBA",
        "ward": "AWGU I",
        "lga": "AWGU",
        "state": "ENUGU"
      }
    },
    {
      "type": "Feature",
      "geometry": {
        "type": "Point",
        "coordinates": [
          7.4532148,
          6.1158152
        ]
      },
      "properties": {
        "name": "COMM. SCHOOL ULULOR OHAJA",
        "ward": "AWGU I",
        "lga": "AWGU",
        "state": "ENUGU"
      }
    },
    {
      "type": "Feature",
      "geometry": {
        "type": "Point",
        "coordinates": [
          7.5566423,
          6.860525699999999
        ]
      },
      "properties": {
        "name": "UNION PRIMARY SCHOOL OHAJA",
        "ward": "AWGU I",
        "lga": "AWGU",
        "state": "ENUGU"
      }
    },
    {
      "type": "Feature",
      "geometry": {
        "type": "Point",
        "coordinates": [
          7.4739375,
          6.0609375
        ]
      },
      "properties": {
        "name": "ENUGU ROAD PRIMARY SCHOOL",
        "ward": "AWGU I",
        "lga": "AWGU",
        "state": "ENUGU"
      }
    },
    {
      "type": "Feature",
      "geometry": {
        "type": "Point",
        "coordinates": [
          7.4790901,
          6.0780322
        ]
      },
      "properties": {
        "name": "OBODO IBITE SQUARE",
        "ward": "AWGU I",
        "lga": "AWGU",
        "state": "ENUGU"
      }
    },
    {
      "type": "Feature",
      "geometry": {
        "type": "Point",
        "coordinates": [
          7.476073499999999,
          6.064004199999999
        ]
      },
      "properties": {
        "name": "COMM. SCHOOL OGBOLI  NDIUNO",
        "ward": "AWGU I",
        "lga": "AWGU",
        "state": "ENUGU"
      }
    },
    {
      "type": "Feature",
      "geometry": {
        "type": "Point",
        "coordinates": [
          7.4739375,
          6.0609375
        ]
      },
      "properties": {
        "name": "OGBOLI NDIAGU PRIMARY SCHOOL",
        "ward": "AWGU I",
        "lga": "AWGU",
        "state": "ENUGU"
      }
    },
    {
      "type": "Feature",
      "geometry": {
        "type": "Point",
        "coordinates": [
          7.475608599999998,
          6.0823279
        ]
      },
      "properties": {
        "name": "OBODO AMATA AMOKWE SQUARE",
        "ward": "AWGU I",
        "lga": "AWGU",
        "state": "ENUGU"
      }
    },
    {
      "type": "Feature",
      "geometry": {
        "type": "Point",
        "coordinates": [
          7.4790901,
          6.0780322
        ]
      },
      "properties": {
        "name": "OBODO UKWU EVAM VILLAGE SQUARE",
        "ward": "AWGU I",
        "lga": "AWGU",
        "state": "ENUGU"
      }
    },
    {
      "type": "Feature",
      "geometry": {
        "type": "Point",
        "coordinates": [
          7.469917199999999,
          6.0778766
        ]
      },
      "properties": {
        "name": "OBUGO VILLAGE SQUARE",
        "ward": "AWGU I",
        "lga": "AWGU",
        "state": "ENUGU"
      }
    },
    {
      "type": "Feature",
      "geometry": {
        "type": "Point",
        "coordinates": [
          7.4790901,
          6.0780322
        ]
      },
      "properties": {
        "name": "COOPERATIVE COMPLEX AWGU",
        "ward": "AWGU I",
        "lga": "AWGU",
        "state": "ENUGU"
      }
    },
    {
      "type": "Feature",
      "geometry": {
        "type": "Point",
        "coordinates": [
          7.4790901,
          6.0780322
        ]
      },
      "properties": {
        "name": "NDIAGU OLUAVO VILLAGE SQUARE",
        "ward": "AWGU I",
        "lga": "AWGU",
        "state": "ENUGU"
      }
    },
    {
      "type": "Feature",
      "geometry": {
        "type": "Point",
        "coordinates": [
          7.4744518,
          6.0893789
        ]
      },
      "properties": {
        "name": "RIVER SIDE PRIMARY SCHOOL, AMIYI",
        "ward": "AWGU I",
        "lga": "AWGU",
        "state": "ENUGU"
      }
    },
    {
      "type": "Feature",
      "geometry": {
        "type": "Point",
        "coordinates": [
          7.4750912,
          6.0874344
        ]
      },
      "properties": {
        "name": "AMEGU/OLOCHA JUNCTION AWGU",
        "ward": "AWGU I",
        "lga": "AWGU",
        "state": "ENUGU"
      }
    },
    {
      "type": "Feature",
      "geometry": {
        "type": "Point",
        "coordinates": [
          7.480358900000001,
          6.0443594
        ]
      },
      "properties": {
        "name": "OBODO OLOCHA VILLAGE HALL",
        "ward": "AWGU I",
        "lga": "AWGU",
        "state": "ENUGU"
      }
    },
    {
      "type": "Feature",
      "geometry": {
        "type": "Point",
        "coordinates": [
          7.453067300000001,
          6.1210387
        ]
      },
      "properties": {
        "name": "MARKET SQUARE NKWOR SQUARE",
        "ward": "AWGU I",
        "lga": "AWGU",
        "state": "ENUGU"
      }
    },
    {
      "type": "Feature",
      "geometry": {
        "type": "Point",
        "coordinates": [
          7.480358900000001,
          6.0443594
        ]
      },
      "properties": {
        "name": "OBODO ULOLO VILLAGE SQUARE",
        "ward": "AWGU I",
        "lga": "AWGU",
        "state": "ENUGU"
      }
    },
    {
      "type": "Feature",
      "geometry": {
        "type": "Point",
        "coordinates": [
          7.476073499999999,
          6.064004199999999
        ]
      },
      "properties": {
        "name": "URBAN SEC SCHOOL OHAJA",
        "ward": "AWGU I",
        "lga": "AWGU",
        "state": "ENUGU"
      }
    },
    {
      "type": "Feature",
      "geometry": {
        "type": "Point",
        "coordinates": [
          7.480358900000001,
          6.0443594
        ]
      },
      "properties": {
        "name": "AMULO OGBOLI SQUARE",
        "ward": "AWGU I",
        "lga": "AWGU",
        "state": "ENUGU"
      }
    },
    {
      "type": "Feature",
      "geometry": {
        "type": "Point",
        "coordinates": [
          7.4790901,
          6.0780322
        ]
      },
      "properties": {
        "name": "OLOVU ACHU NDIAGU OGBOLI VILLAGE SQUARE",
        "ward": "AWGU I",
        "lga": "AWGU",
        "state": "ENUGU"
      }
    },
    {
      "type": "Feature",
      "geometry": {
        "type": "Point",
        "coordinates": [
          7.4374437,
          6.13904
        ]
      },
      "properties": {
        "name": "OBEAGU ROAD JUNCTION I",
        "ward": "OBEAGU",
        "lga": "AWGU",
        "state": "ENUGU"
      }
    },
    {
      "type": "Feature",
      "geometry": {
        "type": "Point",
        "coordinates": [
          7.4374437,
          6.13904
        ]
      },
      "properties": {
        "name": "OBEAGU ROAD JUNCTION II",
        "ward": "OBEAGU",
        "lga": "AWGU",
        "state": "ENUGU"
      }
    },
    {
      "type": "Feature",
      "geometry": {
        "type": "Point",
        "coordinates": [
          7.4353089,
          6.142246399999999
        ]
      },
      "properties": {
        "name": "EBEOKPU  SQUARE",
        "ward": "OBEAGU",
        "lga": "AWGU",
        "state": "ENUGU"
      }
    },
    {
      "type": "Feature",
      "geometry": {
        "type": "Point",
        "coordinates": [
          7.4353089,
          6.142246399999999
        ]
      },
      "properties": {
        "name": "UGWUEFI   SQUARE",
        "ward": "OBEAGU",
        "lga": "AWGU",
        "state": "ENUGU"
      }
    },
    {
      "type": "Feature",
      "geometry": {
        "type": "Point",
        "coordinates": [
          7.4353089,
          6.142246399999999
        ]
      },
      "properties": {
        "name": "BINI HOUSE",
        "ward": "OBEAGU",
        "lga": "AWGU",
        "state": "ENUGU"
      }
    },
    {
      "type": "Feature",
      "geometry": {
        "type": "Point",
        "coordinates": [
          7.469917199999999,
          6.0778766
        ]
      },
      "properties": {
        "name": "OBODO AGWU",
        "ward": "OBEAGU",
        "lga": "AWGU",
        "state": "ENUGU"
      }
    },
    {
      "type": "Feature",
      "geometry": {
        "type": "Point",
        "coordinates": [
          7.5237465,
          6.372100800000001
        ]
      },
      "properties": {
        "name": "UHUEZE SQUARE",
        "ward": "OBEAGU",
        "lga": "AWGU",
        "state": "ENUGU"
      }
    },
    {
      "type": "Feature",
      "geometry": {
        "type": "Point",
        "coordinates": [
          7.461784700000001,
          6.1071583
        ]
      },
      "properties": {
        "name": "AFOR MARKET SQUARE",
        "ward": "OBEAGU",
        "lga": "AWGU",
        "state": "ENUGU"
      }
    },
    {
      "type": "Feature",
      "geometry": {
        "type": "Point",
        "coordinates": [
          7.490816700000001,
          6.4034005
        ]
      },
      "properties": {
        "name": "OBODO ANIUNO SQUARE",
        "ward": "OBEAGU",
        "lga": "AWGU",
        "state": "ENUGU"
      }
    },
    {
      "type": "Feature",
      "geometry": {
        "type": "Point",
        "coordinates": [
          7.4597725,
          6.1641528
        ]
      },
      "properties": {
        "name": "ODUDO AMOJI SQUARE",
        "ward": "OBEAGU",
        "lga": "AWGU",
        "state": "ENUGU"
      }
    },
    {
      "type": "Feature",
      "geometry": {
        "type": "Point",
        "coordinates": [
          7.475608599999998,
          6.0823279
        ]
      },
      "properties": {
        "name": "OBODO AKPAKA EBENEBE SQUARE",
        "ward": "OBEAGU",
        "lga": "AWGU",
        "state": "ENUGU"
      }
    },
    {
      "type": "Feature",
      "geometry": {
        "type": "Point",
        "coordinates": [
          7.476073499999999,
          6.064004199999999
        ]
      },
      "properties": {
        "name": "COMM. SCHOOL IHE I",
        "ward": "IHE",
        "lga": "AWGU",
        "state": "ENUGU"
      }
    },
    {
      "type": "Feature",
      "geometry": {
        "type": "Point",
        "coordinates": [
          7.476073499999999,
          6.064004199999999
        ]
      },
      "properties": {
        "name": "COMM. SCHOOL IHE II",
        "ward": "IHE",
        "lga": "AWGU",
        "state": "ENUGU"
      }
    },
    {
      "type": "Feature",
      "geometry": {
        "type": "Point",
        "coordinates": [
          7.4690688,
          6.2482945
        ]
      },
      "properties": {
        "name": "UMUONWO/UMUONYIA HALL I",
        "ward": "IHE",
        "lga": "AWGU",
        "state": "ENUGU"
      }
    },
    {
      "type": "Feature",
      "geometry": {
        "type": "Point",
        "coordinates": [
          7.4790901,
          6.0780322
        ]
      },
      "properties": {
        "name": "UMUONWO/UMUONYIA HALL II",
        "ward": "IHE",
        "lga": "AWGU",
        "state": "ENUGU"
      }
    },
    {
      "type": "Feature",
      "geometry": {
        "type": "Point",
        "coordinates": [
          7.476073499999999,
          6.064004199999999
        ]
      },
      "properties": {
        "name": "CENTRAL SCHOOL IHE I",
        "ward": "IHE",
        "lga": "AWGU",
        "state": "ENUGU"
      }
    },
    {
      "type": "Feature",
      "geometry": {
        "type": "Point",
        "coordinates": [
          7.476073499999999,
          6.064004199999999
        ]
      },
      "properties": {
        "name": "CENTRAL SCHOOL IHE II",
        "ward": "IHE",
        "lga": "AWGU",
        "state": "ENUGU"
      }
    },
    {
      "type": "Feature",
      "geometry": {
        "type": "Point",
        "coordinates": [
          7.4543626,
          6.2326988
        ]
      },
      "properties": {
        "name": "PRIMARY SCHOOL IHE II",
        "ward": "IHE",
        "lga": "AWGU",
        "state": "ENUGU"
      }
    },
    {
      "type": "Feature",
      "geometry": {
        "type": "Point",
        "coordinates": [
          7.4532148,
          6.1158152
        ]
      },
      "properties": {
        "name": "COMM. SCHOOL UMUOGBA",
        "ward": "IHE",
        "lga": "AWGU",
        "state": "ENUGU"
      }
    },
    {
      "type": "Feature",
      "geometry": {
        "type": "Point",
        "coordinates": [
          7.4543626,
          6.2326988
        ]
      },
      "properties": {
        "name": "IHUEZE HALL",
        "ward": "IHE",
        "lga": "AWGU",
        "state": "ENUGU"
      }
    },
    {
      "type": "Feature",
      "geometry": {
        "type": "Point",
        "coordinates": [
          7.3597835,
          6.376612600000001
        ]
      },
      "properties": {
        "name": "UMUSIBE HALL I",
        "ward": "IHE",
        "lga": "AWGU",
        "state": "ENUGU"
      }
    },
    {
      "type": "Feature",
      "geometry": {
        "type": "Point",
        "coordinates": [
          7.4790901,
          6.0780322
        ]
      },
      "properties": {
        "name": "UMUSIBE HALL II",
        "ward": "IHE",
        "lga": "AWGU",
        "state": "ENUGU"
      }
    },
    {
      "type": "Feature",
      "geometry": {
        "type": "Point",
        "coordinates": [
          7.4690688,
          6.2482945
        ]
      },
      "properties": {
        "name": "UMUANIEBE VILLAGE HALL",
        "ward": "IHE",
        "lga": "AWGU",
        "state": "ENUGU"
      }
    },
    {
      "type": "Feature",
      "geometry": {
        "type": "Point",
        "coordinates": [
          7.5844559,
          6.425514
        ]
      },
      "properties": {
        "name": "AWKUNANAW VILLAGE HALL",
        "ward": "IHE",
        "lga": "AWGU",
        "state": "ENUGU"
      }
    },
    {
      "type": "Feature",
      "geometry": {
        "type": "Point",
        "coordinates": [
          7.6017284,
          6.460525800000001
        ]
      },
      "properties": {
        "name": "OBINAGU VILLAGE HALL",
        "ward": "AGBOGUGU",
        "lga": "AWGU",
        "state": "ENUGU"
      }
    },
    {
      "type": "Feature",
      "geometry": {
        "type": "Point",
        "coordinates": [
          7.4760297,
          6.253464999999999
        ]
      },
      "properties": {
        "name": "TOWN SCHOOL AMOFIA",
        "ward": "AGBOGUGU",
        "lga": "AWGU",
        "state": "ENUGU"
      }
    },
    {
      "type": "Feature",
      "geometry": {
        "type": "Point",
        "coordinates": [
          7.4714215,
          6.2498719
        ]
      },
      "properties": {
        "name": "OYE MARKET AMOFIA I",
        "ward": "AGBOGUGU",
        "lga": "AWGU",
        "state": "ENUGU"
      }
    },
    {
      "type": "Feature",
      "geometry": {
        "type": "Point",
        "coordinates": [
          7.4790901,
          6.0780322
        ]
      },
      "properties": {
        "name": "ONU OHA OGBO SQUARE",
        "ward": "AGBOGUGU",
        "lga": "AWGU",
        "state": "ENUGU"
      }
    },
    {
      "type": "Feature",
      "geometry": {
        "type": "Point",
        "coordinates": [
          7.471269899999999,
          6.255519
        ]
      },
      "properties": {
        "name": "SHIKAGHOM PRIMARY SCHOOL I",
        "ward": "AGBOGUGU",
        "lga": "AWGU",
        "state": "ENUGU"
      }
    },
    {
      "type": "Feature",
      "geometry": {
        "type": "Point",
        "coordinates": [
          7.480259799999999,
          6.2510233
        ]
      },
      "properties": {
        "name": "OBODO AKPU  SQUARE",
        "ward": "AGBOGUGU",
        "lga": "AWGU",
        "state": "ENUGU"
      }
    },
    {
      "type": "Feature",
      "geometry": {
        "type": "Point",
        "coordinates": [
          7.471269899999999,
          6.255519
        ]
      },
      "properties": {
        "name": "UMUONWO HALL",
        "ward": "AGBOGUGU",
        "lga": "AWGU",
        "state": "ENUGU"
      }
    },
    {
      "type": "Feature",
      "geometry": {
        "type": "Point",
        "coordinates": [
          7.4690688,
          6.2482945
        ]
      },
      "properties": {
        "name": "NDIUGWU VILLAGE HALL",
        "ward": "AGBOGUGU",
        "lga": "AWGU",
        "state": "ENUGU"
      }
    },
    {
      "type": "Feature",
      "geometry": {
        "type": "Point",
        "coordinates": [
          7.4690688,
          6.2482945
        ]
      },
      "properties": {
        "name": "NDIAGBO  VILLAGE HALL",
        "ward": "AGBOGUGU",
        "lga": "AWGU",
        "state": "ENUGU"
      }
    },
    {
      "type": "Feature",
      "geometry": {
        "type": "Point",
        "coordinates": [
          7.4712508,
          6.2555533
        ]
      },
      "properties": {
        "name": "OHUMAGU PRIMARY SCHOOL",
        "ward": "AGBOGUGU",
        "lga": "AWGU",
        "state": "ENUGU"
      }
    },
    {
      "type": "Feature",
      "geometry": {
        "type": "Point",
        "coordinates": [
          7.4712508,
          6.2555533
        ]
      },
      "properties": {
        "name": "SHIKAGHOM PRIMARY SCH. II",
        "ward": "AGBOGUGU",
        "lga": "AWGU",
        "state": "ENUGU"
      }
    },
    {
      "type": "Feature",
      "geometry": {
        "type": "Point",
        "coordinates": [
          7.471269899999999,
          6.255519
        ]
      },
      "properties": {
        "name": "UMUONA OBINAGU VILLAGE SQUARE",
        "ward": "AGBOGUGU",
        "lga": "AWGU",
        "state": "ENUGU"
      }
    },
    {
      "type": "Feature",
      "geometry": {
        "type": "Point",
        "coordinates": [
          7.4790901,
          6.0780322
        ]
      },
      "properties": {
        "name": "COMM. DEVELOPMENT TRAINING CENTRE (CDTC)",
        "ward": "MGBIDI/MMAKU",
        "lga": "AWGU",
        "state": "ENUGU"
      }
    },
    {
      "type": "Feature",
      "geometry": {
        "type": "Point",
        "coordinates": [
          7.465182799999999,
          6.1167206
        ]
      },
      "properties": {
        "name": "IFITE TOWN HALL I",
        "ward": "MGBIDI/MMAKU",
        "lga": "AWGU",
        "state": "ENUGU"
      }
    },
    {
      "type": "Feature",
      "geometry": {
        "type": "Point",
        "coordinates": [
          7.465182799999999,
          6.1167206
        ]
      },
      "properties": {
        "name": "IFITE TOWN HALL II",
        "ward": "MGBIDI/MMAKU",
        "lga": "AWGU",
        "state": "ENUGU"
      }
    },
    {
      "type": "Feature",
      "geometry": {
        "type": "Point",
        "coordinates": [
          7.465182799999999,
          6.1167206
        ]
      },
      "properties": {
        "name": "IFITE TOWN HALL III",
        "ward": "MGBIDI/MMAKU",
        "lga": "AWGU",
        "state": "ENUGU"
      }
    },
    {
      "type": "Feature",
      "geometry": {
        "type": "Point",
        "coordinates": [
          7.4532148,
          6.1158152
        ]
      },
      "properties": {
        "name": "COMM. PRIMARY SCHOOL MGBIDI II",
        "ward": "MGBIDI/MMAKU",
        "lga": "AWGU",
        "state": "ENUGU"
      }
    },
    {
      "type": "Feature",
      "geometry": {
        "type": "Point",
        "coordinates": [
          7.4254703,
          6.0773573
        ]
      },
      "properties": {
        "name": "CENTRAL SCHOOL MGBIDI I",
        "ward": "MGBIDI/MMAKU",
        "lga": "AWGU",
        "state": "ENUGU"
      }
    },
    {
      "type": "Feature",
      "geometry": {
        "type": "Point",
        "coordinates": [
          7.4532148,
          6.1158152
        ]
      },
      "properties": {
        "name": "COMM. SEC. SCHOOL MGBIDI I",
        "ward": "MGBIDI/MMAKU",
        "lga": "AWGU",
        "state": "ENUGU"
      }
    },
    {
      "type": "Feature",
      "geometry": {
        "type": "Point",
        "coordinates": [
          7.465182799999999,
          6.1167206
        ]
      },
      "properties": {
        "name": "ENUGU AFFAM HALL",
        "ward": "MGBIDI/MMAKU",
        "lga": "AWGU",
        "state": "ENUGU"
      }
    },
    {
      "type": "Feature",
      "geometry": {
        "type": "Point",
        "coordinates": [
          7.4790901,
          6.0780322
        ]
      },
      "properties": {
        "name": "VILLAGE SQUARE EBA IBITE",
        "ward": "MGBIDI/MMAKU",
        "lga": "AWGU",
        "state": "ENUGU"
      }
    },
    {
      "type": "Feature",
      "geometry": {
        "type": "Point",
        "coordinates": [
          7.465182799999999,
          6.1167206
        ]
      },
      "properties": {
        "name": "CENTRAL SQUARE EZIOHA",
        "ward": "MGBIDI/MMAKU",
        "lga": "AWGU",
        "state": "ENUGU"
      }
    },
    {
      "type": "Feature",
      "geometry": {
        "type": "Point",
        "coordinates": [
          7.4790901,
          6.0780322
        ]
      },
      "properties": {
        "name": "ORJI OBODO SQUARE I",
        "ward": "MGBIDI/MMAKU",
        "lga": "AWGU",
        "state": "ENUGU"
      }
    },
    {
      "type": "Feature",
      "geometry": {
        "type": "Point",
        "coordinates": [
          7.4790901,
          6.0780322
        ]
      },
      "properties": {
        "name": "OPPOSHI MARKET SQUARE I",
        "ward": "MGBIDI/MMAKU",
        "lga": "AWGU",
        "state": "ENUGU"
      }
    },
    {
      "type": "Feature",
      "geometry": {
        "type": "Point",
        "coordinates": [
          7.4790901,
          6.0780322
        ]
      },
      "properties": {
        "name": "OPPOSHI MARKET SQUARE II",
        "ward": "MGBIDI/MMAKU",
        "lga": "AWGU",
        "state": "ENUGU"
      }
    },
    {
      "type": "Feature",
      "geometry": {
        "type": "Point",
        "coordinates": [
          7.4532148,
          6.1158152
        ]
      },
      "properties": {
        "name": "COMM. SCHOOL ENUGU MMAKU",
        "ward": "MGBIDI/MMAKU",
        "lga": "AWGU",
        "state": "ENUGU"
      }
    },
    {
      "type": "Feature",
      "geometry": {
        "type": "Point",
        "coordinates": [
          7.4790901,
          6.0780322
        ]
      },
      "properties": {
        "name": "OBODO ORJI SQUARE IBITE II",
        "ward": "MGBIDI/MMAKU",
        "lga": "AWGU",
        "state": "ENUGU"
      }
    },
    {
      "type": "Feature",
      "geometry": {
        "type": "Point",
        "coordinates": [
          7.4790901,
          6.0780322
        ]
      },
      "properties": {
        "name": "OKWULOHIA VILLAGE SQUARE IFITE",
        "ward": "MGBIDI/MMAKU",
        "lga": "AWGU",
        "state": "ENUGU"
      }
    },
    {
      "type": "Feature",
      "geometry": {
        "type": "Point",
        "coordinates": [
          7.4790901,
          6.0780322
        ]
      },
      "properties": {
        "name": "AKPUOBIA VILLAGE SQUARE",
        "ward": "MGBIDI/MMAKU",
        "lga": "AWGU",
        "state": "ENUGU"
      }
    },
    {
      "type": "Feature",
      "geometry": {
        "type": "Point",
        "coordinates": [
          7.465182799999999,
          6.1167206
        ]
      },
      "properties": {
        "name": "NVUJA VILLAGE SQUARE",
        "ward": "MGBIDI/MMAKU",
        "lga": "AWGU",
        "state": "ENUGU"
      }
    },
    {
      "type": "Feature",
      "geometry": {
        "type": "Point",
        "coordinates": [
          7.4532148,
          6.1158152
        ]
      },
      "properties": {
        "name": "COMM. SEC. SCH. MGBIDI II",
        "ward": "MGBIDI/MMAKU",
        "lga": "AWGU",
        "state": "ENUGU"
      }
    },
    {
      "type": "Feature",
      "geometry": {
        "type": "Point",
        "coordinates": [
          7.465182799999999,
          6.1167206
        ]
      },
      "properties": {
        "name": "AGBONELI VILLAGE SQUARE MMAKU",
        "ward": "MGBIDI/MMAKU",
        "lga": "AWGU",
        "state": "ENUGU"
      }
    },
    {
      "type": "Feature",
      "geometry": {
        "type": "Point",
        "coordinates": [
          7.4543626,
          6.1168707
        ]
      },
      "properties": {
        "name": "OBODOUBE VILLAGE SQUARE MMAKU",
        "ward": "MGBIDI/MMAKU",
        "lga": "AWGU",
        "state": "ENUGU"
      }
    },
    {
      "type": "Feature",
      "geometry": {
        "type": "Point",
        "coordinates": [
          7.465182799999999,
          6.1167206
        ]
      },
      "properties": {
        "name": "UHUOGBEUGWU VILLAGE SQUARE MMAKU",
        "ward": "MGBIDI/MMAKU",
        "lga": "AWGU",
        "state": "ENUGU"
      }
    },
    {
      "type": "Feature",
      "geometry": {
        "type": "Point",
        "coordinates": [
          7.4543626,
          6.1168707
        ]
      },
      "properties": {
        "name": "UHUOYEAGBO VILLAGE SQUARE MMAKU",
        "ward": "MGBIDI/MMAKU",
        "lga": "AWGU",
        "state": "ENUGU"
      }
    },
    {
      "type": "Feature",
      "geometry": {
        "type": "Point",
        "coordinates": [
          7.4532148,
          6.1158152
        ]
      },
      "properties": {
        "name": "CENTRAL SCHOOL EZIOHA, MMAKU",
        "ward": "MGBIDI/MMAKU",
        "lga": "AWGU",
        "state": "ENUGU"
      }
    },
    {
      "type": "Feature",
      "geometry": {
        "type": "Point",
        "coordinates": [
          7.462669000000001,
          6.1138058
        ]
      },
      "properties": {
        "name": "UNO OLU IFITE MMAKU BUS STOP",
        "ward": "MGBIDI/MMAKU",
        "lga": "AWGU",
        "state": "ENUGU"
      }
    },
    {
      "type": "Feature",
      "geometry": {
        "type": "Point",
        "coordinates": [
          7.4543626,
          6.1168707
        ]
      },
      "properties": {
        "name": "UMUAKPU VILLAGE HALL OTOKWU MMAKU",
        "ward": "MGBIDI/MMAKU",
        "lga": "AWGU",
        "state": "ENUGU"
      }
    },
    {
      "type": "Feature",
      "geometry": {
        "type": "Point",
        "coordinates": [
          7.478159699999999,
          6.0822122
        ]
      },
      "properties": {
        "name": "HEALTH CENTRE EZERE I",
        "ward": "ANIKENANO/UGWUEME",
        "lga": "AWGU",
        "state": "ENUGU"
      }
    },
    {
      "type": "Feature",
      "geometry": {
        "type": "Point",
        "coordinates": [
          7.478159699999999,
          6.0822122
        ]
      },
      "properties": {
        "name": "HEALTH CENTRE EZERE II",
        "ward": "ANIKENANO/UGWUEME",
        "lga": "AWGU",
        "state": "ENUGU"
      }
    },
    {
      "type": "Feature",
      "geometry": {
        "type": "Point",
        "coordinates": [
          7.4381196,
          6.0240874
        ]
      },
      "properties": {
        "name": "COMM. SCHOOL  EZERE",
        "ward": "ANIKENANO/UGWUEME",
        "lga": "AWGU",
        "state": "ENUGU"
      }
    },
    {
      "type": "Feature",
      "geometry": {
        "type": "Point",
        "coordinates": [
          7.4254703,
          6.0773573
        ]
      },
      "properties": {
        "name": "CENTRAL. SCHOOL  NKWE I",
        "ward": "ANIKENANO/UGWUEME",
        "lga": "AWGU",
        "state": "ENUGU"
      }
    },
    {
      "type": "Feature",
      "geometry": {
        "type": "Point",
        "coordinates": [
          7.4165053,
          6.0805827
        ]
      },
      "properties": {
        "name": "NKWE SQUARE",
        "ward": "ANIKENANO/UGWUEME",
        "lga": "AWGU",
        "state": "ENUGU"
      }
    },
    {
      "type": "Feature",
      "geometry": {
        "type": "Point",
        "coordinates": [
          7.4165053,
          6.0805827
        ]
      },
      "properties": {
        "name": "NKWE TOWN HALL",
        "ward": "ANIKENANO/UGWUEME",
        "lga": "AWGU",
        "state": "ENUGU"
      }
    },
    {
      "type": "Feature",
      "geometry": {
        "type": "Point",
        "coordinates": [
          7.476073499999999,
          6.064004199999999
        ]
      },
      "properties": {
        "name": "CENTRAL SCHOOL AWGUNTA",
        "ward": "ANIKENANO/UGWUEME",
        "lga": "AWGU",
        "state": "ENUGU"
      }
    },
    {
      "type": "Feature",
      "geometry": {
        "type": "Point",
        "coordinates": [
          7.4165053,
          6.0805827
        ]
      },
      "properties": {
        "name": "NKWO OBODO AWGUNTA",
        "ward": "ANIKENANO/UGWUEME",
        "lga": "AWGU",
        "state": "ENUGU"
      }
    },
    {
      "type": "Feature",
      "geometry": {
        "type": "Point",
        "coordinates": [
          7.442290400000001,
          6.0556272
        ]
      },
      "properties": {
        "name": "CENTRAL SCHOOL NENWENTA",
        "ward": "ANIKENANO/UGWUEME",
        "lga": "AWGU",
        "state": "ENUGU"
      }
    },
    {
      "type": "Feature",
      "geometry": {
        "type": "Point",
        "coordinates": [
          7.4165053,
          6.0805827
        ]
      },
      "properties": {
        "name": "NENWENTA TOWN HALL",
        "ward": "ANIKENANO/UGWUEME",
        "lga": "AWGU",
        "state": "ENUGU"
      }
    },
    {
      "type": "Feature",
      "geometry": {
        "type": "Point",
        "coordinates": [
          7.4381196,
          6.0240874
        ]
      },
      "properties": {
        "name": "COMM. SCHOOL UGWUEME I",
        "ward": "ANIKENANO/UGWUEME",
        "lga": "AWGU",
        "state": "ENUGU"
      }
    },
    {
      "type": "Feature",
      "geometry": {
        "type": "Point",
        "coordinates": [
          7.4381196,
          6.0240874
        ]
      },
      "properties": {
        "name": "CENTRAL SCHOOL UGWUEME I",
        "ward": "ANIKENANO/UGWUEME",
        "lga": "AWGU",
        "state": "ENUGU"
      }
    },
    {
      "type": "Feature",
      "geometry": {
        "type": "Point",
        "coordinates": [
          7.4381196,
          6.0240874
        ]
      },
      "properties": {
        "name": "CENTRAL SCHOOL UGWUEME II",
        "ward": "ANIKENANO/UGWUEME",
        "lga": "AWGU",
        "state": "ENUGU"
      }
    },
    {
      "type": "Feature",
      "geometry": {
        "type": "Point",
        "coordinates": [
          7.478599999999999,
          6.0755
        ]
      },
      "properties": {
        "name": "HEALTH POST UGWUEME",
        "ward": "ANIKENANO/UGWUEME",
        "lga": "AWGU",
        "state": "ENUGU"
      }
    },
    {
      "type": "Feature",
      "geometry": {
        "type": "Point",
        "coordinates": [
          7.4165053,
          6.0805827
        ]
      },
      "properties": {
        "name": "IHITE VILLAGE SQUARE",
        "ward": "ANIKENANO/UGWUEME",
        "lga": "AWGU",
        "state": "ENUGU"
      }
    },
    {
      "type": "Feature",
      "geometry": {
        "type": "Point",
        "coordinates": [
          7.4749979,
          6.0841278
        ]
      },
      "properties": {
        "name": "POSTAL AGENCY UGWUEME",
        "ward": "ANIKENANO/UGWUEME",
        "lga": "AWGU",
        "state": "ENUGU"
      }
    },
    {
      "type": "Feature",
      "geometry": {
        "type": "Point",
        "coordinates": [
          7.4254703,
          6.0773573
        ]
      },
      "properties": {
        "name": "CENT. SCH. NKWE II",
        "ward": "ANIKENANO/UGWUEME",
        "lga": "AWGU",
        "state": "ENUGU"
      }
    },
    {
      "type": "Feature",
      "geometry": {
        "type": "Point",
        "coordinates": [
          7.4381196,
          6.0240874
        ]
      },
      "properties": {
        "name": "COMM. SCH. UGWUEME II",
        "ward": "ANIKENANO/UGWUEME",
        "lga": "AWGU",
        "state": "ENUGU"
      }
    },
    {
      "type": "Feature",
      "geometry": {
        "type": "Point",
        "coordinates": [
          7.475608599999998,
          6.0823279
        ]
      },
      "properties": {
        "name": "OBODO IKORO SQUARE",
        "ward": "MGBOWO",
        "lga": "AWGU",
        "state": "ENUGU"
      }
    },
    {
      "type": "Feature",
      "geometry": {
        "type": "Point",
        "coordinates": [
          7.458419999999999,
          6.128650299999999
        ]
      },
      "properties": {
        "name": "COMM. SCHOOL EZIOHA I",
        "ward": "MGBOWO",
        "lga": "AWGU",
        "state": "ENUGU"
      }
    },
    {
      "type": "Feature",
      "geometry": {
        "type": "Point",
        "coordinates": [
          7.522961599999999,
          6.117408999999999
        ]
      },
      "properties": {
        "name": "COMM. SCHOOL EZIOHA II",
        "ward": "MGBOWO",
        "lga": "AWGU",
        "state": "ENUGU"
      }
    },
    {
      "type": "Feature",
      "geometry": {
        "type": "Point",
        "coordinates": [
          7.476073499999999,
          6.064004199999999
        ]
      },
      "properties": {
        "name": "CENTRAL. SCHOOL IMAMA I",
        "ward": "MGBOWO",
        "lga": "AWGU",
        "state": "ENUGU"
      }
    },
    {
      "type": "Feature",
      "geometry": {
        "type": "Point",
        "coordinates": [
          7.476073499999999,
          6.064004199999999
        ]
      },
      "properties": {
        "name": "CENTRAL. SCHOOL EXTENSION",
        "ward": "MGBOWO",
        "lga": "AWGU",
        "state": "ENUGU"
      }
    },
    {
      "type": "Feature",
      "geometry": {
        "type": "Point",
        "coordinates": [
          7.4978417,
          6.117992999999999
        ]
      },
      "properties": {
        "name": "COMM. SCHOOL AMATA I",
        "ward": "MGBOWO",
        "lga": "AWGU",
        "state": "ENUGU"
      }
    },
    {
      "type": "Feature",
      "geometry": {
        "type": "Point",
        "coordinates": [
          7.4978417,
          6.117992999999999
        ]
      },
      "properties": {
        "name": "COMM. SCHOOL AMATA II",
        "ward": "MGBOWO",
        "lga": "AWGU",
        "state": "ENUGU"
      }
    },
    {
      "type": "Feature",
      "geometry": {
        "type": "Point",
        "coordinates": [
          7.510677400000001,
          6.1091007
        ]
      },
      "properties": {
        "name": "TOWN. SCHOOL AMATA I",
        "ward": "MGBOWO",
        "lga": "AWGU",
        "state": "ENUGU"
      }
    },
    {
      "type": "Feature",
      "geometry": {
        "type": "Point",
        "coordinates": [
          7.510677400000001,
          6.1091007
        ]
      },
      "properties": {
        "name": "TOWN. SCHOOL AMATA II",
        "ward": "MGBOWO",
        "lga": "AWGU",
        "state": "ENUGU"
      }
    },
    {
      "type": "Feature",
      "geometry": {
        "type": "Point",
        "coordinates": [
          7.4978417,
          6.117992999999999
        ]
      },
      "properties": {
        "name": "COMM. SCHOOL EZIOBODO I",
        "ward": "MGBOWO",
        "lga": "AWGU",
        "state": "ENUGU"
      }
    },
    {
      "type": "Feature",
      "geometry": {
        "type": "Point",
        "coordinates": [
          7.4978417,
          6.117992999999999
        ]
      },
      "properties": {
        "name": "COMM. SCHOOL EZIOBODO II",
        "ward": "MGBOWO",
        "lga": "AWGU",
        "state": "ENUGU"
      }
    },
    {
      "type": "Feature",
      "geometry": {
        "type": "Point",
        "coordinates": [
          7.4978417,
          6.117992999999999
        ]
      },
      "properties": {
        "name": "NGELEATOR PRIMARY SCHOOL",
        "ward": "MGBOWO",
        "lga": "AWGU",
        "state": "ENUGU"
      }
    },
    {
      "type": "Feature",
      "geometry": {
        "type": "Point",
        "coordinates": [
          7.4894053,
          6.1229755
        ]
      },
      "properties": {
        "name": "COMM.  PRIMARY SCHOOL, INYI",
        "ward": "MGBOWO",
        "lga": "AWGU",
        "state": "ENUGU"
      }
    },
    {
      "type": "Feature",
      "geometry": {
        "type": "Point",
        "coordinates": [
          7.4878632,
          6.121483
        ]
      },
      "properties": {
        "name": "OBUSHI INYI TOWN HALL",
        "ward": "MGBOWO",
        "lga": "AWGU",
        "state": "ENUGU"
      }
    },
    {
      "type": "Feature",
      "geometry": {
        "type": "Point",
        "coordinates": [
          7.4790901,
          6.0780322
        ]
      },
      "properties": {
        "name": "COOPERATIVE HALL OGBETA",
        "ward": "MGBOWO",
        "lga": "AWGU",
        "state": "ENUGU"
      }
    },
    {
      "type": "Feature",
      "geometry": {
        "type": "Point",
        "coordinates": [
          7.511456600000001,
          6.1104349
        ]
      },
      "properties": {
        "name": "BOYS' SECONDARY SCHOOL MGBOWO",
        "ward": "MGBOWO",
        "lga": "AWGU",
        "state": "ENUGU"
      }
    },
    {
      "type": "Feature",
      "geometry": {
        "type": "Point",
        "coordinates": [
          7.522961599999999,
          6.117408999999999
        ]
      },
      "properties": {
        "name": "CENT. SCH. IMAMA II",
        "ward": "MGBOWO",
        "lga": "AWGU",
        "state": "ENUGU"
      }
    },
    {
      "type": "Feature",
      "geometry": {
        "type": "Point",
        "coordinates": [
          7.4790901,
          6.0780322
        ]
      },
      "properties": {
        "name": "COOPERATIVE HALL OGBETA II",
        "ward": "MGBOWO",
        "lga": "AWGU",
        "state": "ENUGU"
      }
    },
    {
      "type": "Feature",
      "geometry": {
        "type": "Point",
        "coordinates": [
          7.48649,
          6.1082069
        ]
      },
      "properties": {
        "name": "NDIAGU IMAMA SQUARE",
        "ward": "MGBOWO",
        "lga": "AWGU",
        "state": "ENUGU"
      }
    },
    {
      "type": "Feature",
      "geometry": {
        "type": "Point",
        "coordinates": [
          7.48649,
          6.1082069
        ]
      },
      "properties": {
        "name": "OBODO NDI ULO MGBOWO",
        "ward": "MGBOWO",
        "lga": "AWGU",
        "state": "ENUGU"
      }
    },
    {
      "type": "Feature",
      "geometry": {
        "type": "Point",
        "coordinates": [
          7.4878632,
          6.121483
        ]
      },
      "properties": {
        "name": "OBODO INYI MARKET SQUARE",
        "ward": "MGBOWO",
        "lga": "AWGU",
        "state": "ENUGU"
      }
    },
    {
      "type": "Feature",
      "geometry": {
        "type": "Point",
        "coordinates": [
          7.480358900000001,
          6.0443594
        ]
      },
      "properties": {
        "name": "OBODO OGUNTU VILLAGE SQUARE",
        "ward": "MGBOWO",
        "lga": "AWGU",
        "state": "ENUGU"
      }
    },
    {
      "type": "Feature",
      "geometry": {
        "type": "Point",
        "coordinates": [
          7.427319499999999,
          6.259436699999999
        ]
      },
      "properties": {
        "name": "ENUGU ISU VILLAGE SQUARE",
        "ward": "ISU AWA/OGUGU/AGBUDU/ITUKU",
        "lga": "AWGU",
        "state": "ENUGU"
      }
    },
    {
      "type": "Feature",
      "geometry": {
        "type": "Point",
        "coordinates": [
          7.427319499999999,
          6.259436699999999
        ]
      },
      "properties": {
        "name": "OBODO ENUGU ISU VILLAGE SQUARE",
        "ward": "ISU AWA/OGUGU/AGBUDU/ITUKU",
        "lga": "AWGU",
        "state": "ENUGU"
      }
    },
    {
      "type": "Feature",
      "geometry": {
        "type": "Point",
        "coordinates": [
          7.427319499999999,
          6.259436699999999
        ]
      },
      "properties": {
        "name": "UMUAMANU VILLAGE SQUARE I",
        "ward": "ISU AWA/OGUGU/AGBUDU/ITUKU",
        "lga": "AWGU",
        "state": "ENUGU"
      }
    },
    {
      "type": "Feature",
      "geometry": {
        "type": "Point",
        "coordinates": [
          7.427319499999999,
          6.259436699999999
        ]
      },
      "properties": {
        "name": "UMUAMANU VILLAGE SQUARE II",
        "ward": "ISU AWA/OGUGU/AGBUDU/ITUKU",
        "lga": "AWGU",
        "state": "ENUGU"
      }
    },
    {
      "type": "Feature",
      "geometry": {
        "type": "Point",
        "coordinates": [
          7.503123899999999,
          6.4398784
        ]
      },
      "properties": {
        "name": "CENTRAL SCHOOL HALL ISU",
        "ward": "ISU AWA/OGUGU/AGBUDU/ITUKU",
        "lga": "AWGU",
        "state": "ENUGU"
      }
    },
    {
      "type": "Feature",
      "geometry": {
        "type": "Point",
        "coordinates": [
          7.427319499999999,
          6.259436699999999
        ]
      },
      "properties": {
        "name": "EGEDU VILLAGE HALL",
        "ward": "ISU AWA/OGUGU/AGBUDU/ITUKU",
        "lga": "AWGU",
        "state": "ENUGU"
      }
    },
    {
      "type": "Feature",
      "geometry": {
        "type": "Point",
        "coordinates": [
          7.427319499999999,
          6.259436699999999
        ]
      },
      "properties": {
        "name": "UGWUNATOR VILLAGE SQUARE",
        "ward": "ISU AWA/OGUGU/AGBUDU/ITUKU",
        "lga": "AWGU",
        "state": "ENUGU"
      }
    },
    {
      "type": "Feature",
      "geometry": {
        "type": "Point",
        "coordinates": [
          7.427319499999999,
          6.259436699999999
        ]
      },
      "properties": {
        "name": "CENTRAL SCHOOL AGBUDU I",
        "ward": "ISU AWA/OGUGU/AGBUDU/ITUKU",
        "lga": "AWGU",
        "state": "ENUGU"
      }
    },
    {
      "type": "Feature",
      "geometry": {
        "type": "Point",
        "coordinates": [
          7.427319499999999,
          6.259436699999999
        ]
      },
      "properties": {
        "name": "CENTRAL SCHOOL AGBUDU II",
        "ward": "ISU AWA/OGUGU/AGBUDU/ITUKU",
        "lga": "AWGU",
        "state": "ENUGU"
      }
    },
    {
      "type": "Feature",
      "geometry": {
        "type": "Point",
        "coordinates": [
          7.427319499999999,
          6.259436699999999
        ]
      },
      "properties": {
        "name": "ST. LUKE'S SQUARE",
        "ward": "ISU AWA/OGUGU/AGBUDU/ITUKU",
        "lga": "AWGU",
        "state": "ENUGU"
      }
    },
    {
      "type": "Feature",
      "geometry": {
        "type": "Point",
        "coordinates": [
          7.427319499999999,
          6.259436699999999
        ]
      },
      "properties": {
        "name": "ENUGU AGBUDU MARKET SQUARE",
        "ward": "ISU AWA/OGUGU/AGBUDU/ITUKU",
        "lga": "AWGU",
        "state": "ENUGU"
      }
    },
    {
      "type": "Feature",
      "geometry": {
        "type": "Point",
        "coordinates": [
          7.427319499999999,
          6.259436699999999
        ]
      },
      "properties": {
        "name": "OBODO UMUONYE AGBUDU I",
        "ward": "ISU AWA/OGUGU/AGBUDU/ITUKU",
        "lga": "AWGU",
        "state": "ENUGU"
      }
    },
    {
      "type": "Feature",
      "geometry": {
        "type": "Point",
        "coordinates": [
          7.4549602,
          6.288835199999999
        ]
      },
      "properties": {
        "name": "CENTRAL SCHOOL ITUKU",
        "ward": "ISU AWA/OGUGU/AGBUDU/ITUKU",
        "lga": "AWGU",
        "state": "ENUGU"
      }
    },
    {
      "type": "Feature",
      "geometry": {
        "type": "Point",
        "coordinates": [
          7.427319499999999,
          6.259436699999999
        ]
      },
      "properties": {
        "name": "UMUONWO SQUARE",
        "ward": "ISU AWA/OGUGU/AGBUDU/ITUKU",
        "lga": "AWGU",
        "state": "ENUGU"
      }
    },
    {
      "type": "Feature",
      "geometry": {
        "type": "Point",
        "coordinates": [
          7.456676499999999,
          6.282000999999999
        ]
      },
      "properties": {
        "name": "COMM. SEC. SCHOOL ITUKU",
        "ward": "ISU AWA/OGUGU/AGBUDU/ITUKU",
        "lga": "AWGU",
        "state": "ENUGU"
      }
    },
    {
      "type": "Feature",
      "geometry": {
        "type": "Point",
        "coordinates": [
          7.427319499999999,
          6.259436699999999
        ]
      },
      "properties": {
        "name": "OFEIYI SQUARE",
        "ward": "ISU AWA/OGUGU/AGBUDU/ITUKU",
        "lga": "AWGU",
        "state": "ENUGU"
      }
    },
    {
      "type": "Feature",
      "geometry": {
        "type": "Point",
        "coordinates": [
          7.427319499999999,
          6.259436699999999
        ]
      },
      "properties": {
        "name": "AFOIKE UMUONYIBA",
        "ward": "ISU AWA/OGUGU/AGBUDU/ITUKU",
        "lga": "AWGU",
        "state": "ENUGU"
      }
    },
    {
      "type": "Feature",
      "geometry": {
        "type": "Point",
        "coordinates": [
          7.427319499999999,
          6.259436699999999
        ]
      },
      "properties": {
        "name": "OKWENACHALA VILLAGE SQUARE",
        "ward": "ISU AWA/OGUGU/AGBUDU/ITUKU",
        "lga": "AWGU",
        "state": "ENUGU"
      }
    },
    {
      "type": "Feature",
      "geometry": {
        "type": "Point",
        "coordinates": [
          7.427319499999999,
          6.259436699999999
        ]
      },
      "properties": {
        "name": "UGBO ASHA VILLAGE SQUARE I",
        "ward": "ISU AWA/OGUGU/AGBUDU/ITUKU",
        "lga": "AWGU",
        "state": "ENUGU"
      }
    },
    {
      "type": "Feature",
      "geometry": {
        "type": "Point",
        "coordinates": [
          7.427319499999999,
          6.259436699999999
        ]
      },
      "properties": {
        "name": "UMUAMANU VILLAGE SQUARE III",
        "ward": "ISU AWA/OGUGU/AGBUDU/ITUKU",
        "lga": "AWGU",
        "state": "ENUGU"
      }
    },
    {
      "type": "Feature",
      "geometry": {
        "type": "Point",
        "coordinates": [
          7.427319499999999,
          6.259436699999999
        ]
      },
      "properties": {
        "name": "OBODO UMUONYE AGBUDU II",
        "ward": "ISU AWA/OGUGU/AGBUDU/ITUKU",
        "lga": "AWGU",
        "state": "ENUGU"
      }
    },
    {
      "type": "Feature",
      "geometry": {
        "type": "Point",
        "coordinates": [
          7.427319499999999,
          6.259436699999999
        ]
      },
      "properties": {
        "name": "UGBO ASHA VILLAGE SQUARE",
        "ward": "ISU AWA/OGUGU/AGBUDU/ITUKU",
        "lga": "AWGU",
        "state": "ENUGU"
      }
    },
    {
      "type": "Feature",
      "geometry": {
        "type": "Point",
        "coordinates": [
          7.427319499999999,
          6.259436699999999
        ]
      },
      "properties": {
        "name": "ONUEZI VILLAGE SQUARE UGWUAGBO ITUKU",
        "ward": "ISU AWA/OGUGU/AGBUDU/ITUKU",
        "lga": "AWGU",
        "state": "ENUGU"
      }
    },
    {
      "type": "Feature",
      "geometry": {
        "type": "Point",
        "coordinates": [
          7.427319499999999,
          6.259436699999999
        ]
      },
      "properties": {
        "name": "OBODO AKPAKA VILLAGE SQUARE",
        "ward": "ISU AWA/OGUGU/AGBUDU/ITUKU",
        "lga": "AWGU",
        "state": "ENUGU"
      }
    },
    {
      "type": "Feature",
      "geometry": {
        "type": "Point",
        "coordinates": [
          7.427319499999999,
          6.259436699999999
        ]
      },
      "properties": {
        "name": "UMUANEKE VILLAGE SQAURE ITUKU",
        "ward": "ISU AWA/OGUGU/AGBUDU/ITUKU",
        "lga": "AWGU",
        "state": "ENUGU"
      }
    },
    {
      "type": "Feature",
      "geometry": {
        "type": "Point",
        "coordinates": [
          7.668398700000001,
          6.306746500000001
        ]
      },
      "properties": {
        "name": "AMA UKUFU PRIMARY SCHOOL",
        "ward": "UGBAWKA I",
        "lga": "NKANU EAST",
        "state": "ENUGU"
      }
    },
    {
      "type": "Feature",
      "geometry": {
        "type": "Point",
        "coordinates": [
          7.5788975,
          6.215122399999999
        ]
      },
      "properties": {
        "name": "AMANAKWEJI VILLAGE SQUARE",
        "ward": "UGBAWKA I",
        "lga": "NKANU EAST",
        "state": "ENUGU"
      }
    },
    {
      "type": "Feature",
      "geometry": {
        "type": "Point",
        "coordinates": [
          7.5788975,
          6.215122399999999
        ]
      },
      "properties": {
        "name": "C.S. AMAGU",
        "ward": "UGBAWKA I",
        "lga": "NKANU EAST",
        "state": "ENUGU"
      }
    },
    {
      "type": "Feature",
      "geometry": {
        "type": "Point",
        "coordinates": [
          7.5788975,
          6.215122399999999
        ]
      },
      "properties": {
        "name": "C.S. OBEAGU",
        "ward": "UGBAWKA I",
        "lga": "NKANU EAST",
        "state": "ENUGU"
      }
    },
    {
      "type": "Feature",
      "geometry": {
        "type": "Point",
        "coordinates": [
          7.476004700000001,
          6.3906848
        ]
      },
      "properties": {
        "name": "C.S.S. UGBAWKA",
        "ward": "UGBAWKA I",
        "lga": "NKANU EAST",
        "state": "ENUGU"
      }
    },
    {
      "type": "Feature",
      "geometry": {
        "type": "Point",
        "coordinates": [
          7.5788975,
          6.215122399999999
        ]
      },
      "properties": {
        "name": "OBODO OGWE UMUNEVO",
        "ward": "UGBAWKA I",
        "lga": "NKANU EAST",
        "state": "ENUGU"
      }
    },
    {
      "type": "Feature",
      "geometry": {
        "type": "Point",
        "coordinates": [
          7.415956599999999,
          6.4297279
        ]
      },
      "properties": {
        "name": "AMANKWO  PRIMARY SCHOOL",
        "ward": "UGBAWKA I",
        "lga": "NKANU EAST",
        "state": "ENUGU"
      }
    },
    {
      "type": "Feature",
      "geometry": {
        "type": "Point",
        "coordinates": [
          7.5788975,
          6.215122399999999
        ]
      },
      "properties": {
        "name": "C.S. UHUOME I",
        "ward": "UGBAWKA I",
        "lga": "NKANU EAST",
        "state": "ENUGU"
      }
    },
    {
      "type": "Feature",
      "geometry": {
        "type": "Point",
        "coordinates": [
          7.5788975,
          6.215122399999999
        ]
      },
      "properties": {
        "name": "ISHIENU TOWN HALL",
        "ward": "UGBAWKA I",
        "lga": "NKANU EAST",
        "state": "ENUGU"
      }
    },
    {
      "type": "Feature",
      "geometry": {
        "type": "Point",
        "coordinates": [
          7.4934248,
          6.4434486
        ]
      },
      "properties": {
        "name": "RAILWAY STATION",
        "ward": "UGBAWKA I",
        "lga": "NKANU EAST",
        "state": "ENUGU"
      }
    },
    {
      "type": "Feature",
      "geometry": {
        "type": "Point",
        "coordinates": [
          7.654811,
          6.3088938
        ]
      },
      "properties": {
        "name": "OBODO EZEOHA SQUARE UMUISU",
        "ward": "UGBAWKA I",
        "lga": "NKANU EAST",
        "state": "ENUGU"
      }
    },
    {
      "type": "Feature",
      "geometry": {
        "type": "Point",
        "coordinates": [
          7.612429400000001,
          6.2678698
        ]
      },
      "properties": {
        "name": "ONUKNWO VILL. SQUARE",
        "ward": "UGBAWKA I",
        "lga": "NKANU EAST",
        "state": "ENUGU"
      }
    },
    {
      "type": "Feature",
      "geometry": {
        "type": "Point",
        "coordinates": [
          7.6480692,
          6.3481761
        ]
      },
      "properties": {
        "name": "OGIRI VILLAGE SQUARE",
        "ward": "UGBAWKA I",
        "lga": "NKANU EAST",
        "state": "ENUGU"
      }
    },
    {
      "type": "Feature",
      "geometry": {
        "type": "Point",
        "coordinates": [
          7.6873706,
          6.1504015
        ]
      },
      "properties": {
        "name": "NJIKOKA AMOFU",
        "ward": "NKEREFI I",
        "lga": "NKANU EAST",
        "state": "ENUGU"
      }
    },
    {
      "type": "Feature",
      "geometry": {
        "type": "Point",
        "coordinates": [
          7.2734798,
          6.2536531
        ]
      },
      "properties": {
        "name": "UDOKA PRIMARY SCHOOL AMAGU",
        "ward": "NKEREFI I",
        "lga": "NKANU EAST",
        "state": "ENUGU"
      }
    },
    {
      "type": "Feature",
      "geometry": {
        "type": "Point",
        "coordinates": [
          7.687404399999998,
          6.1505456
        ]
      },
      "properties": {
        "name": "MBANOCHA PRIMARY SCHOOL AMOFU",
        "ward": "NKEREFI I",
        "lga": "NKANU EAST",
        "state": "ENUGU"
      }
    },
    {
      "type": "Feature",
      "geometry": {
        "type": "Point",
        "coordinates": [
          7.687404399999998,
          6.1505456
        ]
      },
      "properties": {
        "name": "COMMUNITY SCHOOL AMAGU",
        "ward": "NKEREFI I",
        "lga": "NKANU EAST",
        "state": "ENUGU"
      }
    },
    {
      "type": "Feature",
      "geometry": {
        "type": "Point",
        "coordinates": [
          7.668398700000001,
          6.306746500000001
        ]
      },
      "properties": {
        "name": "UNION PRIMARY SCHOOL UMUIGBO",
        "ward": "NKEREFI I",
        "lga": "NKANU EAST",
        "state": "ENUGU"
      }
    },
    {
      "type": "Feature",
      "geometry": {
        "type": "Point",
        "coordinates": [
          7.687404399999998,
          6.1505456
        ]
      },
      "properties": {
        "name": "AMOFU PRIMARY SCHOOL",
        "ward": "NKEREFI I",
        "lga": "NKANU EAST",
        "state": "ENUGU"
      }
    },
    {
      "type": "Feature",
      "geometry": {
        "type": "Point",
        "coordinates": [
          7.5507483,
          6.446461299999999
        ]
      },
      "properties": {
        "name": "OMEIHE JIDEOFOR TOWN HALL",
        "ward": "NKEREFI I",
        "lga": "NKANU EAST",
        "state": "ENUGU"
      }
    },
    {
      "type": "Feature",
      "geometry": {
        "type": "Point",
        "coordinates": [
          7.692804099999999,
          6.1434609
        ]
      },
      "properties": {
        "name": "MODEL SEC. SCH NKEREFI",
        "ward": "NKEREFI I",
        "lga": "NKANU EAST",
        "state": "ENUGU"
      }
    },
    {
      "type": "Feature",
      "geometry": {
        "type": "Point",
        "coordinates": [
          7.692804099999999,
          6.1434609
        ]
      },
      "properties": {
        "name": "CENTRAL SCHOOL NKEREFI",
        "ward": "NKEREFI I",
        "lga": "NKANU EAST",
        "state": "ENUGU"
      }
    },
    {
      "type": "Feature",
      "geometry": {
        "type": "Point",
        "coordinates": [
          7.6873706,
          6.1504015
        ]
      },
      "properties": {
        "name": "UMUEZEOCHIE NDIUNO",
        "ward": "NKEREFI I",
        "lga": "NKANU EAST",
        "state": "ENUGU"
      }
    },
    {
      "type": "Feature",
      "geometry": {
        "type": "Point",
        "coordinates": [
          7.5951577,
          6.3150413
        ]
      },
      "properties": {
        "name": "C./S. AMINYI",
        "ward": "OHUANI/ONICHA-AGU",
        "lga": "NKANU EAST",
        "state": "ENUGU"
      }
    },
    {
      "type": "Feature",
      "geometry": {
        "type": "Point",
        "coordinates": [
          7.6087108,
          6.333309799999999
        ]
      },
      "properties": {
        "name": "C.S. UMUNEVO",
        "ward": "OHUANI/ONICHA-AGU",
        "lga": "NKANU EAST",
        "state": "ENUGU"
      }
    },
    {
      "type": "Feature",
      "geometry": {
        "type": "Point",
        "coordinates": [
          7.5951577,
          6.3150413
        ]
      },
      "properties": {
        "name": "NDIAGU OGBO TOWN HALL I",
        "ward": "OHUANI/ONICHA-AGU",
        "lga": "NKANU EAST",
        "state": "ENUGU"
      }
    },
    {
      "type": "Feature",
      "geometry": {
        "type": "Point",
        "coordinates": [
          7.5951577,
          6.3150413
        ]
      },
      "properties": {
        "name": "C.S. I ONICHAGU",
        "ward": "OHUANI/ONICHA-AGU",
        "lga": "NKANU EAST",
        "state": "ENUGU"
      }
    },
    {
      "type": "Feature",
      "geometry": {
        "type": "Point",
        "coordinates": [
          7.5951577,
          6.3150413
        ]
      },
      "properties": {
        "name": "C.S. II ONICHAGU",
        "ward": "OHUANI/ONICHA-AGU",
        "lga": "NKANU EAST",
        "state": "ENUGU"
      }
    },
    {
      "type": "Feature",
      "geometry": {
        "type": "Point",
        "coordinates": [
          7.6900126,
          6.3341663
        ]
      },
      "properties": {
        "name": "C.S.S. AMAGUNZE",
        "ward": "OHUANI/ONICHA-AGU",
        "lga": "NKANU EAST",
        "state": "ENUGU"
      }
    },
    {
      "type": "Feature",
      "geometry": {
        "type": "Point",
        "coordinates": [
          7.5951577,
          6.3150413
        ]
      },
      "properties": {
        "name": "OKEANI TOWN HALL",
        "ward": "OHUANI/ONICHA-AGU",
        "lga": "NKANU EAST",
        "state": "ENUGU"
      }
    },
    {
      "type": "Feature",
      "geometry": {
        "type": "Point",
        "coordinates": [
          7.6087108,
          6.333309799999999
        ]
      },
      "properties": {
        "name": "NDI AGU OGBO TOWN HALL II",
        "ward": "OHUANI/ONICHA-AGU",
        "lga": "NKANU EAST",
        "state": "ENUGU"
      }
    },
    {
      "type": "Feature",
      "geometry": {
        "type": "Point",
        "coordinates": [
          7.6480692,
          6.3481761
        ]
      },
      "properties": {
        "name": "AMUZAM VILLAGE SQUARE",
        "ward": "OHUANI/ONICHA-AGU",
        "lga": "NKANU EAST",
        "state": "ENUGU"
      }
    },
    {
      "type": "Feature",
      "geometry": {
        "type": "Point",
        "coordinates": [
          7.612429400000001,
          6.2678698
        ]
      },
      "properties": {
        "name": "AKPAKA VILLAGE SQUARE",
        "ward": "OHUANI/ONICHA-AGU",
        "lga": "NKANU EAST",
        "state": "ENUGU"
      }
    },
    {
      "type": "Feature",
      "geometry": {
        "type": "Point",
        "coordinates": [
          7.5843171,
          6.3785384
        ]
      },
      "properties": {
        "name": "C.S. ONICHA AGU III",
        "ward": "OHUANI/ONICHA-AGU",
        "lga": "NKANU EAST",
        "state": "ENUGU"
      }
    },
    {
      "type": "Feature",
      "geometry": {
        "type": "Point",
        "coordinates": [
          7.696461299999999,
          6.3238661
        ]
      },
      "properties": {
        "name": "AGUIDUMA PRI. SCH",
        "ward": "OHUANI/ONICHA-AGU",
        "lga": "NKANU EAST",
        "state": "ENUGU"
      }
    },
    {
      "type": "Feature",
      "geometry": {
        "type": "Point",
        "coordinates": [
          7.612429400000001,
          6.2678698
        ]
      },
      "properties": {
        "name": "ONUEKE VILL. SQU.",
        "ward": "OHUANI/ONICHA-AGU",
        "lga": "NKANU EAST",
        "state": "ENUGU"
      }
    },
    {
      "type": "Feature",
      "geometry": {
        "type": "Point",
        "coordinates": [
          7.5951577,
          6.3150413
        ]
      },
      "properties": {
        "name": "BUGA VILL. SQUARE",
        "ward": "OHUANI/ONICHA-AGU",
        "lga": "NKANU EAST",
        "state": "ENUGU"
      }
    },
    {
      "type": "Feature",
      "geometry": {
        "type": "Point",
        "coordinates": [
          7.6873706,
          6.5514872
        ]
      },
      "properties": {
        "name": "C.S. OGBAHU I",
        "ward": "AMANKANU/OGBAHU",
        "lga": "NKANU EAST",
        "state": "ENUGU"
      }
    },
    {
      "type": "Feature",
      "geometry": {
        "type": "Point",
        "coordinates": [
          7.4988103,
          6.4466155
        ]
      },
      "properties": {
        "name": "U.P.S. ODOBIDO UGBAHU",
        "ward": "AMANKANU/OGBAHU",
        "lga": "NKANU EAST",
        "state": "ENUGU"
      }
    },
    {
      "type": "Feature",
      "geometry": {
        "type": "Point",
        "coordinates": [
          7.691125199999999,
          6.598013
        ]
      },
      "properties": {
        "name": "UNION SCHOOL AMANKANU I",
        "ward": "AMANKANU/OGBAHU",
        "lga": "NKANU EAST",
        "state": "ENUGU"
      }
    },
    {
      "type": "Feature",
      "geometry": {
        "type": "Point",
        "coordinates": [
          7.691125199999999,
          6.598013
        ]
      },
      "properties": {
        "name": "UNION SCHOOL AMANKANU II",
        "ward": "AMANKANU/OGBAHU",
        "lga": "NKANU EAST",
        "state": "ENUGU"
      }
    },
    {
      "type": "Feature",
      "geometry": {
        "type": "Point",
        "coordinates": [
          7.6873706,
          6.5514872
        ]
      },
      "properties": {
        "name": "C.S. OGBAHU II",
        "ward": "AMANKANU/OGBAHU",
        "lga": "NKANU EAST",
        "state": "ENUGU"
      }
    },
    {
      "type": "Feature",
      "geometry": {
        "type": "Point",
        "coordinates": [
          7.6873706,
          6.5514872
        ]
      },
      "properties": {
        "name": "OGBAHU RAIL STATION",
        "ward": "AMANKANU/OGBAHU",
        "lga": "NKANU EAST",
        "state": "ENUGU"
      }
    },
    {
      "type": "Feature",
      "geometry": {
        "type": "Point",
        "coordinates": [
          7.6873706,
          6.5514872
        ]
      },
      "properties": {
        "name": "OHUAKPA VILLAGE SQUARE",
        "ward": "AMANKANU/OGBAHU",
        "lga": "NKANU EAST",
        "state": "ENUGU"
      }
    },
    {
      "type": "Feature",
      "geometry": {
        "type": "Point",
        "coordinates": [
          7.6873706,
          6.5514872
        ]
      },
      "properties": {
        "name": "EKE UBAHU VILLAGE SQUARE",
        "ward": "AMANKANU/OGBAHU",
        "lga": "NKANU EAST",
        "state": "ENUGU"
      }
    },
    {
      "type": "Feature",
      "geometry": {
        "type": "Point",
        "coordinates": [
          7.691125199999999,
          6.598013
        ]
      },
      "properties": {
        "name": "UNION SCHOOL AMANKANU III",
        "ward": "AMANKANU/OGBAHU",
        "lga": "NKANU EAST",
        "state": "ENUGU"
      }
    },
    {
      "type": "Feature",
      "geometry": {
        "type": "Point",
        "coordinates": [
          7.6873706,
          6.5514872
        ]
      },
      "properties": {
        "name": "AKPARATA TOWN HALL",
        "ward": "AMANKANU/OGBAHU",
        "lga": "NKANU EAST",
        "state": "ENUGU"
      }
    },
    {
      "type": "Feature",
      "geometry": {
        "type": "Point",
        "coordinates": [
          7.6873706,
          6.5514872
        ]
      },
      "properties": {
        "name": "OGEDE SQ NKWUBOR",
        "ward": "AMANKANU/OGBAHU",
        "lga": "NKANU EAST",
        "state": "ENUGU"
      }
    },
    {
      "type": "Feature",
      "geometry": {
        "type": "Point",
        "coordinates": [
          7.6873706,
          6.5514872
        ]
      },
      "properties": {
        "name": "AMEDE TOWN HALL",
        "ward": "AMANKANU/OGBAHU",
        "lga": "NKANU EAST",
        "state": "ENUGU"
      }
    },
    {
      "type": "Feature",
      "geometry": {
        "type": "Point",
        "coordinates": [
          7.665701,
          6.3106978
        ]
      },
      "properties": {
        "name": "NKWO MARKET SQUARE",
        "ward": "IHUOKPARA",
        "lga": "NKANU EAST",
        "state": "ENUGU"
      }
    },
    {
      "type": "Feature",
      "geometry": {
        "type": "Point",
        "coordinates": [
          7.668398700000001,
          6.306746500000001
        ]
      },
      "properties": {
        "name": "IGWEBUIKE PRIMARY SCHOOL",
        "ward": "IHUOKPARA",
        "lga": "NKANU EAST",
        "state": "ENUGU"
      }
    },
    {
      "type": "Feature",
      "geometry": {
        "type": "Point",
        "coordinates": [
          7.6480692,
          6.3481761
        ]
      },
      "properties": {
        "name": "EZI OBODO VILLAGE SQUARE",
        "ward": "IHUOKPARA",
        "lga": "NKANU EAST",
        "state": "ENUGU"
      }
    },
    {
      "type": "Feature",
      "geometry": {
        "type": "Point",
        "coordinates": [
          7.654811,
          6.3088938
        ]
      },
      "properties": {
        "name": "C.S. IHUOKPARA",
        "ward": "IHUOKPARA",
        "lga": "NKANU EAST",
        "state": "ENUGU"
      }
    },
    {
      "type": "Feature",
      "geometry": {
        "type": "Point",
        "coordinates": [
          7.654811,
          6.3088938
        ]
      },
      "properties": {
        "name": "ORIE MARKET SQUARE",
        "ward": "IHUOKPARA",
        "lga": "NKANU EAST",
        "state": "ENUGU"
      }
    },
    {
      "type": "Feature",
      "geometry": {
        "type": "Point",
        "coordinates": [
          7.654811,
          6.3088938
        ]
      },
      "properties": {
        "name": "C.S.S. IHUOKPARA",
        "ward": "IHUOKPARA",
        "lga": "NKANU EAST",
        "state": "ENUGU"
      }
    },
    {
      "type": "Feature",
      "geometry": {
        "type": "Point",
        "coordinates": [
          7.6581416,
          6.3065652
        ]
      },
      "properties": {
        "name": "OGANIRU PRIMARY SCHOOL",
        "ward": "IHUOKPARA",
        "lga": "NKANU EAST",
        "state": "ENUGU"
      }
    },
    {
      "type": "Feature",
      "geometry": {
        "type": "Point",
        "coordinates": [
          7.654811,
          6.3088938
        ]
      },
      "properties": {
        "name": "OGONWAJA VILLAGE SQUARE",
        "ward": "IHUOKPARA",
        "lga": "NKANU EAST",
        "state": "ENUGU"
      }
    },
    {
      "type": "Feature",
      "geometry": {
        "type": "Point",
        "coordinates": [
          7.654811,
          6.3088938
        ]
      },
      "properties": {
        "name": "AMAOKORO NDIBINAGU SQUARE",
        "ward": "IHUOKPARA",
        "lga": "NKANU EAST",
        "state": "ENUGU"
      }
    },
    {
      "type": "Feature",
      "geometry": {
        "type": "Point",
        "coordinates": [
          7.654811,
          6.3088938
        ]
      },
      "properties": {
        "name": "ABOSHI AMUNAKWA SQUARE",
        "ward": "IHUOKPARA",
        "lga": "NKANU EAST",
        "state": "ENUGU"
      }
    },
    {
      "type": "Feature",
      "geometry": {
        "type": "Point",
        "coordinates": [
          7.654811,
          6.3088938
        ]
      },
      "properties": {
        "name": "AFUNINYI AMANGENE SQUARE",
        "ward": "IHUOKPARA",
        "lga": "NKANU EAST",
        "state": "ENUGU"
      }
    },
    {
      "type": "Feature",
      "geometry": {
        "type": "Point",
        "coordinates": [
          7.530723099999999,
          6.4097981
        ]
      },
      "properties": {
        "name": "COMMUNITY SCHOOL NDIAGU UMUIBA",
        "ward": "NARA I",
        "lga": "NKANU EAST",
        "state": "ENUGU"
      }
    },
    {
      "type": "Feature",
      "geometry": {
        "type": "Point",
        "coordinates": [
          7.594867300000001,
          6.2730255
        ]
      },
      "properties": {
        "name": "COMMUNITY PRIMARY  SCHOOL AMAOFIA",
        "ward": "NARA I",
        "lga": "NKANU EAST",
        "state": "ENUGU"
      }
    },
    {
      "type": "Feature",
      "geometry": {
        "type": "Point",
        "coordinates": [
          7.653506500000001,
          6.2139089
        ]
      },
      "properties": {
        "name": "ONUFIA UMUIBA VILLAGE SQUARE",
        "ward": "NARA I",
        "lga": "NKANU EAST",
        "state": "ENUGU"
      }
    },
    {
      "type": "Feature",
      "geometry": {
        "type": "Point",
        "coordinates": [
          7.6374856,
          6.2241154
        ]
      },
      "properties": {
        "name": "GIRLS' SECONDARY SCHOOL, NARA",
        "ward": "NARA I",
        "lga": "NKANU EAST",
        "state": "ENUGU"
      }
    },
    {
      "type": "Feature",
      "geometry": {
        "type": "Point",
        "coordinates": [
          7.6480296,
          6.218077699999999
        ]
      },
      "properties": {
        "name": "IHUABARI AMAOFIA NARA",
        "ward": "NARA I",
        "lga": "NKANU EAST",
        "state": "ENUGU"
      }
    },
    {
      "type": "Feature",
      "geometry": {
        "type": "Point",
        "coordinates": [
          7.5237465,
          6.372100800000001
        ]
      },
      "properties": {
        "name": "AMAGU VILLAGE SQUARE",
        "ward": "NARA I",
        "lga": "NKANU EAST",
        "state": "ENUGU"
      }
    },
    {
      "type": "Feature",
      "geometry": {
        "type": "Point",
        "coordinates": [
          7.4313497,
          6.1399575
        ]
      },
      "properties": {
        "name": "PRIMARY SCHOOL OBEAGU UMUIBA",
        "ward": "NARA I",
        "lga": "NKANU EAST",
        "state": "ENUGU"
      }
    },
    {
      "type": "Feature",
      "geometry": {
        "type": "Point",
        "coordinates": [
          7.423034899999998,
          6.1522673
        ]
      },
      "properties": {
        "name": "OBEAGU OMOGBUOGBA PRIMARY SCHOOL",
        "ward": "NARA I",
        "lga": "NKANU EAST",
        "state": "ENUGU"
      }
    },
    {
      "type": "Feature",
      "geometry": {
        "type": "Point",
        "coordinates": [
          7.654811,
          6.3088938
        ]
      },
      "properties": {
        "name": "IME AMA UMU-OKPARA NGENE",
        "ward": "NARA I",
        "lga": "NKANU EAST",
        "state": "ENUGU"
      }
    },