{
  "type": "FeatureCollection",
  "features": [
    {
      "type": "Feature",
      "geometry": {
        "type": "Point",
        "coordinates": [
          9.6786894,
          12.2211616
        ]
      },
      "properties": {
        "name": "MIGA/MIGA  C/GARI",
        "ward": "MIGA",
        "lga": "MIGA",
        "state": "JIGAWA"
      }
    },
    {
      "type": "Feature",
      "geometry": {
        "type": "Point",
        "coordinates": [
          9.6786894,
          12.2211616
        ]
      },
      "properties": {
        "name": "MIGA/MIGA -  K/FADA  I",
        "ward": "MIGA",
        "lga": "MIGA",
        "state": "JIGAWA"
      }
    },
    {
      "type": "Feature",
      "geometry": {
        "type": "Point",
        "coordinates": [
          9.6786894,
          12.2211616
        ]
      },
      "properties": {
        "name": "MIGA/MIGA -  K/FADA  II",
        "ward": "MIGA",
        "lga": "MIGA",
        "state": "JIGAWA"
      }
    },
    {
      "type": "Feature",
      "geometry": {
        "type": "Point",
        "coordinates": [
          9.6786894,
          12.2211616
        ]
      },
      "properties": {
        "name": "MIGA/MIGA -  K/KUDU  I",
        "ward": "MIGA",
        "lga": "MIGA",
        "state": "JIGAWA"
      }
    },
    {
      "type": "Feature",
      "geometry": {
        "type": "Point",
        "coordinates": [
          9.6786894,
          12.2211616
        ]
      },
      "properties": {
        "name": "MIGA/MIGA -  K/KUDU II",
        "ward": "MIGA",
        "lga": "MIGA",
        "state": "JIGAWA"
      }
    },
    {
      "type": "Feature",
      "geometry": {
        "type": "Point",
        "coordinates": [
          11.0454842,
          11.6688802
        ]
      },
      "properties": {
        "name": "KIGAWA PRI. SCH. KIGAWA",
        "ward": "MIGA",
        "lga": "MIGA",
        "state": "JIGAWA"
      }
    },
    {
      "type": "Feature",
      "geometry": {
        "type": "Point",
        "coordinates": [
          7.6003199,
          9.0249389
        ]
      },
      "properties": {
        "name": "NASARAWA HEALTH CLINIC KIGAWA",
        "ward": "MIGA",
        "lga": "MIGA",
        "state": "JIGAWA"
      }
    },
    {
      "type": "Feature",
      "geometry": {
        "type": "Point",
        "coordinates": [
          9.7127737,
          12.2368781
        ]
      },
      "properties": {
        "name": "ZAGE DANTSE I-MIGA PRIMARY SCHOOL",
        "ward": "MIGA",
        "lga": "MIGA",
        "state": "JIGAWA"
      }
    },
    {
      "type": "Feature",
      "geometry": {
        "type": "Point",
        "coordinates": [
          9.6786894,
          12.2211616
        ]
      },
      "properties": {
        "name": "AGUFA C/GARI I",
        "ward": "MIGA",
        "lga": "MIGA",
        "state": "JIGAWA"
      }
    },
    {
      "type": "Feature",
      "geometry": {
        "type": "Point",
        "coordinates": [
          9.6786894,
          12.2211616
        ]
      },
      "properties": {
        "name": "AGUFA C/GARI II",
        "ward": "MIGA",
        "lga": "MIGA",
        "state": "JIGAWA"
      }
    },
    {
      "type": "Feature",
      "geometry": {
        "type": "Point",
        "coordinates": [
          9.7107273,
          12.2384087
        ]
      },
      "properties": {
        "name": "DAMAGANAWA II",
        "ward": "MIGA",
        "lga": "MIGA",
        "state": "JIGAWA"
      }
    },
    {
      "type": "Feature",
      "geometry": {
        "type": "Point",
        "coordinates": [
          9.7107273,
          12.2384087
        ]
      },
      "properties": {
        "name": "ZUGAWA",
        "ward": "MIGA",
        "lga": "MIGA",
        "state": "JIGAWA"
      }
    },
    {
      "type": "Feature",
      "geometry": {
        "type": "Point",
        "coordinates": [
          9.7107273,
          12.2384087
        ]
      },
      "properties": {
        "name": "GWARI",
        "ward": "MIGA",
        "lga": "MIGA",
        "state": "JIGAWA"
      }
    },
    {
      "type": "Feature",
      "geometry": {
        "type": "Point",
        "coordinates": [
          9.7107273,
          12.2384087
        ]
      },
      "properties": {
        "name": "SHUNAWA",
        "ward": "MIGA",
        "lga": "MIGA",
        "state": "JIGAWA"
      }
    },
    {
      "type": "Feature",
      "geometry": {
        "type": "Point",
        "coordinates": [
          9.7107273,
          12.2384087
        ]
      },
      "properties": {
        "name": "YANDADI",
        "ward": "MIGA",
        "lga": "MIGA",
        "state": "JIGAWA"
      }
    },
    {
      "type": "Feature",
      "geometry": {
        "type": "Point",
        "coordinates": [
          9.7127737,
          12.2368781
        ]
      },
      "properties": {
        "name": "ZAGE DANTSE",
        "ward": "MIGA",
        "lga": "MIGA",
        "state": "JIGAWA"
      }
    },
    {
      "type": "Feature",
      "geometry": {
        "type": "Point",
        "coordinates": [
          9.7107273,
          12.2384087
        ]
      },
      "properties": {
        "name": "DAMAGANAWA",
        "ward": "MIGA",
        "lga": "MIGA",
        "state": "JIGAWA"
      }
    },
    {
      "type": "Feature",
      "geometry": {
        "type": "Point",
        "coordinates": [
          9.8836895,
          11.2777838
        ]
      },
      "properties": {
        "name": "HEALTH CLINIC AGUFA CIKIN GARI",
        "ward": "MIGA",
        "lga": "MIGA",
        "state": "JIGAWA"
      }
    },
    {
      "type": "Feature",
      "geometry": {
        "type": "Point",
        "coordinates": [
          9.3339187,
          11.7024113
        ]
      },
      "properties": {
        "name": "JSS AGUFA I",
        "ward": "MIGA",
        "lga": "MIGA",
        "state": "JIGAWA"
      }
    },
    {
      "type": "Feature",
      "geometry": {
        "type": "Point",
        "coordinates": [
          9.7107273,
          12.2384087
        ]
      },
      "properties": {
        "name": "MIGA LEA",
        "ward": "MIGA",
        "lga": "MIGA",
        "state": "JIGAWA"
      }
    },
    {
      "type": "Feature",
      "geometry": {
        "type": "Point",
        "coordinates": [
          7.61803,
          12.9768604
        ]
      },
      "properties": {
        "name": "IMAM MALIK SCHOOL  KADAWA",
        "ward": "MIGA",
        "lga": "MIGA",
        "state": "JIGAWA"
      }
    },
    {
      "type": "Feature",
      "geometry": {
        "type": "Point",
        "coordinates": [
          9.6786894,
          12.2211616
        ]
      },
      "properties": {
        "name": "GDSS MIGA",
        "ward": "MIGA",
        "lga": "MIGA",
        "state": "JIGAWA"
      }
    },
    {
      "type": "Feature",
      "geometry": {
        "type": "Point",
        "coordinates": [
          9.6786894,
          12.2211616
        ]
      },
      "properties": {
        "name": "NASARWA PRI SCH",
        "ward": "MIGA",
        "lga": "MIGA",
        "state": "JIGAWA"
      }
    },
    {
      "type": "Feature",
      "geometry": {
        "type": "Point",
        "coordinates": [
          9.7107273,
          12.2384087
        ]
      },
      "properties": {
        "name": "AIGWA",
        "ward": "SANSANI",
        "lga": "MIGA",
        "state": "JIGAWA"
      }
    },
    {
      "type": "Feature",
      "geometry": {
        "type": "Point",
        "coordinates": [
          9.7790227,
          12.2515305
        ]
      },
      "properties": {
        "name": "SANSANI AREWA",
        "ward": "SANSANI",
        "lga": "MIGA",
        "state": "JIGAWA"
      }
    },
    {
      "type": "Feature",
      "geometry": {
        "type": "Point",
        "coordinates": [
          9.4739813,
          11.4374238
        ]
      },
      "properties": {
        "name": "MADUGU ZANGO",
        "ward": "SANSANI",
        "lga": "MIGA",
        "state": "JIGAWA"
      }
    },
    {
      "type": "Feature",
      "geometry": {
        "type": "Point",
        "coordinates": [
          8.9400581,
          12.5700351
        ]
      },
      "properties": {
        "name": "SANSANI HEALTH CLINIC",
        "ward": "SANSANI",
        "lga": "MIGA",
        "state": "JIGAWA"
      }
    },
    {
      "type": "Feature",
      "geometry": {
        "type": "Point",
        "coordinates": [
          9.3883109,
          12.6343501
        ]
      },
      "properties": {
        "name": "ZAREKU PRI. SCH. ZAREKU C/GARI",
        "ward": "ZAREKU",
        "lga": "MIGA",
        "state": "JIGAWA"
      }
    },
    {
      "type": "Feature",
      "geometry": {
        "type": "Point",
        "coordinates": [
          9.320734,
          11.5679694
        ]
      },
      "properties": {
        "name": "ZAREKU GANUWA",
        "ward": "ZAREKU",
        "lga": "MIGA",
        "state": "JIGAWA"
      }
    },
    {
      "type": "Feature",
      "geometry": {
        "type": "Point",
        "coordinates": [
          9.3512996,
          11.7129915
        ]
      },
      "properties": {
        "name": "ZAREKU KIRNANDE",
        "ward": "ZAREKU",
        "lga": "MIGA",
        "state": "JIGAWA"
      }
    },
    {
      "type": "Feature",
      "geometry": {
        "type": "Point",
        "coordinates": [
          9.7957564,
          12.1887427
        ]
      },
      "properties": {
        "name": "ZAREKU  ZANGO",
        "ward": "ZAREKU",
        "lga": "MIGA",
        "state": "JIGAWA"
      }
    },
    {
      "type": "Feature",
      "geometry": {
        "type": "Point",
        "coordinates": [
          9.7567161,
          12.161872
        ]
      },
      "properties": {
        "name": "HARBO - GARBO - C/GARI",
        "ward": "GARBO",
        "lga": "MIGA",
        "state": "JIGAWA"
      }
    },
    {
      "type": "Feature",
      "geometry": {
        "type": "Point",
        "coordinates": [
          9.4918083,
          11.4527074
        ]
      },
      "properties": {
        "name": "GDSSS TAKALAFIYA",
        "ward": "GARBO",
        "lga": "MIGA",
        "state": "JIGAWA"
      }
    },
    {
      "type": "Feature",
      "geometry": {
        "type": "Point",
        "coordinates": [
          9.7144999,
          12.237
        ]
      },
      "properties": {
        "name": "HARBO H/CLINIC",
        "ward": "GARBO",
        "lga": "MIGA",
        "state": "JIGAWA"
      }
    },
    {
      "type": "Feature",
      "geometry": {
        "type": "Point",
        "coordinates": [
          10.040496,
          12.4506066
        ]
      },
      "properties": {
        "name": "HANTSU PRI. SCH.  HANTSU C/GARI  I",
        "ward": "HANTSU",
        "lga": "MIGA",
        "state": "JIGAWA"
      }
    },
    {
      "type": "Feature",
      "geometry": {
        "type": "Point",
        "coordinates": [
          7.9289843,
          12.6118851
        ]
      },
      "properties": {
        "name": "GIDAN NAGARI   - GIDAN - C/GARI  II",
        "ward": "HANTSU",
        "lga": "MIGA",
        "state": "JIGAWA"
      }
    },
    {
      "type": "Feature",
      "geometry": {
        "type": "Point",
        "coordinates": [
          9.9376105,
          12.3328673
        ]
      },
      "properties": {
        "name": "SARAWUYA PRI. SCH. SARAWUYA  I",
        "ward": "HANTSU",
        "lga": "MIGA",
        "state": "JIGAWA"
      }
    },
    {
      "type": "Feature",
      "geometry": {
        "type": "Point",
        "coordinates": [
          9.5424675,
          11.3774453
        ]
      },
      "properties": {
        "name": "SARAWUYA PRI. SCH. SARAWUYA  II",
        "ward": "HANTSU",
        "lga": "MIGA",
        "state": "JIGAWA"
      }
    },
    {
      "type": "Feature",
      "geometry": {
        "type": "Point",
        "coordinates": [
          9.3645338,
          11.7235
        ]
      },
      "properties": {
        "name": "HANTSU HEALTH CLINIC",
        "ward": "HANTSU",
        "lga": "MIGA",
        "state": "JIGAWA"
      }
    },
    {
      "type": "Feature",
      "geometry": {
        "type": "Point",
        "coordinates": [
          9.3339187,
          11.7024113
        ]
      },
      "properties": {
        "name": "HANTSU C/GARI  IV",
        "ward": "HANTSU",
        "lga": "MIGA",
        "state": "JIGAWA"
      }
    },
    {
      "type": "Feature",
      "geometry": {
        "type": "Point",
        "coordinates": [
          9.3472228,
          11.720844
        ]
      },
      "properties": {
        "name": "DANGYATUN PRI. SCH. DANGYATUN  I",
        "ward": "DANGYATIN",
        "lga": "MIGA",
        "state": "JIGAWA"
      }
    },
    {
      "type": "Feature",
      "geometry": {
        "type": "Point",
        "coordinates": [
          10.040496,
          12.4506066
        ]
      },
      "properties": {
        "name": "DANGYATUN PRI. SCH. DANGYATUN  II",
        "ward": "DANGYATIN",
        "lga": "MIGA",
        "state": "JIGAWA"
      }
    },
    {
      "type": "Feature",
      "geometry": {
        "type": "Point",
        "coordinates": [
          9.8663965,
          12.3555503
        ]
      },
      "properties": {
        "name": "TSA",
        "ward": "DANGYATIN",
        "lga": "MIGA",
        "state": "JIGAWA"
      }
    },
    {
      "type": "Feature",
      "geometry": {
        "type": "Point",
        "coordinates": [
          9.7107273,
          12.2384087
        ]
      },
      "properties": {
        "name": "BURJI C/GARI",
        "ward": "DANGYATIN",
        "lga": "MIGA",
        "state": "JIGAWA"
      }
    },
    {
      "type": "Feature",
      "geometry": {
        "type": "Point",
        "coordinates": [
          11.0454842,
          11.6688802
        ]
      },
      "properties": {
        "name": "BURJI MAKERA PRI. SCH. II",
        "ward": "DANGYATIN",
        "lga": "MIGA",
        "state": "JIGAWA"
      }
    },
    {
      "type": "Feature",
      "geometry": {
        "type": "Point",
        "coordinates": [
          9.320734,
          11.5679694
        ]
      },
      "properties": {
        "name": "BURJI YANMALAM",
        "ward": "DANGYATIN",
        "lga": "MIGA",
        "state": "JIGAWA"
      }
    },
    {
      "type": "Feature",
      "geometry": {
        "type": "Point",
        "coordinates": [
          9.7188694,
          12.1729681
        ]
      },
      "properties": {
        "name": "DANGYATUN C/GARI III",
        "ward": "DANGYATIN",
        "lga": "MIGA",
        "state": "JIGAWA"
      }
    },
    {
      "type": "Feature",
      "geometry": {
        "type": "Point",
        "coordinates": [
          9.1883268,
          12.191937
        ]
      },
      "properties": {
        "name": "KOMAI ALLAH YAYI GIDAN RUWA",
        "ward": "DANGYATIN",
        "lga": "MIGA",
        "state": "JIGAWA"
      }
    },
    {
      "type": "Feature",
      "geometry": {
        "type": "Point",
        "coordinates": [
          9.710196600000002,
          12.2399113
        ]
      },
      "properties": {
        "name": "DANGYATIN BASIC HEALTH CARE",
        "ward": "DANGYATIN",
        "lga": "MIGA",
        "state": "JIGAWA"
      }
    },
    {
      "type": "Feature",
      "geometry": {
        "type": "Point",
        "coordinates": [
          8.985043899999999,
          11.9482697
        ]
      },
      "properties": {
        "name": "YANDUNA PRI. SCH. C/GARI",
        "ward": "YANDUNA",
        "lga": "MIGA",
        "state": "JIGAWA"
      }
    },
    {
      "type": "Feature",
      "geometry": {
        "type": "Point",
        "coordinates": [
          9.320734,
          11.5679694
        ]
      },
      "properties": {
        "name": "MALIKAWA/MALIKAWA",
        "ward": "YANDUNA",
        "lga": "MIGA",
        "state": "JIGAWA"
      }
    },
    {
      "type": "Feature",
      "geometry": {
        "type": "Point",
        "coordinates": [
          9.241125000000002,
          12.1944363
        ]
      },
      "properties": {
        "name": "ADUCUWA PRI. SCH. ADUCUWA-C/GARI",
        "ward": "YANDUNA",
        "lga": "MIGA",
        "state": "JIGAWA"
      }
    },
    {
      "type": "Feature",
      "geometry": {
        "type": "Point",
        "coordinates": [
          10.040496,
          12.4506066
        ]
      },
      "properties": {
        "name": "ROMAWA PRI. SCH. ADUCUWA-ROMAWA",
        "ward": "YANDUNA",
        "lga": "MIGA",
        "state": "JIGAWA"
      }
    },
    {
      "type": "Feature",
      "geometry": {
        "type": "Point",
        "coordinates": [
          9.3339187,
          11.7024113
        ]
      },
      "properties": {
        "name": "YANDUNA C/GARI",
        "ward": "YANDUNA",
        "lga": "MIGA",
        "state": "JIGAWA"
      }
    },
    {
      "type": "Feature",
      "geometry": {
        "type": "Point",
        "coordinates": [
          9.1598398,
          12.1507881
        ]
      },
      "properties": {
        "name": "TSAKUWAWA PRI. SCH. TSAKUWAWA C/GARI",
        "ward": "TSAKUWAWA",
        "lga": "MIGA",
        "state": "JIGAWA"
      }
    },
    {
      "type": "Feature",
      "geometry": {
        "type": "Point",
        "coordinates": [
          9.6230001,
          12.166575
        ]
      },
      "properties": {
        "name": "TSAKUWAWA  GULULU I",
        "ward": "TSAKUWAWA",
        "lga": "MIGA",
        "state": "JIGAWA"
      }
    },
    {
      "type": "Feature",
      "geometry": {
        "type": "Point",
        "coordinates": [
          9.6051871,
          12.1682908
        ]
      },
      "properties": {
        "name": "TSAKUWAWA K/FADA",
        "ward": "TSAKUWAWA",
        "lga": "MIGA",
        "state": "JIGAWA"
      }
    },
    {
      "type": "Feature",
      "geometry": {
        "type": "Point",
        "coordinates": [
          9.6230001,
          12.166575
        ]
      },
      "properties": {
        "name": "TSAKUWAWA ZAGAU",
        "ward": "TSAKUWAWA",
        "lga": "MIGA",
        "state": "JIGAWA"
      }
    },
    {
      "type": "Feature",
      "geometry": {
        "type": "Point",
        "coordinates": [
          9.5424675,
          11.3774453
        ]
      },
      "properties": {
        "name": "TSAKUWAWA UMMADU PRI SCH",
        "ward": "TSAKUWAWA",
        "lga": "MIGA",
        "state": "JIGAWA"
      }
    },
    {
      "type": "Feature",
      "geometry": {
        "type": "Point",
        "coordinates": [
          10.040496,
          12.4506066
        ]
      },
      "properties": {
        "name": "GOVT DAY SEC SCH TSAKUWAWA",
        "ward": "TSAKUWAWA",
        "lga": "MIGA",
        "state": "JIGAWA"
      }
    },
    {
      "type": "Feature",
      "geometry": {
        "type": "Point",
        "coordinates": [
          9.6230001,
          12.166575
        ]
      },
      "properties": {
        "name": "TSAKUWAWA GULULU   II",
        "ward": "TSAKUWAWA",
        "lga": "MIGA",
        "state": "JIGAWA"
      }
    },
    {
      "type": "Feature",
      "geometry": {
        "type": "Point",
        "coordinates": [
          8.6174439,
          12.264673
        ]
      },
      "properties": {
        "name": "KOYA PRI. SCH. KOYA - C/GARI  I",
        "ward": "KOYA",
        "lga": "MIGA",
        "state": "JIGAWA"
      }
    },
    {
      "type": "Feature",
      "geometry": {
        "type": "Point",
        "coordinates": [
          8.6174439,
          12.264673
        ]
      },
      "properties": {
        "name": "KOYA PRI. SCH. KOYA - C/GARI II",
        "ward": "KOYA",
        "lga": "MIGA",
        "state": "JIGAWA"
      }
    },
    {
      "type": "Feature",
      "geometry": {
        "type": "Point",
        "coordinates": [
          9.3512996,
          11.7129915
        ]
      },
      "properties": {
        "name": "KOYA HEALTH CLINIC",
        "ward": "KOYA",
        "lga": "MIGA",
        "state": "JIGAWA"
      }
    },
    {
      "type": "Feature",
      "geometry": {
        "type": "Point",
        "coordinates": [
          7.731787100000001,
          11.1113721
        ]
      },
      "properties": {
        "name": "SABON GARI PRI. SCH. SABON GARI  I",
        "ward": "SABON GARI TAKANEBU",
        "lga": "MIGA",
        "state": "JIGAWA"
      }
    },
    {
      "type": "Feature",
      "geometry": {
        "type": "Point",
        "coordinates": [
          7.731787100000001,
          11.1113721
        ]
      },
      "properties": {
        "name": "SABON GARI PRI. SCH. SABON GARI II",
        "ward": "SABON GARI TAKANEBU",
        "lga": "MIGA",
        "state": "JIGAWA"
      }
    },
    {
      "type": "Feature",
      "geometry": {
        "type": "Point",
        "coordinates": [
          9.1616627,
          12.1535656
        ]
      },
      "properties": {
        "name": "TSAGAIWA PRI. SCH. TSAGAIWA - C/GARI",
        "ward": "SABON GARI TAKANEBU",
        "lga": "MIGA",
        "state": "JIGAWA"
      }
    },
    {
      "type": "Feature",
      "geometry": {
        "type": "Point",
        "coordinates": [
          9.4309068,
          12.2789744
        ]
      },
      "properties": {
        "name": "JAMAGA PRI. SCH. JAMAGA  I",
        "ward": "SABON GARI TAKANEBU",
        "lga": "MIGA",
        "state": "JIGAWA"
      }
    },
    {
      "type": "Feature",
      "geometry": {
        "type": "Point",
        "coordinates": [
          9.4309068,
          12.2789744
        ]
      },
      "properties": {
        "name": "JAMAGA PRI. SCH. JAMAGA  II",
        "ward": "SABON GARI TAKANEBU",
        "lga": "MIGA",
        "state": "JIGAWA"
      }
    },
    {
      "type": "Feature",
      "geometry": {
        "type": "Point",
        "coordinates": [
          10.0386765,
          12.4542465
        ]
      },
      "properties": {
        "name": "JAMAGA HEALTH CLINIC",
        "ward": "SABON GARI TAKANEBU",
        "lga": "MIGA",
        "state": "JIGAWA"
      }
    },
    {
      "type": "Feature",
      "geometry": {
        "type": "Point",
        "coordinates": [
          9.5424675,
          11.3774453
        ]
      },
      "properties": {
        "name": "DABA PRI SCHOOL",
        "ward": "SABON GARI TAKANEBU",
        "lga": "MIGA",
        "state": "JIGAWA"
      }
    },
    {
      "type": "Feature",
      "geometry": {
        "type": "Point",
        "coordinates": [
          7.7431706,
          11.0958615
        ]
      },
      "properties": {
        "name": "SABON GARI OLD CLINIC",
        "ward": "SABON GARI TAKANEBU",
        "lga": "MIGA",
        "state": "JIGAWA"
      }
    },
    {
      "type": "Feature",
      "geometry": {
        "type": "Point",
        "coordinates": [
          7.732164800000001,
          11.1231453
        ]
      },
      "properties": {
        "name": "JSS SABON GARI",
        "ward": "SABON GARI TAKANEBU",
        "lga": "MIGA",
        "state": "JIGAWA"
      }
    },
    {
      "type": "Feature",
      "geometry": {
        "type": "Point",
        "coordinates": [
          9.7344154,
          12.3889523
        ]
      },
      "properties": {
        "name": "DABUWARAN PRI. SCH. DABUWARAN  I",
        "ward": "DABUWARAN",
        "lga": "KAUGAMA",
        "state": "JIGAWA"
      }
    },
    {
      "type": "Feature",
      "geometry": {
        "type": "Point",
        "coordinates": [
          9.7344154,
          12.3889523
        ]
      },
      "properties": {
        "name": "DABUWARAN PRI. SCH. DABUWARAN  II",
        "ward": "DABUWARAN",
        "lga": "KAUGAMA",
        "state": "JIGAWA"
      }
    },
    {
      "type": "Feature",
      "geometry": {
        "type": "Point",
        "coordinates": [
          10.040496,
          12.4506066
        ]
      },
      "properties": {
        "name": "GANGARA PRI. SCH.  GANGARA",
        "ward": "DABUWARAN",
        "lga": "KAUGAMA",
        "state": "JIGAWA"
      }
    },
    {
      "type": "Feature",
      "geometry": {
        "type": "Point",
        "coordinates": [
          9.3389737,
          11.7052553
        ]
      },
      "properties": {
        "name": "DUSARE PRI. SCH. DUSARE",
        "ward": "DABUWARAN",
        "lga": "KAUGAMA",
        "state": "JIGAWA"
      }
    },
    {
      "type": "Feature",
      "geometry": {
        "type": "Point",
        "coordinates": [
          10.040496,
          12.4506066
        ]
      },
      "properties": {
        "name": "MANDA PRI. SCH. MANDA",
        "ward": "DABUWARAN",
        "lga": "KAUGAMA",
        "state": "JIGAWA"
      }
    },
    {
      "type": "Feature",
      "geometry": {
        "type": "Point",
        "coordinates": [
          9.2641399,
          12.6757669
        ]
      },
      "properties": {
        "name": "SHARKAWA PRI. SCH  SHARKAWA",
        "ward": "DABUWARAN",
        "lga": "KAUGAMA",
        "state": "JIGAWA"
      }
    },
    {
      "type": "Feature",
      "geometry": {
        "type": "Point",
        "coordinates": [
          9.320734,
          11.5679694
        ]
      },
      "properties": {
        "name": "IDON ZAKARA",
        "ward": "DABUWARAN",
        "lga": "KAUGAMA",
        "state": "JIGAWA"
      }
    },
    {
      "type": "Feature",
      "geometry": {
        "type": "Point",
        "coordinates": [
          10.040496,
          12.4506066
        ]
      },
      "properties": {
        "name": "MUSARI PRI. SCH.  MUSARI",
        "ward": "DABUWARAN",
        "lga": "KAUGAMA",
        "state": "JIGAWA"
      }
    },
    {
      "type": "Feature",
      "geometry": {
        "type": "Point",
        "coordinates": [
          8.7669512,
          12.0697386
        ]
      },
      "properties": {
        "name": "K/GAMAWA PRI. SCH.  KANWAR  G.",
        "ward": "DABUWARAN",
        "lga": "KAUGAMA",
        "state": "JIGAWA"
      }
    },
    {
      "type": "Feature",
      "geometry": {
        "type": "Point",
        "coordinates": [
          9.320734,
          11.5679694
        ]
      },
      "properties": {
        "name": "JSS DABUWARAN",
        "ward": "DABUWARAN",
        "lga": "KAUGAMA",
        "state": "JIGAWA"
      }
    },
    {
      "type": "Feature",
      "geometry": {
        "type": "Point",
        "coordinates": [
          8.6033894,
          12.1594066
        ]
      },
      "properties": {
        "name": "DUSARE PRI SCH. II",
        "ward": "DABUWARAN",
        "lga": "KAUGAMA",
        "state": "JIGAWA"
      }
    },
    {
      "type": "Feature",
      "geometry": {
        "type": "Point",
        "coordinates": [
          9.7380516,
          12.4764498
        ]
      },
      "properties": {
        "name": "TSAMIYA GOMA PLAY GROUND",
        "ward": "DABUWARAN",
        "lga": "KAUGAMA",
        "state": "JIGAWA"
      }
    },
    {
      "type": "Feature",
      "geometry": {
        "type": "Point",
        "coordinates": [
          10.040496,
          12.4506066
        ]
      },
      "properties": {
        "name": "JA'E PRI. SCH./ JA'E",
        "ward": "JA'E",
        "lga": "KAUGAMA",
        "state": "JIGAWA"
      }
    },
    {
      "type": "Feature",
      "geometry": {
        "type": "Point",
        "coordinates": [
          10.040496,
          12.4506066
        ]
      },
      "properties": {
        "name": "GARERU PRI. SCH./ GARERU",
        "ward": "JA'E",
        "lga": "KAUGAMA",
        "state": "JIGAWA"
      }
    },
    {
      "type": "Feature",
      "geometry": {
        "type": "Point",
        "coordinates": [
          10.040496,
          12.4506066
        ]
      },
      "properties": {
        "name": "RAKWATA PRI. SCH./ RAKWATA",
        "ward": "JA'E",
        "lga": "KAUGAMA",
        "state": "JIGAWA"
      }
    },
    {
      "type": "Feature",
      "geometry": {
        "type": "Point",
        "coordinates": [
          8.8252502,
          12.4428272
        ]
      },
      "properties": {
        "name": "KANYA PLAY GROUND/ KANYA",
        "ward": "JA'E",
        "lga": "KAUGAMA",
        "state": "JIGAWA"
      }
    },
    {
      "type": "Feature",
      "geometry": {
        "type": "Point",
        "coordinates": [
          10.040496,
          12.4506066
        ]
      },
      "properties": {
        "name": "ZABURAN PRI. SCH / ZABURAN",
        "ward": "JA'E",
        "lga": "KAUGAMA",
        "state": "JIGAWA"
      }
    },
    {
      "type": "Feature",
      "geometry": {
        "type": "Point",
        "coordinates": [
          9.3899739,
          12.6224988
        ]
      },
      "properties": {
        "name": "JALOMI PRI. SCH/ JALOMI",
        "ward": "JA'E",
        "lga": "KAUGAMA",
        "state": "JIGAWA"
      }
    },
    {
      "type": "Feature",
      "geometry": {
        "type": "Point",
        "coordinates": [
          10.040496,
          12.4506066
        ]
      },
      "properties": {
        "name": "KUKA TANKIYA PRI SCH.",
        "ward": "JA'E",
        "lga": "KAUGAMA",
        "state": "JIGAWA"
      }
    },
    {
      "type": "Feature",
      "geometry": {
        "type": "Point",
        "coordinates": [
          9.3214154,
          12.2029497
        ]
      },
      "properties": {
        "name": "GARIN KYARI PRI. SCH.",
        "ward": "JA'E",
        "lga": "KAUGAMA",
        "state": "JIGAWA"
      }
    },
    {
      "type": "Feature",
      "geometry": {
        "type": "Point",
        "coordinates": [
          9.3339187,
          11.7024113
        ]
      },
      "properties": {
        "name": "JSS ZABURAN",
        "ward": "JA'E",
        "lga": "KAUGAMA",
        "state": "JIGAWA"
      }
    },
    {
      "type": "Feature",
      "geometry": {
        "type": "Point",
        "coordinates": [
          10.040496,
          12.4506066
        ]
      },
      "properties": {
        "name": "ASKANDU PRI. SCH. ASUKANDU",
        "ward": "ASKANDU",
        "lga": "KAUGAMA",
        "state": "JIGAWA"
      }
    },
    {
      "type": "Feature",
      "geometry": {
        "type": "Point",
        "coordinates": [
          10.040496,
          12.4506066
        ]
      },
      "properties": {
        "name": "UBBA PRI. SCH. UBBA",
        "ward": "ASKANDU",
        "lga": "KAUGAMA",
        "state": "JIGAWA"
      }
    },
    {
      "type": "Feature",
      "geometry": {
        "type": "Point",
        "coordinates": [
          10.040496,
          12.4506066
        ]
      },
      "properties": {
        "name": "'MANDA PRI. SCH. MANDA MAIKANWA",
        "ward": "ASKANDU",
        "lga": "KAUGAMA",
        "state": "JIGAWA"
      }
    },
    {
      "type": "Feature",
      "geometry": {
        "type": "Point",
        "coordinates": [
          9.8805651,
          12.4200627
        ]
      },
      "properties": {
        "name": "ADMIN GASO PRI. SCH. - ADMIN GASO",
        "ward": "ASKANDU",
        "lga": "KAUGAMA",
        "state": "JIGAWA"
      }
    },
    {
      "type": "Feature",
      "geometry": {
        "type": "Point",
        "coordinates": [
          9.9376105,
          12.3328673
        ]
      },
      "properties": {
        "name": "ALBASHI PRI. SCH.- ALBASHI",
        "ward": "ASKANDU",
        "lga": "KAUGAMA",
        "state": "JIGAWA"
      }
    },
    {
      "type": "Feature",
      "geometry": {
        "type": "Point",
        "coordinates": [
          9.7678687,
          12.4897211
        ]
      },
      "properties": {
        "name": "LULAI FULANI",
        "ward": "ASKANDU",
        "lga": "KAUGAMA",
        "state": "JIGAWA"
      }
    },
    {
      "type": "Feature",
      "geometry": {
        "type": "Point",
        "coordinates": [
          10.040496,
          12.4506066
        ]
      },
      "properties": {
        "name": "UBBA PRI. SCH. II",
        "ward": "ASKANDU",
        "lga": "KAUGAMA",
        "state": "JIGAWA"
      }
    },
    {
      "type": "Feature",
      "geometry": {
        "type": "Point",
        "coordinates": [
          9.868764,
          12.3508597
        ]
      },
      "properties": {
        "name": "MANA PLAY GROUND",
        "ward": "ASKANDU",
        "lga": "KAUGAMA",
        "state": "JIGAWA"
      }
    },
    {
      "type": "Feature",
      "geometry": {
        "type": "Point",
        "coordinates": [
          10.040496,
          12.4506066
        ]
      },
      "properties": {
        "name": "MANDA PRI SCH II",
        "ward": "ASKANDU",
        "lga": "KAUGAMA",
        "state": "JIGAWA"
      }
    },
    {
      "type": "Feature",
      "geometry": {
        "type": "Point",
        "coordinates": [
          10.040496,
          12.4506066
        ]
      },
      "properties": {
        "name": "ALBASHI PRI SCH II",
        "ward": "ASKANDU",
        "lga": "KAUGAMA",
        "state": "JIGAWA"
      }
    },
    {
      "type": "Feature",
      "geometry": {
        "type": "Point",
        "coordinates": [
          10.040496,
          12.4506066
        ]
      },
      "properties": {
        "name": "HADIN PRI. SCH./HADIN  I",
        "ward": "HADIN",
        "lga": "KAUGAMA",
        "state": "JIGAWA"
      }
    },
    {
      "type": "Feature",
      "geometry": {
        "type": "Point",
        "coordinates": [
          9.8653528,
          12.3517838
        ]
      },
      "properties": {
        "name": "HADIN PRI. SCH./ HADIN  II",
        "ward": "HADIN",
        "lga": "KAUGAMA",
        "state": "JIGAWA"
      }
    },
    {
      "type": "Feature",
      "geometry": {
        "type": "Point",
        "coordinates": [
          9.1564903,
          12.1556005
        ]
      },
      "properties": {
        "name": "DINGARE PRI. SCH./ DINGARE",
        "ward": "HADIN",
        "lga": "KAUGAMA",
        "state": "JIGAWA"
      }
    },
    {
      "type": "Feature",
      "geometry": {
        "type": "Point",
        "coordinates": [
          9.5426726,
          12.3430781
        ]
      },
      "properties": {
        "name": "TAURA PRI. SCH./ TAURA BABBA",
        "ward": "HADIN",
        "lga": "KAUGAMA",
        "state": "JIGAWA"
      }
    },
    {
      "type": "Feature",
      "geometry": {
        "type": "Point",
        "coordinates": [
          9.5426726,
          12.3430781
        ]
      },
      "properties": {
        "name": "TAURA GABAS",
        "ward": "HADIN",
        "lga": "KAUGAMA",
        "state": "JIGAWA"
      }
    },
    {
      "type": "Feature",
      "geometry": {
        "type": "Point",
        "coordinates": [
          9.8031657,
          12.5951897
        ]
      },
      "properties": {
        "name": "ARBUS PRI. SCH. ARBUS",
        "ward": "ARBUS",
        "lga": "KAUGAMA",
        "state": "JIGAWA"
      }
    },
    {
      "type": "Feature",
      "geometry": {
        "type": "Point",
        "coordinates": [
          9.3899739,
          12.6224988
        ]
      },
      "properties": {
        "name": "RANGYANA PRI. SCH. RANGYANA",
        "ward": "ARBUS",
        "lga": "KAUGAMA",
        "state": "JIGAWA"
      }
    },
    {
      "type": "Feature",
      "geometry": {
        "type": "Point",
        "coordinates": [
          9.3214154,
          12.2029497
        ]
      },
      "properties": {
        "name": "KANDALARI PRI. SCH. KANDALARI",
        "ward": "ARBUS",
        "lga": "KAUGAMA",
        "state": "JIGAWA"
      }
    },
    {
      "type": "Feature",
      "geometry": {
        "type": "Point",
        "coordinates": [
          9.799984,
          12.5685864
        ]
      },
      "properties": {
        "name": "DODARIN M.ABDU PRI. SCH DODARIN M.A",
        "ward": "ARBUS",
        "lga": "KAUGAMA",
        "state": "JIGAWA"
      }
    },
    {
      "type": "Feature",
      "geometry": {
        "type": "Point",
        "coordinates": [
          9.7698728,
          12.6095317
        ]
      },
      "properties": {
        "name": "DALARIN PRY SCH, DALARIN",
        "ward": "ARBUS",
        "lga": "KAUGAMA",
        "state": "JIGAWA"
      }
    },
    {
      "type": "Feature",
      "geometry": {
        "type": "Point",
        "coordinates": [
          9.8267051,
          12.5902463
        ]
      },
      "properties": {
        "name": "KANTAMARI PRI. SCH. KANTAMARI",
        "ward": "ARBUS",
        "lga": "KAUGAMA",
        "state": "JIGAWA"
      }
    },
    {
      "type": "Feature",
      "geometry": {
        "type": "Point",
        "coordinates": [
          10.040496,
          12.4506066
        ]
      },
      "properties": {
        "name": "S/G/KANKANBA PRI. SCH.  S/G/KANKANBA",
        "ward": "ARBUS",
        "lga": "KAUGAMA",
        "state": "JIGAWA"
      }
    },
    {
      "type": "Feature",
      "geometry": {
        "type": "Point",
        "coordinates": [
          9.3214154,
          12.2029497
        ]
      },
      "properties": {
        "name": "DALARIN LUNGU PRI. SCH.",
        "ward": "ARBUS",
        "lga": "KAUGAMA",
        "state": "JIGAWA"
      }
    },
    {
      "type": "Feature",
      "geometry": {
        "type": "Point",
        "coordinates": [
          9.8267051,
          12.5902463
        ]
      },
      "properties": {
        "name": "JSS KANTAMARI",
        "ward": "ARBUS",
        "lga": "KAUGAMA",
        "state": "JIGAWA"
      }
    },
    {
      "type": "Feature",
      "geometry": {
        "type": "Point",
        "coordinates": [
          9.3951277,
          12.6323588
        ]
      },
      "properties": {
        "name": "GIRBOBO PRI. SCH./ GIRBOBO I",
        "ward": "JARKASA",
        "lga": "KAUGAMA",
        "state": "JIGAWA"
      }
    },
    {
      "type": "Feature",
      "geometry": {
        "type": "Point",
        "coordinates": [
          9.3769216,
          12.6184998
        ]
      },
      "properties": {
        "name": "GIRBOBO PRI. SCH./ GIRBOBO  II",
        "ward": "JARKASA",
        "lga": "KAUGAMA",
        "state": "JIGAWA"
      }
    },
    {
      "type": "Feature",
      "geometry": {
        "type": "Point",
        "coordinates": [
          9.7748762,
          12.7480238
        ]
      },
      "properties": {
        "name": "DODORIN GIRBOBO PRI. SCH. /DODORIN",
        "ward": "JARKASA",
        "lga": "KAUGAMA",
        "state": "JIGAWA"
      }
    },
    {
      "type": "Feature",
      "geometry": {
        "type": "Point",
        "coordinates": [
          10.040496,
          12.4506066
        ]
      },
      "properties": {
        "name": "KUKURI PRI. SCH. /KUKURI",
        "ward": "JARKASA",
        "lga": "KAUGAMA",
        "state": "JIGAWA"
      }
    },
    {
      "type": "Feature",
      "geometry": {
        "type": "Point",
        "coordinates": [
          10.040496,
          12.4506066
        ]
      },
      "properties": {
        "name": "MARMA GWALERIMA PRI. SCH. / MARMA",
        "ward": "JARKASA",
        "lga": "KAUGAMA",
        "state": "JIGAWA"
      }
    },
    {
      "type": "Feature",
      "geometry": {
        "type": "Point",
        "coordinates": [
          10.040496,
          12.4506066
        ]
      },
      "properties": {
        "name": "KOTA PRI. SCH./KOTA",
        "ward": "JARKASA",
        "lga": "KAUGAMA",
        "state": "JIGAWA"
      }
    },
    {
      "type": "Feature",
      "geometry": {
        "type": "Point",
        "coordinates": [
          9.3883109,
          12.6343501
        ]
      },
      "properties": {
        "name": "BULTUWA PRI. SCH./ BULTUWA  II",
        "ward": "JARKASA",
        "lga": "KAUGAMA",
        "state": "JIGAWA"
      }
    },
    {
      "type": "Feature",
      "geometry": {
        "type": "Point",
        "coordinates": [
          9.3543716,
          11.6987982
        ]
      },
      "properties": {
        "name": "YARDA BABBA PRI. SCH. / YARDA",
        "ward": "JARKASA",
        "lga": "KAUGAMA",
        "state": "JIGAWA"
      }
    },
    {
      "type": "Feature",
      "geometry": {
        "type": "Point",
        "coordinates": [
          10.040496,
          12.4506066
        ]
      },
      "properties": {
        "name": "S/G BADUMA PRI. SCH/ BADUMA",
        "ward": "JARKASA",
        "lga": "KAUGAMA",
        "state": "JIGAWA"
      }
    },
    {
      "type": "Feature",
      "geometry": {
        "type": "Point",
        "coordinates": [
          8.4647405,
          11.4348557
        ]
      },
      "properties": {
        "name": "JSS GIRBOBO",
        "ward": "JARKASA",
        "lga": "KAUGAMA",
        "state": "JIGAWA"
      }
    },
    {
      "type": "Feature",
      "geometry": {
        "type": "Point",
        "coordinates": [
          9.7200412,
          12.3209625
        ]
      },
      "properties": {
        "name": "MARKE PRI. SCH./ MARKE I",
        "ward": "MARKE",
        "lga": "KAUGAMA",
        "state": "JIGAWA"
      }
    },
    {
      "type": "Feature",
      "geometry": {
        "type": "Point",
        "coordinates": [
          9.7200412,
          12.3209625
        ]
      },
      "properties": {
        "name": "MARKE PRI. SCH. /MARKE II",
        "ward": "MARKE",
        "lga": "KAUGAMA",
        "state": "JIGAWA"
      }
    },
    {
      "type": "Feature",
      "geometry": {
        "type": "Point",
        "coordinates": [
          9.7200412,
          12.3209625
        ]
      },
      "properties": {
        "name": "MARKE PRI. SCH./ MARKE III",
        "ward": "MARKE",
        "lga": "KAUGAMA",
        "state": "JIGAWA"
      }
    },
    {
      "type": "Feature",
      "geometry": {
        "type": "Point",
        "coordinates": [
          9.6936697,
          12.3323873
        ]
      },
      "properties": {
        "name": "KUKAR PRI. SCH. / KUKAR",
        "ward": "MARKE",
        "lga": "KAUGAMA",
        "state": "JIGAWA"
      }
    },
    {
      "type": "Feature",
      "geometry": {
        "type": "Point",
        "coordinates": [
          10.040496,
          12.4506066
        ]
      },
      "properties": {
        "name": "DARMOMUWA PRI. SCH./ DARMOMUWA",
        "ward": "MARKE",
        "lga": "KAUGAMA",
        "state": "JIGAWA"
      }
    },
    {
      "type": "Feature",
      "geometry": {
        "type": "Point",
        "coordinates": [
          9.5806781,
          12.362201
        ]
      },
      "properties": {
        "name": "KOFAR BULAMA MARKE",
        "ward": "MARKE",
        "lga": "KAUGAMA",
        "state": "JIGAWA"
      }
    },
    {
      "type": "Feature",
      "geometry": {
        "type": "Point",
        "coordinates": [
          9.5806781,
          12.362201
        ]
      },
      "properties": {
        "name": "MAHAUTA MARKE",
        "ward": "MARKE",
        "lga": "KAUGAMA",
        "state": "JIGAWA"
      }
    },
    {
      "type": "Feature",
      "geometry": {
        "type": "Point",
        "coordinates": [
          9.8741706,
          12.3546597
        ]
      },
      "properties": {
        "name": "DAKAIYAWA PRI. SCH.  DAKAIYAWA  I",
        "ward": "DAKAIYAWA",
        "lga": "KAUGAMA",
        "state": "JIGAWA"
      }
    },
    {
      "type": "Feature",
      "geometry": {
        "type": "Point",
        "coordinates": [
          9.8741706,
          12.3546597
        ]
      },
      "properties": {
        "name": "DAKAIYAWA PRI. SCH.  DAKAIYAWA II",
        "ward": "DAKAIYAWA",
        "lga": "KAUGAMA",
        "state": "JIGAWA"
      }
    },
    {
      "type": "Feature",
      "geometry": {
        "type": "Point",
        "coordinates": [
          9.8741706,
          12.3546597
        ]
      },
      "properties": {
        "name": "DAKAIYAWA PRI. SCH.  DAKAIYAWA IV",
        "ward": "DAKAIYAWA",
        "lga": "KAUGAMA",
        "state": "JIGAWA"
      }
    },
    {
      "type": "Feature",
      "geometry": {
        "type": "Point",
        "coordinates": [
          9.868764,
          12.3508597
        ]
      },
      "properties": {
        "name": "YALLAIMAN ISLAMIYA  YALLAIIMAN TIJJANAI I",
        "ward": "DAKAIYAWA",
        "lga": "KAUGAMA",
        "state": "JIGAWA"
      }
    },
    {
      "type": "Feature",
      "geometry": {
        "type": "Point",
        "coordinates": [
          9.868764,
          12.3508597
        ]
      },
      "properties": {
        "name": "YALLAIMAN GARI  YALLAIIMAN TIJJANAI  II",
        "ward": "DAKAIYAWA",
        "lga": "KAUGAMA",
        "state": "JIGAWA"
      }
    },
    {
      "type": "Feature",
      "geometry": {
        "type": "Point",
        "coordinates": [
          9.868764,
          12.3508597
        ]
      },
      "properties": {
        "name": "YALLAIMAN GARI  YALLAIIMAN TIJJANAI  II",
        "ward": "DAKAIYAWA",
        "lga": "KAUGAMA",
        "state": "JIGAWA"
      }
    },
    {
      "type": "Feature",
      "geometry": {
        "type": "Point",
        "coordinates": [
          9.868764,
          12.3508597
        ]
      },
      "properties": {
        "name": "J.S.S YALLAIMAN YALLAIMAN HAUSAWA I",
        "ward": "DAKAIYAWA",
        "lga": "KAUGAMA",
        "state": "JIGAWA"
      }
    },
    {
      "type": "Feature",
      "geometry": {
        "type": "Point",
        "coordinates": [
          9.868764,
          12.3508597
        ]
      },
      "properties": {
        "name": "DURIYA YALLAIMAN HAUSAWA  II",
        "ward": "DAKAIYAWA",
        "lga": "KAUGAMA",
        "state": "JIGAWA"
      }
    },
    {
      "type": "Feature",
      "geometry": {
        "type": "Point",
        "coordinates": [
          9.868764,
          12.3508597
        ]
      },
      "properties": {
        "name": "BAKIN RIJIYA YALLAIMAN HAUSAWA  III",
        "ward": "DAKAIYAWA",
        "lga": "KAUGAMA",
        "state": "JIGAWA"
      }
    },
    {
      "type": "Feature",
      "geometry": {
        "type": "Point",
        "coordinates": [
          9.868764,
          12.3508597
        ]
      },
      "properties": {
        "name": "DANDALI YALLAIMAN HAUSAWA  IV",
        "ward": "DAKAIYAWA",
        "lga": "KAUGAMA",
        "state": "JIGAWA"
      }
    },
    {
      "type": "Feature",
      "geometry": {
        "type": "Point",
        "coordinates": [
          9.8741706,
          12.3546597
        ]
      },
      "properties": {
        "name": "JSS DAKAIYAWA",
        "ward": "DAKAIYAWA",
        "lga": "KAUGAMA",
        "state": "JIGAWA"
      }
    },
    {
      "type": "Feature",
      "geometry": {
        "type": "Point",
        "coordinates": [
          9.8741706,
          12.3546597
        ]
      },
      "properties": {
        "name": "GDSS DAKAIYAWA I",
        "ward": "DAKAIYAWA",
        "lga": "KAUGAMA",
        "state": "JIGAWA"
      }
    },
    {
      "type": "Feature",
      "geometry": {
        "type": "Point",
        "coordinates": [
          9.8741706,
          12.3546597
        ]
      },
      "properties": {
        "name": "JSS DAKAIYAWA",
        "ward": "DAKAIYAWA",
        "lga": "KAUGAMA",
        "state": "JIGAWA"
      }
    },
    {
      "type": "Feature",
      "geometry": {
        "type": "Point",
        "coordinates": [
          9.8741706,
          12.3546597
        ]
      },
      "properties": {
        "name": "GDSS DAKAIYAWA II",
        "ward": "DAKAIYAWA",
        "lga": "KAUGAMA",
        "state": "JIGAWA"
      }
    },
    {
      "type": "Feature",
      "geometry": {
        "type": "Point",
        "coordinates": [
          9.868764,
          12.3508597
        ]
      },
      "properties": {
        "name": "YELLEMAN TIJJANI UBE",
        "ward": "DAKAIYAWA",
        "lga": "KAUGAMA",
        "state": "JIGAWA"
      }
    },
    {
      "type": "Feature",
      "geometry": {
        "type": "Point",
        "coordinates": [
          9.868764,
          12.3508597
        ]
      },
      "properties": {
        "name": "YELLEMAN TIJJANI II",
        "ward": "DAKAIYAWA",
        "lga": "KAUGAMA",
        "state": "JIGAWA"
      }
    },
    {
      "type": "Feature",
      "geometry": {
        "type": "Point",
        "coordinates": [
          9.868764,
          12.3508597
        ]
      },
      "properties": {
        "name": "GDASS MADANI YELLEMAN",
        "ward": "DAKAIYAWA",
        "lga": "KAUGAMA",
        "state": "JIGAWA"
      }
    },
    {
      "type": "Feature",
      "geometry": {
        "type": "Point",
        "coordinates": [
          9.868764,
          12.3508597
        ]
      },
      "properties": {
        "name": "JSS YELLEMAN HAUSAWA",
        "ward": "DAKAIYAWA",
        "lga": "KAUGAMA",
        "state": "JIGAWA"
      }
    },
    {
      "type": "Feature",
      "geometry": {
        "type": "Point",
        "coordinates": [
          10.040496,
          12.4506066
        ]
      },
      "properties": {
        "name": "KAUGAMA SPECIAL PRI. SCH. /KAUGAMA I",
        "ward": "KAUGAMA",
        "lga": "KAUGAMA",
        "state": "JIGAWA"
      }
    },
    {
      "type": "Feature",
      "geometry": {
        "type": "Point",
        "coordinates": [
          10.040496,
          12.4506066
        ]
      },
      "properties": {
        "name": "KAUGAMA SPECIAL PRI. SCH./KAUGAMA II",
        "ward": "KAUGAMA",
        "lga": "KAUGAMA",
        "state": "JIGAWA"
      }
    },
    {
      "type": "Feature",
      "geometry": {
        "type": "Point",
        "coordinates": [
          9.868764,
          12.3508597
        ]
      },
      "properties": {
        "name": "KAUGAMA  BLIND CENTRE/ KAUGAMA",
        "ward": "KAUGAMA",
        "lga": "KAUGAMA",
        "state": "JIGAWA"
      }
    },
    {
      "type": "Feature",
      "geometry": {
        "type": "Point",
        "coordinates": [
          9.7678687,
          12.4897211
        ]
      },
      "properties": {
        "name": "KOFAR M. MU'AZU/KAUGAMA",
        "ward": "KAUGAMA",
        "lga": "KAUGAMA",
        "state": "JIGAWA"
      }
    },
    {
      "type": "Feature",
      "geometry": {
        "type": "Point",
        "coordinates": [
          9.868764,
          12.3508597
        ]
      },
      "properties": {
        "name": "J.S.S KAUGAMA/KAUGAMA I",
        "ward": "KAUGAMA",
        "lga": "KAUGAMA",
        "state": "JIGAWA"
      }
    },
    {
      "type": "Feature",
      "geometry": {
        "type": "Point",
        "coordinates": [
          9.868764,
          12.3508597
        ]
      },
      "properties": {
        "name": "J.S.S KAUGAMA/KAUGAMA II",
        "ward": "KAUGAMA",
        "lga": "KAUGAMA",
        "state": "JIGAWA"
      }
    },
    {
      "type": "Feature",
      "geometry": {
        "type": "Point",
        "coordinates": [
          10.040496,
          12.4506066
        ]
      },
      "properties": {
        "name": "TURIM PRI. SCH. /TURMI",
        "ward": "KAUGAMA",
        "lga": "KAUGAMA",
        "state": "JIGAWA"
      }
    },
    {
      "type": "Feature",
      "geometry": {
        "type": "Point",
        "coordinates": [
          9.7380516,
          12.4764498
        ]
      },
      "properties": {
        "name": "DANDALIN TURMI/TURMI",
        "ward": "KAUGAMA",
        "lga": "KAUGAMA",
        "state": "JIGAWA"
      }
    },
    {
      "type": "Feature",
      "geometry": {
        "type": "Point",
        "coordinates": [
          11.0454842,
          11.6688802
        ]
      },
      "properties": {
        "name": "MAIKYARI PRI. SCH./ MAIKYARI",
        "ward": "KAUGAMA",
        "lga": "KAUGAMA",
        "state": "JIGAWA"
      }
    },
    {
      "type": "Feature",
      "geometry": {
        "type": "Point",
        "coordinates": [
          9.868764,
          12.3508597
        ]
      },
      "properties": {
        "name": "CHIROMA ADAM DANDALI/CHIROMA",
        "ward": "KAUGAMA",
        "lga": "KAUGAMA",
        "state": "JIGAWA"
      }
    },
    {
      "type": "Feature",
      "geometry": {
        "type": "Point",
        "coordinates": [
          9.7678687,
          12.4897211
        ]
      },
      "properties": {
        "name": "KAUGAMA LUNGU",
        "ward": "KAUGAMA",
        "lga": "KAUGAMA",
        "state": "JIGAWA"
      }
    },
    {
      "type": "Feature",
      "geometry": {
        "type": "Point",
        "coordinates": [
          10.040496,
          12.4506066
        ]
      },
      "properties": {
        "name": "EDUCATION KAUGAMA",
        "ward": "KAUGAMA",
        "lga": "KAUGAMA",
        "state": "JIGAWA"
      }
    },
    {
      "type": "Feature",
      "geometry": {
        "type": "Point",
        "coordinates": [
          9.0631102,
          11.973104
        ]
      },
      "properties": {
        "name": "NURULHUDA ISLAMIYYA PRI. SCH.",
        "ward": "KAUGAMA",
        "lga": "KAUGAMA",
        "state": "JIGAWA"
      }
    },
    {
      "type": "Feature",
      "geometry": {
        "type": "Point",
        "coordinates": [
          9.7380516,
          12.4764498
        ]
      },
      "properties": {
        "name": "KAUGAMA WOMEN CENTER",
        "ward": "KAUGAMA",
        "lga": "KAUGAMA",
        "state": "JIGAWA"
      }
    },
    {
      "type": "Feature",
      "geometry": {
        "type": "Point",
        "coordinates": [
          9.7678687,
          12.4897211
        ]
      },
      "properties": {
        "name": "JASS KAUGAMA",
        "ward": "KAUGAMA",
        "lga": "KAUGAMA",
        "state": "JIGAWA"
      }
    },
    {
      "type": "Feature",
      "geometry": {
        "type": "Point",
        "coordinates": [
          10.040496,
          12.4506066
        ]
      },
      "properties": {
        "name": "YAMMA PRI. SCH.",
        "ward": "KAUGAMA",
        "lga": "KAUGAMA",
        "state": "JIGAWA"
      }
    },
    {
      "type": "Feature",
      "geometry": {
        "type": "Point",
        "coordinates": [
          10.040496,
          12.4506066
        ]
      },
      "properties": {
        "name": "TURMI PRI. SCH. II",
        "ward": "KAUGAMA",
        "lga": "KAUGAMA",
        "state": "JIGAWA"
      }
    },
    {
      "type": "Feature",
      "geometry": {
        "type": "Point",
        "coordinates": [
          9.7121206,
          12.4350697
        ]
      },
      "properties": {
        "name": "DANDALIN TURMI",
        "ward": "KAUGAMA",
        "lga": "KAUGAMA",
        "state": "JIGAWA"
      }
    },
    {
      "type": "Feature",
      "geometry": {
        "type": "Point",
        "coordinates": [
          10.040496,
          12.4506066
        ]
      },
      "properties": {
        "name": "GAKORI PRI. SCH. II",
        "ward": "KAUGAMA",
        "lga": "KAUGAMA",
        "state": "JIGAWA"
      }
    },
    {
      "type": "Feature",
      "geometry": {
        "type": "Point",
        "coordinates": [
          9.7380516,
          12.4764498
        ]
      },
      "properties": {
        "name": "ANNUR QTRS PLAY GROUND",
        "ward": "KAUGAMA",
        "lga": "KAUGAMA",
        "state": "JIGAWA"
      }
    },
    {
      "type": "Feature",
      "geometry": {
        "type": "Point",
        "coordinates": [
          9.7200412,
          12.3209625
        ]
      },
      "properties": {
        "name": "YALO PRI. SCH. /YALO I",
        "ward": "YALO",
        "lga": "KAUGAMA",
        "state": "JIGAWA"
      }
    },
    {
      "type": "Feature",
      "geometry": {
        "type": "Point",
        "coordinates": [
          9.7200412,
          12.3209625
        ]
      },
      "properties": {
        "name": "YALO PRI. SCH./ YALO II",
        "ward": "YALO",
        "lga": "KAUGAMA",
        "state": "JIGAWA"
      }
    },
    {
      "type": "Feature",
      "geometry": {
        "type": "Point",
        "coordinates": [
          10.040496,
          12.4506066
        ]
      },
      "properties": {
        "name": "KWANDIGA  PRI. SCH./ KWANDIGA",
        "ward": "YALO",
        "lga": "KAUGAMA",
        "state": "JIGAWA"
      }
    },
    {
      "type": "Feature",
      "geometry": {
        "type": "Point",
        "coordinates": [
          10.040496,
          12.4506066
        ]
      },
      "properties": {
        "name": "MANLAFIYA PRI. SCH. / KWANDIGA",
        "ward": "YALO",
        "lga": "KAUGAMA",
        "state": "JIGAWA"
      }
    },
    {
      "type": "Feature",
      "geometry": {
        "type": "Point",
        "coordinates": [
          10.0401597,
          12.4513528
        ]
      },
      "properties": {
        "name": "MASAMA PRI. SCH. / MASAMA",
        "ward": "YALO",
        "lga": "KAUGAMA",
        "state": "JIGAWA"
      }
    },
    {
      "type": "Feature",
      "geometry": {
        "type": "Point",
        "coordinates": [
          9.868764,
          12.3508597
        ]
      },
      "properties": {
        "name": "BAYIN TUDU",
        "ward": "YALO",
        "lga": "KAUGAMA",
        "state": "JIGAWA"
      }
    },
    {
      "type": "Feature",
      "geometry": {
        "type": "Point",
        "coordinates": [
          9.3339187,
          11.7024113
        ]
      },
      "properties": {
        "name": "JSS YALO I",
        "ward": "YALO",
        "lga": "KAUGAMA",
        "state": "JIGAWA"
      }
    },
    {
      "type": "Feature",
      "geometry": {
        "type": "Point",
        "coordinates": [
          9.6452714,
          12.3921423
        ]
      },
      "properties": {
        "name": "UNGUWAR JIBRIN PRI. SCH. / UNGUWA I",
        "ward": "UNGUWAR JIBRIN",
        "lga": "KAUGAMA",
        "state": "JIGAWA"
      }
    },
    {
      "type": "Feature",
      "geometry": {
        "type": "Point",
        "coordinates": [
          9.6452714,
          12.3921423
        ]
      },
      "properties": {
        "name": "UNGUWAR JIBRIN PRI. SCH/ UNGUWA II",
        "ward": "UNGUWAR JIBRIN",
        "lga": "KAUGAMA",
        "state": "JIGAWA"
      }
    },
    {
      "type": "Feature",
      "geometry": {
        "type": "Point",
        "coordinates": [
          9.6882647,
          12.4106096
        ]
      },
      "properties": {
        "name": "KANOKE PRI. SCH./ KANOKE",
        "ward": "UNGUWAR JIBRIN",
        "lga": "KAUGAMA",
        "state": "JIGAWA"
      }
    },
    {
      "type": "Feature",
      "geometry": {
        "type": "Point",
        "coordinates": [
          9.868764,
          12.3508597
        ]
      },
      "properties": {
        "name": "DANDALIN M. ISA/MALAN ISA",
        "ward": "UNGUWAR JIBRIN",
        "lga": "KAUGAMA",
        "state": "JIGAWA"
      }
    },
    {
      "type": "Feature",
      "geometry": {
        "type": "Point",
        "coordinates": [
          10.040496,
          12.4506066
        ]
      },
      "properties": {
        "name": "K/KWANCE PRI. SCH / KUKAKWANCE",
        "ward": "UNGUWAR JIBRIN",
        "lga": "KAUGAMA",
        "state": "JIGAWA"
      }
    },
    {
      "type": "Feature",
      "geometry": {
        "type": "Point",
        "coordinates": [
          9.63718,
          12.4217309
        ]
      },
      "properties": {
        "name": "DANZABIYA PRI. SCH. / DANZABIYA",
        "ward": "UNGUWAR JIBRIN",
        "lga": "KAUGAMA",
        "state": "JIGAWA"
      }
    },
    {
      "type": "Feature",
      "geometry": {
        "type": "Point",
        "coordinates": [
          10.040496,
          12.4506066
        ]
      },
      "properties": {
        "name": "DANDALIN GANGARA/GANGARA",
        "ward": "UNGUWAR JIBRIN",
        "lga": "KAUGAMA",
        "state": "JIGAWA"
      }
    },
    {
      "type": "Feature",
      "geometry": {
        "type": "Point",
        "coordinates": [
          9.868764,
          12.3508597
        ]
      },
      "properties": {
        "name": "MOTSO",
        "ward": "UNGUWAR JIBRIN",
        "lga": "KAUGAMA",
        "state": "JIGAWA"
      }
    },
    {
      "type": "Feature",
      "geometry": {
        "type": "Point",
        "coordinates": [
          8.523845099999999,
          12.0107829
        ]
      },
      "properties": {
        "name": "JSS UNGUWAR JIBRIN",
        "ward": "UNGUWAR JIBRIN",
        "lga": "KAUGAMA",
        "state": "JIGAWA"
      }
    },
    {
      "type": "Feature",
      "geometry": {
        "type": "Point",
        "coordinates": [
          8.1265612,
          12.4210453
        ]
      },
      "properties": {
        "name": "DANZABIYA PRI. SCH II",
        "ward": "UNGUWAR JIBRIN",
        "lga": "KAUGAMA",
        "state": "JIGAWA"
      }
    },
    {
      "type": "Feature",
      "geometry": {
        "type": "Point",
        "coordinates": [
          10.040496,
          12.4506066
        ]
      },
      "properties": {
        "name": "GANGARA PRI. SCH.",
        "ward": "UNGUWAR JIBRIN",
        "lga": "KAUGAMA",
        "state": "JIGAWA"
      }
    },
    {
      "type": "Feature",
      "geometry": {
        "type": "Point",
        "coordinates": [
          9.8823403,
          12.569258
        ]
      },
      "properties": {
        "name": "GARIN BARMA KUDU PRI. SCH. I",
        "ward": "MAKA DDARI",
        "lga": "MALAM MADORI",
        "state": "JIGAWA"
      }
    },
    {
      "type": "Feature",
      "geometry": {
        "type": "Point",
        "coordinates": [
          9.8823403,
          12.569258
        ]
      },
      "properties": {
        "name": "GARIN BARMA KUDU PRI. SCH. II",
        "ward": "MAKA DDARI",
        "lga": "MALAM MADORI",
        "state": "JIGAWA"
      }
    },
    {
      "type": "Feature",
      "geometry": {
        "type": "Point",
        "coordinates": [
          9.8829774,
          12.5647988
        ]
      },
      "properties": {
        "name": "MAKADDARI YAMMA",
        "ward": "MAKA DDARI",
        "lga": "MALAM MADORI",
        "state": "JIGAWA"
      }
    },
    {
      "type": "Feature",
      "geometry": {
        "type": "Point",
        "coordinates": [
          9.8823403,
          12.569258
        ]
      },
      "properties": {
        "name": "PRY SCH/MAKADDARI AREWA",
        "ward": "MAKA DDARI",
        "lga": "MALAM MADORI",
        "state": "JIGAWA"
      }
    },
    {
      "type": "Feature",
      "geometry": {
        "type": "Point",
        "coordinates": [
          9.8823403,
          12.569258
        ]
      },
      "properties": {
        "name": "KARGON MAMMAN PRI. SCH.",
        "ward": "MAKA DDARI",
        "lga": "MALAM MADORI",
        "state": "JIGAWA"
      }
    },
    {
      "type": "Feature",
      "geometry": {
        "type": "Point",
        "coordinates": [
          9.8823403,
          12.569258
        ]
      },
      "properties": {
        "name": "DOGON MARKEN GALADIMA PRI. SCH.",
        "ward": "TONIKUTARA",
        "lga": "MALAM MADORI",
        "state": "JIGAWA"
      }
    },
    {
      "type": "Feature",
      "geometry": {
        "type": "Point",
        "coordinates": [
          10.0236427,
          12.5281899
        ]
      },
      "properties": {
        "name": "GIDAN MAIGARI/JIGAWAR MUSA",
        "ward": "TONIKUTARA",
        "lga": "MALAM MADORI",
        "state": "JIGAWA"
      }
    },
    {
      "type": "Feature",
      "geometry": {
        "type": "Point",
        "coordinates": [
          9.8823403,
          12.569258
        ]
      },
      "properties": {
        "name": "CHIROMARI PRI. SCH.",
        "ward": "TONIKUTARA",
        "lga": "MALAM MADORI",
        "state": "JIGAWA"
      }
    },
    {
      "type": "Feature",
      "geometry": {
        "type": "Point",
        "coordinates": [
          10.0236427,
          12.5281899
        ]
      },
      "properties": {
        "name": "TONIKUTARA PRI. SCH.",
        "ward": "TONIKUTARA",
        "lga": "MALAM MADORI",
        "state": "JIGAWA"
      }
    },
    {
      "type": "Feature",
      "geometry": {
        "type": "Point",
        "coordinates": [
          10.0236427,
          12.5281899
        ]
      },
      "properties": {
        "name": "GIDAN MAIGARI/DOGON MARKEN GASHARE",
        "ward": "TONIKUTARA",
        "lga": "MALAM MADORI",
        "state": "JIGAWA"
      }
    },
    {
      "type": "Feature",
      "geometry": {
        "type": "Point",
        "coordinates": [
          10.0236427,
          12.5281899
        ]
      },
      "properties": {
        "name": "GIDAN MAIUNGUWA/GANDUN BINDIGOMA",
        "ward": "TONIKUTARA",
        "lga": "MALAM MADORI",
        "state": "JIGAWA"
      }
    },
    {
      "type": "Feature",
      "geometry": {
        "type": "Point",
        "coordinates": [
          10.0410391,
          12.4630575
        ]
      },
      "properties": {
        "name": "GANDUN SARKI PRI. SCH. II",
        "ward": "TONIKUTARA",
        "lga": "MALAM MADORI",
        "state": "JIGAWA"
      }
    },
    {
      "type": "Feature",
      "geometry": {
        "type": "Point",
        "coordinates": [
          10.0511017,
          12.4442567
        ]
      },
      "properties": {
        "name": "A.T.C. HADEJIA/A.T.C HADEJIA",
        "ward": "TONIKUTARA",
        "lga": "MALAM MADORI",
        "state": "JIGAWA"
      }
    },
    {
      "type": "Feature",
      "geometry": {
        "type": "Point",
        "coordinates": [
          9.8823403,
          12.569258
        ]
      },
      "properties": {
        "name": "GANDUN SARKI PRI. SCH. III",
        "ward": "TONIKUTARA",
        "lga": "MALAM MADORI",
        "state": "JIGAWA"
      }
    },
    {
      "type": "Feature",
      "geometry": {
        "type": "Point",
        "coordinates": [
          10.2876878,
          12.3045528
        ]
      },
      "properties": {
        "name": "TASHENA PRI. SCH. I",
        "ward": "TASHENA",
        "lga": "MALAM MADORI",
        "state": "JIGAWA"
      }
    },
    {
      "type": "Feature",
      "geometry": {
        "type": "Point",
        "coordinates": [
          9.8823403,
          12.569258
        ]
      },
      "properties": {
        "name": "JAMA'ARE QUARTERS/JAMA'ARE QUARTERS",
        "ward": "TASHENA",
        "lga": "MALAM MADORI",
        "state": "JIGAWA"
      }
    },
    {
      "type": "Feature",
      "geometry": {
        "type": "Point",
        "coordinates": [
          9.8823403,
          12.569258
        ]
      },
      "properties": {
        "name": "KADUME PRI. SCH. II",
        "ward": "TASHENA",
        "lga": "MALAM MADORI",
        "state": "JIGAWA"
      }
    },
    {
      "type": "Feature",
      "geometry": {
        "type": "Point",
        "coordinates": [
          10.2876878,
          12.3045528
        ]
      },
      "properties": {
        "name": "TASHENA PRI. SCH. II",
        "ward": "TASHENA",
        "lga": "MALAM MADORI",
        "state": "JIGAWA"
      }
    },
    {
      "type": "Feature",
      "geometry": {
        "type": "Point",
        "coordinates": [
          9.8823403,
          12.569258
        ]
      },
      "properties": {
        "name": "GIDAN MAI GARI AZAMU I",
        "ward": "TASHENA",
        "lga": "MALAM MADORI",
        "state": "JIGAWA"
      }
    },
    {
      "type": "Feature",
      "geometry": {
        "type": "Point",
        "coordinates": [
          10.1257467,
          12.5611505
        ]
      },
      "properties": {
        "name": "YALWAN BABALE PRI. SCH.",
        "ward": "TAGWARO",
        "lga": "MALAM MADORI",
        "state": "JIGAWA"
      }
    },
    {
      "type": "Feature",
      "geometry": {
        "type": "Point",
        "coordinates": [
          9.8823403,
          12.569258
        ]
      },
      "properties": {
        "name": "KACHAKAMA PRI. SCH.",
        "ward": "TAGWARO",
        "lga": "MALAM MADORI",
        "state": "JIGAWA"
      }
    },
    {
      "type": "Feature",
      "geometry": {
        "type": "Point",
        "coordinates": [
          8.5840383,
          11.9825637
        ]
      },
      "properties": {
        "name": "GIDAN MAIGARI/KAFIN GURNO",
        "ward": "TAGWARO",
        "lga": "MALAM MADORI",
        "state": "JIGAWA"
      }
    },
    {
      "type": "Feature",
      "geometry": {
        "type": "Point",
        "coordinates": [
          5.3589544,
          13.2452587
        ]
      },
      "properties": {
        "name": "GIDAN MAIGARI/DOGON JEJI",
        "ward": "TAGWARO",
        "lga": "MALAM MADORI",
        "state": "JIGAWA"
      }
    },
    {
      "type": "Feature",
      "geometry": {
        "type": "Point",
        "coordinates": [
          9.8823403,
          12.569258
        ]
      },
      "properties": {
        "name": "KICHIDUNE PRI. SCH.",
        "ward": "TAGWARO",
        "lga": "MALAM MADORI",
        "state": "JIGAWA"
      }
    },
    {
      "type": "Feature",
      "geometry": {
        "type": "Point",
        "coordinates": [
          9.8823403,
          12.569258
        ]
      },
      "properties": {
        "name": "TAGWARO PRI. SCH. II",
        "ward": "TAGWARO",
        "lga": "MALAM MADORI",
        "state": "JIGAWA"
      }
    },
    {
      "type": "Feature",
      "geometry": {
        "type": "Point",
        "coordinates": [
          9.8823403,
          12.569258
        ]
      },
      "properties": {
        "name": "DINFIDUWA PRI. SCH./DINFIDUWA",
        "ward": "SHAIYA",
        "lga": "MALAM MADORI",
        "state": "JIGAWA"
      }
    },
    {
      "type": "Feature",
      "geometry": {
        "type": "Point",
        "coordinates": [
          9.7644907,
          11.5384339
        ]
      },
      "properties": {
        "name": "SHAYYA UNGUWAR GABAS PRI. SCH.",
        "ward": "SHAIYA",
        "lga": "MALAM MADORI",
        "state": "JIGAWA"
      }
    },
    {
      "type": "Feature",
      "geometry": {
        "type": "Point",
        "coordinates": [
          9.8823403,
          12.569258
        ]
      },
      "properties": {
        "name": "GIDAN MAIGARI/YALWAN  SHAYYA",
        "ward": "SHAIYA",
        "lga": "MALAM MADORI",
        "state": "JIGAWA"
      }
    },
    {
      "type": "Feature",
      "geometry": {
        "type": "Point",
        "coordinates": [
          9.8823403,
          12.569258
        ]
      },
      "properties": {
        "name": "GIDAN MAIGARI/BURUKU DALA",
        "ward": "SHAIYA",
        "lga": "MALAM MADORI",
        "state": "JIGAWA"
      }
    },
    {
      "type": "Feature",
      "geometry": {
        "type": "Point",
        "coordinates": [
          9.880964,
          12.5652068
        ]
      },
      "properties": {
        "name": "KOFAR MADAKI",
        "ward": "SHAIYA",
        "lga": "MALAM MADORI",
        "state": "JIGAWA"
      }
    },
    {
      "type": "Feature",
      "geometry": {
        "type": "Point",
        "coordinates": [
          9.9764625,
          12.4994959
        ]
      },
      "properties": {
        "name": "BAGUWAR HABE  PRI. SCH.",
        "ward": "FATEKA AKURYA",
        "lga": "MALAM MADORI",
        "state": "JIGAWA"
      }
    },
    {
      "type": "Feature",
      "geometry": {
        "type": "Point",
        "coordinates": [
          9.9277366,
          12.5255635
        ]
      },
      "properties": {
        "name": "CHANCHANDA PRI. SCH.",
        "ward": "FATEKA AKURYA",
        "lga": "MALAM MADORI",
        "state": "JIGAWA"
      }
    },
    {
      "type": "Feature",
      "geometry": {
        "type": "Point",
        "coordinates": [
          9.8823403,
          12.569258
        ]
      },
      "properties": {
        "name": "AGIN PRI. SCH AGIN I",
        "ward": "ARKI",
        "lga": "MALAM MADORI",
        "state": "JIGAWA"
      }
    },
    {
      "type": "Feature",
      "geometry": {
        "type": "Point",
        "coordinates": [
          9.880964,
          12.5652068
        ]
      },
      "properties": {
        "name": "KOFAR MAIGARI/KUFURDU",
        "ward": "ARKI",
        "lga": "MALAM MADORI",
        "state": "JIGAWA"
      }
    },
    {
      "type": "Feature",
      "geometry": {
        "type": "Point",
        "coordinates": [
          9.9755941,
          12.4021879
        ]
      },
      "properties": {
        "name": "ARKI PRI. SCH.  ARKI I",
        "ward": "ARKI",
        "lga": "MALAM MADORI",
        "state": "JIGAWA"
      }
    },
    {
      "type": "Feature",
      "geometry": {
        "type": "Point",
        "coordinates": [
          9.8823403,
          12.569258
        ]
      },
      "properties": {
        "name": "TOSARAWAN YOLAN PRI. SCH. I",
        "ward": "ARKI",
        "lga": "MALAM MADORI",
        "state": "JIGAWA"
      }
    },
    {
      "type": "Feature",
      "geometry": {
        "type": "Point",
        "coordinates": [
          9.880964,
          12.5652068
        ]
      },
      "properties": {
        "name": "KOFAR MAIGARI/MAJIRGA",
        "ward": "ARKI",
        "lga": "MALAM MADORI",
        "state": "JIGAWA"
      }
    },
    {
      "type": "Feature",
      "geometry": {
        "type": "Point",
        "coordinates": [
          10.0401597,
          12.4513528
        ]
      },
      "properties": {
        "name": "MATSA PRI. SCH. I",
        "ward": "ARKI",
        "lga": "MALAM MADORI",
        "state": "JIGAWA"
      }
    },
    {
      "type": "Feature",
      "geometry": {
        "type": "Point",
        "coordinates": [
          9.8823403,
          12.569258
        ]
      },
      "properties": {
        "name": "AGIN PRIMARY SCHOOL II",
        "ward": "ARKI",
        "lga": "MALAM MADORI",
        "state": "JIGAWA"
      }
    },
    {
      "type": "Feature",
      "geometry": {
        "type": "Point",
        "coordinates": [
          10.040496,
          12.4506066
        ]
      },
      "properties": {
        "name": "ARKI PRIMARY SCHOOL II",
        "ward": "ARKI",
        "lga": "MALAM MADORI",
        "state": "JIGAWA"
      }
    },
    {
      "type": "Feature",
      "geometry": {
        "type": "Point",
        "coordinates": [
          11.0454842,
          11.6688802
        ]
      },
      "properties": {
        "name": "TOSARAWAN YOLAN PRI. SCH. II",
        "ward": "ARKI",
        "lga": "MALAM MADORI",
        "state": "JIGAWA"
      }
    },
    {
      "type": "Feature",
      "geometry": {
        "type": "Point",
        "coordinates": [
          10.0401597,
          12.4513528
        ]
      },
      "properties": {
        "name": "MATSA PRI. SCH. I",
        "ward": "ARKI",
        "lga": "MALAM MADORI",
        "state": "JIGAWA"
      }
    },
    {
      "type": "Feature",
      "geometry": {
        "type": "Point",
        "coordinates": [
          9.9238519,
          12.5593187
        ]
      },
      "properties": {
        "name": "GIDAN MAI UNGUWA/MANOMI GABAS",
        "ward": "MAIRA KUMI-BARA MUSA",
        "lga": "MALAM MADORI",
        "state": "JIGAWA"
      }
    },
    {
      "type": "Feature",
      "geometry": {
        "type": "Point",
        "coordinates": [
          9.8823403,
          12.569258
        ]
      },
      "properties": {
        "name": "MAIRAKUMI AREWA PRI. SCH. I",
        "ward": "MAIRA KUMI-BARA MUSA",
        "lga": "MALAM MADORI",
        "state": "JIGAWA"
      }
    },
    {
      "type": "Feature",
      "geometry": {
        "type": "Point",
        "coordinates": [
          9.8823403,
          12.569258
        ]
      },
      "properties": {
        "name": "KASHINDILA PRI. SCH. I",
        "ward": "MAIRA KUMI-BARA MUSA",
        "lga": "MALAM MADORI",
        "state": "JIGAWA"
      }
    },
    {
      "type": "Feature",
      "geometry": {
        "type": "Point",
        "coordinates": [
          9.8823403,
          12.569258
        ]
      },
      "properties": {
        "name": "KASHINDILA PRI. SCH. II",
        "ward": "MAIRA KUMI-BARA MUSA",
        "lga": "MALAM MADORI",
        "state": "JIGAWA"
      }
    },
    {
      "type": "Feature",
      "geometry": {
        "type": "Point",
        "coordinates": [
          10.0404225,
          12.4505851
        ]
      },
      "properties": {
        "name": "UNGUWAR FADA/UNGUWAR FADA",
        "ward": "GARIN GABAS",
        "lga": "MALAM MADORI",
        "state": "JIGAWA"
      }
    },
    {
      "type": "Feature",
      "geometry": {
        "type": "Point",
        "coordinates": [
          9.8823403,
          12.569258
        ]
      },
      "properties": {
        "name": "GARI GABAS TSOHUWA PRI. SCH.",
        "ward": "GARIN GABAS",
        "lga": "MALAM MADORI",
        "state": "JIGAWA"
      }
    },
    {
      "type": "Feature",
      "geometry": {
        "type": "Point",
        "coordinates": [
          9.8823403,
          12.569258
        ]
      },
      "properties": {
        "name": "JALAWA PRI. SCH.",
        "ward": "GARIN GABAS",
        "lga": "MALAM MADORI",
        "state": "JIGAWA"
      }
    },
    {
      "type": "Feature",
      "geometry": {
        "type": "Point",
        "coordinates": [
          10.0404225,
          12.4505851
        ]
      },
      "properties": {
        "name": "DISPENSARY OFFICE/BAKIN KASUWA",
        "ward": "GARIN GABAS",
        "lga": "MALAM MADORI",
        "state": "JIGAWA"
      }
    },
    {
      "type": "Feature",
      "geometry": {
        "type": "Point",
        "coordinates": [
          9.8823403,
          12.569258
        ]
      },
      "properties": {
        "name": "TSOHUWAR PRIMARY SCHOOL I",
        "ward": "GARIN GABAS",
        "lga": "MALAM MADORI",
        "state": "JIGAWA"
      }
    },
    {
      "type": "Feature",
      "geometry": {
        "type": "Point",
        "coordinates": [
          10.0404225,
          12.4505851
        ]
      },
      "properties": {
        "name": "DISPENSARY BAKIN KASUWA I",
        "ward": "GARIN GABAS",
        "lga": "MALAM MADORI",
        "state": "JIGAWA"
      }
    },
    {
      "type": "Feature",
      "geometry": {
        "type": "Point",
        "coordinates": [
          9.8823403,
          12.569258
        ]
      },
      "properties": {
        "name": "BARCHE ABAKADE PRI. SCH.",
        "ward": "DUNARI",
        "lga": "MALAM MADORI",
        "state": "JIGAWA"
      }
    },
    {
      "type": "Feature",
      "geometry": {
        "type": "Point",
        "coordinates": [
          9.9552834,
          12.6238897
        ]
      },
      "properties": {
        "name": "KIRFOWA PRI. SCH.",
        "ward": "DUNARI",
        "lga": "MALAM MADORI",
        "state": "JIGAWA"
      }
    },
    {
      "type": "Feature",
      "geometry": {
        "type": "Point",
        "coordinates": [
          9.8823403,
          12.569258
        ]
      },
      "properties": {
        "name": "DUNARI PRI. SCH. I",
        "ward": "DUNARI",
        "lga": "MALAM MADORI",
        "state": "JIGAWA"
      }
    },
    {
      "type": "Feature",
      "geometry": {
        "type": "Point",
        "coordinates": [
          9.8823403,
          12.569258
        ]
      },
      "properties": {
        "name": "DUNARI PRI. SCH. II",
        "ward": "DUNARI",
        "lga": "MALAM MADORI",
        "state": "JIGAWA"
      }
    },
    {
      "type": "Feature",
      "geometry": {
        "type": "Point",
        "coordinates": [
          9.8823403,
          12.569258
        ]
      },
      "properties": {
        "name": "MATARAR BINDI P.S",
        "ward": "DUNARI",
        "lga": "MALAM MADORI",
        "state": "JIGAWA"
      }
    },
    {
      "type": "Feature",
      "geometry": {
        "type": "Point",
        "coordinates": [
          9.8823403,
          12.569258
        ]
      },
      "properties": {
        "name": "WALMARI PRI SCH.",
        "ward": "DUNARI",
        "lga": "MALAM MADORI",
        "state": "JIGAWA"
      }
    },
    {
      "type": "Feature",
      "geometry": {
        "type": "Point",
        "coordinates": [
          9.8823403,
          12.569258
        ]
      },
      "properties": {
        "name": "KAMPALA PRI. SCH. I",
        "ward": "DUNARI",
        "lga": "MALAM MADORI",
        "state": "JIGAWA"
      }
    },
    {
      "type": "Feature",
      "geometry": {
        "type": "Point",
        "coordinates": [
          9.8823403,
          12.569258
        ]
      },
      "properties": {
        "name": "KAMPALA PRI. SCH. II",
        "ward": "DUNARI",
        "lga": "MALAM MADORI",
        "state": "JIGAWA"
      }
    },
    {
      "type": "Feature",
      "geometry": {
        "type": "Point",
        "coordinates": [
          9.880964,
          12.5652068
        ]
      },
      "properties": {
        "name": "KOFAR GIDAN CHIROMA/GIDAN CHIROMA",
        "ward": "DUNARI",
        "lga": "MALAM MADORI",
        "state": "JIGAWA"
      }
    },
    {
      "type": "Feature",
      "geometry": {
        "type": "Point",
        "coordinates": [
          9.8829774,
          12.5647988
        ]
      },
      "properties": {
        "name": "KOFAR MAIGARI/MAJERIN KABA",
        "ward": "DUNARI",
        "lga": "MALAM MADORI",
        "state": "JIGAWA"
      }
    },
    {
      "type": "Feature",
      "geometry": {
        "type": "Point",
        "coordinates": [
          9.8823403,
          12.569258
        ]
      },
      "properties": {
        "name": "DUNARI PRI. SCH. III",
        "ward": "DUNARI",
        "lga": "MALAM MADORI",
        "state": "JIGAWA"
      }
    },
    {
      "type": "Feature",
      "geometry": {
        "type": "Point",
        "coordinates": [
          9.8823403,
          12.569258
        ]
      },
      "properties": {
        "name": "DUNARI PRI. SCH. IV",
        "ward": "DUNARI",
        "lga": "MALAM MADORI",
        "state": "JIGAWA"
      }
    },
    {
      "type": "Feature",
      "geometry": {
        "type": "Point",
        "coordinates": [
          9.8823403,
          12.569258
        ]
      },
      "properties": {
        "name": "DUNARI PRI. SCH. V",
        "ward": "DUNARI",
        "lga": "MALAM MADORI",
        "state": "JIGAWA"
      }
    },
    {
      "type": "Feature",
      "geometry": {
        "type": "Point",
        "coordinates": [
          9.8823403,
          12.569258
        ]
      },
      "properties": {
        "name": "DUNARI PRI. SCH. VI",
        "ward": "DUNARI",
        "lga": "MALAM MADORI",
        "state": "JIGAWA"
      }
    },
    {
      "type": "Feature",
      "geometry": {
        "type": "Point",
        "coordinates": [
          9.8823403,
          12.569258
        ]
      },
      "properties": {
        "name": "KAMPALA PRI. SCH. III",
        "ward": "DUNARI",
        "lga": "MALAM MADORI",
        "state": "JIGAWA"
      }
    },
    {
      "type": "Feature",
      "geometry": {
        "type": "Point",
        "coordinates": [
          9.8823403,
          12.569258
        ]
      },
      "properties": {
        "name": "KAMPALA PRI. SCH. IV",
        "ward": "DUNARI",
        "lga": "MALAM MADORI",
        "state": "JIGAWA"
      }
    },
    {
      "type": "Feature",
      "geometry": {
        "type": "Point",
        "coordinates": [
          9.8823403,
          12.569258
        ]
      },
      "properties": {
        "name": "KAMPALA PRI. SCH. V",
        "ward": "DUNARI",
        "lga": "MALAM MADORI",
        "state": "JIGAWA"
      }
    },
    {
      "type": "Feature",
      "geometry": {
        "type": "Point",
        "coordinates": [
          9.880964,
          12.5652068
        ]
      },
      "properties": {
        "name": "KOFAR GIDAN JATAU II",
        "ward": "DUNARI",
        "lga": "MALAM MADORI",
        "state": "JIGAWA"
      }
    },
    {
      "type": "Feature",
      "geometry": {
        "type": "Point",
        "coordinates": [
          9.8829774,
          12.5647988
        ]
      },
      "properties": {
        "name": "KOFAR MALAM HALADU/TITIN HALADU  II",
        "ward": "MALAM MADORI",
        "lga": "MALAM MADORI",
        "state": "JIGAWA"
      }
    },
    {
      "type": "Feature",
      "geometry": {
        "type": "Point",
        "coordinates": [
          9.8823403,
          12.569258
        ]
      },
      "properties": {
        "name": "GIDAN MAIGARI / BARAMUSA",
        "ward": "MALAM MADORI",
        "lga": "MALAM MADORI",
        "state": "JIGAWA"
      }
    },
    {
      "type": "Feature",
      "geometry": {
        "type": "Point",
        "coordinates": [
          9.8829774,
          12.5647988
        ]
      },
      "properties": {
        "name": "KOFAR ABDU ATA/GIDAN ABDU ATA",
        "ward": "MALAM MADORI",
        "lga": "MALAM MADORI",
        "state": "JIGAWA"
      }
    },
    {
      "type": "Feature",
      "geometry": {
        "type": "Point",
        "coordinates": [
          9.8823403,
          12.569258
        ]
      },
      "properties": {
        "name": "KOFAR GIDAN MAISHAYI/GIDAN GAJEN MAISHAYI",
        "ward": "MALAM MADORI",
        "lga": "MALAM MADORI",
        "state": "JIGAWA"
      }
    },
    {
      "type": "Feature",
      "geometry": {
        "type": "Point",
        "coordinates": [
          9.8823403,
          12.569258
        ]
      },
      "properties": {
        "name": "GIDAN MAIGARI/KWANKWANI",
        "ward": "MALAM MADORI",
        "lga": "MALAM MADORI",
        "state": "JIGAWA"
      }
    },
    {
      "type": "Feature",
      "geometry": {
        "type": "Point",
        "coordinates": [
          9.8823403,
          12.569258
        ]
      },
      "properties": {
        "name": "GIDAN MAIYARA/UNGUWAR MAIYARA I",
        "ward": "MALAM MADORI",
        "lga": "MALAM MADORI",
        "state": "JIGAWA"
      }
    },
    {
      "type": "Feature",
      "geometry": {
        "type": "Point",
        "coordinates": [
          9.8823403,
          12.569258
        ]
      },
      "properties": {
        "name": "DAKIDO PRI. SCH./UNGUWAR CHIROMA I SHAMAKI",
        "ward": "MALAM MADORI",
        "lga": "MALAM MADORI",
        "state": "JIGAWA"
      }
    },
    {
      "type": "Feature",
      "geometry": {
        "type": "Point",
        "coordinates": [
          9.8823403,
          12.569258
        ]
      },
      "properties": {
        "name": "DAKIDO PRI. SCH./UNGUWAR CHIROMA II SHAMAKI",
        "ward": "MALAM MADORI",
        "lga": "MALAM MADORI",
        "state": "JIGAWA"
      }
    },
    {
      "type": "Feature",
      "geometry": {
        "type": "Point",
        "coordinates": [
          9.8823403,
          12.569258
        ]
      },
      "properties": {
        "name": "GIDAN MAIGARI/GAFAYAN FULANI",
        "ward": "MALAM MADORI",
        "lga": "MALAM MADORI",
        "state": "JIGAWA"
      }
    },
    {
      "type": "Feature",
      "geometry": {
        "type": "Point",
        "coordinates": [
          9.8829774,
          12.5647988
        ]
      },
      "properties": {
        "name": "KOFAR MALAM HALADU/TITIN HALADU  III",
        "ward": "MALAM MADORI",
        "lga": "MALAM MADORI",
        "state": "JIGAWA"
      }
    },
    {
      "type": "Feature",
      "geometry": {
        "type": "Point",
        "coordinates": [
          9.8829774,
          12.5647988
        ]
      },
      "properties": {
        "name": "KOFAR MALAM HALADU/TITIN HALADU  IV",
        "ward": "MALAM MADORI",
        "lga": "MALAM MADORI",
        "state": "JIGAWA"
      }
    },
    {
      "type": "Feature",
      "geometry": {
        "type": "Point",
        "coordinates": [
          9.8823403,
          12.569258
        ]
      },
      "properties": {
        "name": "BAKIN RIJAYA/TUDUN GANA RIJIYA II",
        "ward": "MALAM MADORI",
        "lga": "MALAM MADORI",
        "state": "JIGAWA"
      }
    },
    {
      "type": "Feature",
      "geometry": {
        "type": "Point",
        "coordinates": [
          9.8823403,
          12.569258
        ]
      },
      "properties": {
        "name": "TAHFIZ ISLAMIYYA PRI SCHOOL",
        "ward": "MALAM MADORI",
        "lga": "MALAM MADORI",
        "state": "JIGAWA"
      }
    },
    {
      "type": "Feature",
      "geometry": {
        "type": "Point",
        "coordinates": [
          9.8823403,
          12.569258
        ]
      },
      "properties": {
        "name": "TAHFIZ ISLAMIYYA PRI SCHOOL",
        "ward": "MALAM MADORI",
        "lga": "MALAM MADORI",
        "state": "JIGAWA"
      }
    },
    {
      "type": "Feature",
      "geometry": {
        "type": "Point",
        "coordinates": [
          9.8823403,
          12.569258
        ]
      },
      "properties": {
        "name": "GIDAN MAIYARA/UNGUWAR MAIYARA II",
        "ward": "MALAM MADORI",
        "lga": "MALAM MADORI",
        "state": "JIGAWA"
      }
    },
    {
      "type": "Feature",
      "geometry": {
        "type": "Point",
        "coordinates": [
          9.8823403,
          12.569258
        ]
      },
      "properties": {
        "name": "DAKIDO PRI. SCH. II/UNGUWAR CHIROMA I SHAMAKI",
        "ward": "MALAM MADORI",
        "lga": "MALAM MADORI",
        "state": "JIGAWA"
      }
    },
    {
      "type": "Feature",
      "geometry": {
        "type": "Point",
        "coordinates": [
          7.7052757,
          11.0394974
        ]
      },
      "properties": {
        "name": "KOFAR MALAM DANGWANI/SABON GARI (KOFAR M. DANGWANI) I",
        "ward": "RONI",
        "lga": "RONI",
        "state": "JIGAWA"
      }
    },
    {
      "type": "Feature",
      "geometry": {
        "type": "Point",
        "coordinates": [
          7.7052757,
          11.0394974
        ]
      },
      "properties": {
        "name": "KOFAR MALAM DANGWANI/SABON GARI (KOFAR M. DANGWANI) II",
        "ward": "RONI",
        "lga": "RONI",
        "state": "JIGAWA"
      }
    },
    {
      "type": "Feature",
      "geometry": {
        "type": "Point",
        "coordinates": [
          8.2507962,
          11.9642339
        ]
      },
      "properties": {
        "name": "KUDU PRI. SCH. KOFAR KUDU",
        "ward": "RONI",
        "lga": "RONI",
        "state": "JIGAWA"
      }
    },
    {
      "type": "Feature",
      "geometry": {
        "type": "Point",
        "coordinates": [
          8.5164642,
          12.0044213
        ]
      },
      "properties": {
        "name": "KOFAR GABAS/WAJEN GABAS",
        "ward": "RONI",
        "lga": "RONI",
        "state": "JIGAWA"
      }
    },
    {
      "type": "Feature",
      "geometry": {
        "type": "Point",
        "coordinates": [
          7.7052757,
          11.0394974
        ]
      },
      "properties": {
        "name": "KOFAR MALAM DANGWANI/SABON GARI (KOFAR M. DANGWANI) II",
        "ward": "RONI",
        "lga": "RONI",
        "state": "JIGAWA"
      }
    },
    {
      "type": "Feature",
      "geometry": {
        "type": "Point",
        "coordinates": [
          7.613873199999999,
          12.9770208
        ]
      },
      "properties": {
        "name": "KOFAR MALAM DANGWANI/SABON GARI (KOFAR M. DANGWANI) III",
        "ward": "RONI",
        "lga": "RONI",
        "state": "JIGAWA"
      }
    },
    {
      "type": "Feature",
      "geometry": {
        "type": "Point",
        "coordinates": [
          8.404373699999999,
          12.5610854
        ]
      },
      "properties": {
        "name": "GIDAN MAIUNGUWA/DOGAL",
        "ward": "YANZAKI",
        "lga": "RONI",
        "state": "JIGAWA"
      }
    },
    {
      "type": "Feature",
      "geometry": {
        "type": "Point",
        "coordinates": [
          7.602272699999999,
          11.3159651
        ]
      },
      "properties": {
        "name": "GIDAN MAIUNGUWA/GUMUMA",
        "ward": "YANZAKI",
        "lga": "RONI",
        "state": "JIGAWA"
      }
    },
    {
      "type": "Feature",
      "geometry": {
        "type": "Point",
        "coordinates": [
          7.935001,
          11.5597731
        ]
      },
      "properties": {
        "name": "GIDAN MAIUNGUWA/JANGEFE I",
        "ward": "YANZAKI",
        "lga": "RONI",
        "state": "JIGAWA"
      }
    },
    {
      "type": "Feature",
      "geometry": {
        "type": "Point",
        "coordinates": [
          7.935001,
          11.5597731
        ]
      },
      "properties": {
        "name": "GIDAN MAIUNGUWA/JANGEFE II",
        "ward": "YANZAKI",
        "lga": "RONI",
        "state": "JIGAWA"
      }
    },
    {
      "type": "Feature",
      "geometry": {
        "type": "Point",
        "coordinates": [
          6.725650799999999,
          12.2181276
        ]
      },
      "properties": {
        "name": "GIDAN MAIUNGUWA/YANZAKI",
        "ward": "YANZAKI",
        "lga": "RONI",
        "state": "JIGAWA"
      }
    },
    {
      "type": "Feature",
      "geometry": {
        "type": "Point",
        "coordinates": [
          8.3511777,
          12.5683814
        ]
      },
      "properties": {
        "name": "BARAGUMI PRI. SCH. /BARAGUMI",
        "ward": "BARAGUMI",
        "lga": "RONI",
        "state": "JIGAWA"
      }
    },
    {
      "type": "Feature",
      "geometry": {
        "type": "Point",
        "coordinates": [
          6.0634519,
          10.5901193
        ]
      },
      "properties": {
        "name": "GIDAN S/FULANI/JAMA'AR FULANI  I",
        "ward": "BARAGUMI",
        "lga": "RONI",
        "state": "JIGAWA"
      }
    },
    {
      "type": "Feature",
      "geometry": {
        "type": "Point",
        "coordinates": [
          8.536371599999999,
          12.0239828
        ]
      },
      "properties": {
        "name": "MARKE CIKIN GARI/MARKE I",
        "ward": "BARAGUMI",
        "lga": "RONI",
        "state": "JIGAWA"
      }
    },
    {
      "type": "Feature",
      "geometry": {
        "type": "Point",
        "coordinates": [
          7.7271205,
          11.1066599
        ]
      },
      "properties": {
        "name": "MARKE CIKIN GARI/MARKE II",
        "ward": "BARAGUMI",
        "lga": "RONI",
        "state": "JIGAWA"
      }
    },
    {
      "type": "Feature",
      "geometry": {
        "type": "Point",
        "coordinates": [
          6.639068099999999,
          12.1948633
        ]
      },
      "properties": {
        "name": "MAHUTA PRI. SCH./ MAHUTA",
        "ward": "BARAGUMI",
        "lga": "RONI",
        "state": "JIGAWA"
      }
    },
    {
      "type": "Feature",
      "geometry": {
        "type": "Point",
        "coordinates": [
          8.348670799999999,
          12.5674602
        ]
      },
      "properties": {
        "name": "NANUMAWA PRI. SCH./ NANUMAWA",
        "ward": "BARAGUMI",
        "lga": "RONI",
        "state": "JIGAWA"
      }
    },
    {
      "type": "Feature",
      "geometry": {
        "type": "Point",
        "coordinates": [
          9.320734,
          11.5679694
        ]
      },