{
  "type": "FeatureCollection",
  "features": [
    {
      "type": "Feature",
      "geometry": {
        "type": "Point",
        "coordinates": [
          8.5089427,
          12.4422467
        ]
      },
      "properties": {
        "name": "CHASKO,PRIMARY SCHOOL",
        "ward": "GWANDA",
        "lga": "DANBATA",
        "state": "KANO"
      }
    },
    {
      "type": "Feature",
      "geometry": {
        "type": "Point",
        "coordinates": [
          8.5089427,
          12.4422467
        ]
      },
      "properties": {
        "name": "DIGGOL, PRIMARY SCHOOL",
        "ward": "GWANDA",
        "lga": "DANBATA",
        "state": "KANO"
      }
    },
    {
      "type": "Feature",
      "geometry": {
        "type": "Point",
        "coordinates": [
          8.5089427,
          12.4422467
        ]
      },
      "properties": {
        "name": "DUKAWA GARI, PRIMARY SCHOOL",
        "ward": "GWANDA",
        "lga": "DANBATA",
        "state": "KANO"
      }
    },
    {
      "type": "Feature",
      "geometry": {
        "type": "Point",
        "coordinates": [
          8.5136251,
          12.4268816
        ]
      },
      "properties": {
        "name": "GWANDA GARI, PULIC BUILDING",
        "ward": "GWANDA",
        "lga": "DANBATA",
        "state": "KANO"
      }
    },
    {
      "type": "Feature",
      "geometry": {
        "type": "Point",
        "coordinates": [
          8.514526199999999,
          12.4277208
        ]
      },
      "properties": {
        "name": "KATSERE, OPEN SPACE",
        "ward": "GWANDA",
        "lga": "DANBATA",
        "state": "KANO"
      }
    },
    {
      "type": "Feature",
      "geometry": {
        "type": "Point",
        "coordinates": [
          8.5328087,
          12.0154276
        ]
      },
      "properties": {
        "name": "KATSIRO, OPEN SPACE",
        "ward": "GWANDA",
        "lga": "DANBATA",
        "state": "KANO"
      }
    },
    {
      "type": "Feature",
      "geometry": {
        "type": "Point",
        "coordinates": [
          8.5226015,
          12.4345552
        ]
      },
      "properties": {
        "name": "TUFFOL, OPEN SPOACE",
        "ward": "GWANDA",
        "lga": "DANBATA",
        "state": "KANO"
      }
    },
    {
      "type": "Feature",
      "geometry": {
        "type": "Point",
        "coordinates": [
          8.209678499999999,
          11.8011204
        ]
      },
      "properties": {
        "name": "UNGUWAR BIYU, OPEN SPACE",
        "ward": "GWANDA",
        "lga": "DANBATA",
        "state": "KANO"
      }
    },
    {
      "type": "Feature",
      "geometry": {
        "type": "Point",
        "coordinates": [
          8.514899999999999,
          12.4393
        ]
      },
      "properties": {
        "name": "DIGGOL  II",
        "ward": "GWANDA",
        "lga": "DANBATA",
        "state": "KANO"
      }
    },
    {
      "type": "Feature",
      "geometry": {
        "type": "Point",
        "coordinates": [
          8.5830907,
          12.5643062
        ]
      },
      "properties": {
        "name": "GWANDA II",
        "ward": "GWANDA",
        "lga": "DANBATA",
        "state": "KANO"
      }
    },
    {
      "type": "Feature",
      "geometry": {
        "type": "Point",
        "coordinates": [
          8.5830907,
          12.5643062
        ]
      },
      "properties": {
        "name": "GWANDA III",
        "ward": "GWANDA",
        "lga": "DANBATA",
        "state": "KANO"
      }
    },
    {
      "type": "Feature",
      "geometry": {
        "type": "Point",
        "coordinates": [
          8.5919749,
          12.0021529
        ]
      },
      "properties": {
        "name": "BARO, OPEN SPACE",
        "ward": "GORON MAJE",
        "lga": "DANBATA",
        "state": "KANO"
      }
    },
    {
      "type": "Feature",
      "geometry": {
        "type": "Point",
        "coordinates": [
          8.5109239,
          12.4347245
        ]
      },
      "properties": {
        "name": "GANGARA, OPEN SPACE",
        "ward": "GORON MAJE",
        "lga": "DANBATA",
        "state": "KANO"
      }
    },
    {
      "type": "Feature",
      "geometry": {
        "type": "Point",
        "coordinates": [
          8.521037,
          11.9887832
        ]
      },
      "properties": {
        "name": "GAUDE, OPEN SPACE",
        "ward": "GORON MAJE",
        "lga": "DANBATA",
        "state": "KANO"
      }
    },
    {
      "type": "Feature",
      "geometry": {
        "type": "Point",
        "coordinates": [
          8.5109239,
          12.4347245
        ]
      },
      "properties": {
        "name": "JIMADA, OPEN SPACE",
        "ward": "GORON MAJE",
        "lga": "DANBATA",
        "state": "KANO"
      }
    },
    {
      "type": "Feature",
      "geometry": {
        "type": "Point",
        "coordinates": [
          8.529267599999999,
          11.9996275
        ]
      },
      "properties": {
        "name": "MORE, OPEN SPACE",
        "ward": "GORON MAJE",
        "lga": "DANBATA",
        "state": "KANO"
      }
    },
    {
      "type": "Feature",
      "geometry": {
        "type": "Point",
        "coordinates": [
          8.7060383,
          12.1325627
        ]
      },
      "properties": {
        "name": "SANKARAWA, PRIMARY SCHOOL",
        "ward": "GORON MAJE",
        "lga": "DANBATA",
        "state": "KANO"
      }
    },
    {
      "type": "Feature",
      "geometry": {
        "type": "Point",
        "coordinates": [
          8.5437657,
          11.9437275
        ]
      },
      "properties": {
        "name": "UNGUWAR ALI, PRIMARY SCHOOL",
        "ward": "GORON MAJE",
        "lga": "DANBATA",
        "state": "KANO"
      }
    },
    {
      "type": "Feature",
      "geometry": {
        "type": "Point",
        "coordinates": [
          8.7288391,
          11.8315399
        ]
      },
      "properties": {
        "name": "ZAGO GARI, PRIMARY",
        "ward": "GORON MAJE",
        "lga": "DANBATA",
        "state": "KANO"
      }
    },
    {
      "type": "Feature",
      "geometry": {
        "type": "Point",
        "coordinates": [
          8.531064599999999,
          11.9679569
        ]
      },
      "properties": {
        "name": "FAYEN-FAYEN   II",
        "ward": "GORON MAJE",
        "lga": "DANBATA",
        "state": "KANO"
      }
    },
    {
      "type": "Feature",
      "geometry": {
        "type": "Point",
        "coordinates": [
          8.671060299999999,
          12.515998
        ]
      },
      "properties": {
        "name": "GORON MAJE II",
        "ward": "GORON MAJE",
        "lga": "DANBATA",
        "state": "KANO"
      }
    },
    {
      "type": "Feature",
      "geometry": {
        "type": "Point",
        "coordinates": [
          8.5319051,
          12.0027027
        ]
      },
      "properties": {
        "name": "UNGUWAR ALI  II",
        "ward": "GORON MAJE",
        "lga": "DANBATA",
        "state": "KANO"
      }
    },
    {
      "type": "Feature",
      "geometry": {
        "type": "Point",
        "coordinates": [
          8.671060299999999,
          12.515998
        ]
      },
      "properties": {
        "name": "ZAGO  II",
        "ward": "GORON MAJE",
        "lga": "DANBATA",
        "state": "KANO"
      }
    },
    {
      "type": "Feature",
      "geometry": {
        "type": "Point",
        "coordinates": [
          8.5109058,
          11.9501714
        ]
      },
      "properties": {
        "name": "GANDU, OPEN SPACE",
        "ward": "SAIDAWA",
        "lga": "DANBATA",
        "state": "KANO"
      }
    },
    {
      "type": "Feature",
      "geometry": {
        "type": "Point",
        "coordinates": [
          8.5756395,
          12.3158043
        ]
      },
      "properties": {
        "name": "GEZA, PRIMARY SCHOOL",
        "ward": "SAIDAWA",
        "lga": "DANBATA",
        "state": "KANO"
      }
    },
    {
      "type": "Feature",
      "geometry": {
        "type": "Point",
        "coordinates": [
          8.6174439,
          12.264673
        ]
      },
      "properties": {
        "name": "KOYA ,PRI. SCHOOL",
        "ward": "SAIDAWA",
        "lga": "DANBATA",
        "state": "KANO"
      }
    },
    {
      "type": "Feature",
      "geometry": {
        "type": "Point",
        "coordinates": [
          8.6056134,
          12.3212278
        ]
      },
      "properties": {
        "name": "MAHUTA, PRI. SCHOOL",
        "ward": "SAIDAWA",
        "lga": "DANBATA",
        "state": "KANO"
      }
    },
    {
      "type": "Feature",
      "geometry": {
        "type": "Point",
        "coordinates": [
          8.6292952,
          12.3879388
        ]
      },
      "properties": {
        "name": "MARKE, PRI. SCHOOL",
        "ward": "SAIDAWA",
        "lga": "DANBATA",
        "state": "KANO"
      }
    },
    {
      "type": "Feature",
      "geometry": {
        "type": "Point",
        "coordinates": [
          8.521037,
          11.9887832
        ]
      },
      "properties": {
        "name": "MUNGAWA, OPEN SPACE",
        "ward": "SAIDAWA",
        "lga": "DANBATA",
        "state": "KANO"
      }
    },
    {
      "type": "Feature",
      "geometry": {
        "type": "Point",
        "coordinates": [
          8.6292244,
          12.2748483
        ]
      },
      "properties": {
        "name": "SAIDAWA , PRIMARY SCHOOL",
        "ward": "SAIDAWA",
        "lga": "DANBATA",
        "state": "KANO"
      }
    },
    {
      "type": "Feature",
      "geometry": {
        "type": "Point",
        "coordinates": [
          8.595790899999999,
          12.3745817
        ]
      },
      "properties": {
        "name": "TAKAI, PRIMARY SCHOOL",
        "ward": "SAIDAWA",
        "lga": "DANBATA",
        "state": "KANO"
      }
    },
    {
      "type": "Feature",
      "geometry": {
        "type": "Point",
        "coordinates": [
          8.5919749,
          12.0021529
        ]
      },
      "properties": {
        "name": "TSALLEWA, OPEN SPACE",
        "ward": "SAIDAWA",
        "lga": "DANBATA",
        "state": "KANO"
      }
    },
    {
      "type": "Feature",
      "geometry": {
        "type": "Point",
        "coordinates": [
          8.605073599999999,
          12.3363754
        ]
      },
      "properties": {
        "name": "BIRJI II",
        "ward": "SAIDAWA",
        "lga": "DANBATA",
        "state": "KANO"
      }
    },
    {
      "type": "Feature",
      "geometry": {
        "type": "Point",
        "coordinates": [
          8.6198696,
          12.2641622
        ]
      },
      "properties": {
        "name": "KOYA II",
        "ward": "SAIDAWA",
        "lga": "DANBATA",
        "state": "KANO"
      }
    },
    {
      "type": "Feature",
      "geometry": {
        "type": "Point",
        "coordinates": [
          8.605073599999999,
          12.3363754
        ]
      },
      "properties": {
        "name": "SAIDAWA II",
        "ward": "SAIDAWA",
        "lga": "DANBATA",
        "state": "KANO"
      }
    },
    {
      "type": "Feature",
      "geometry": {
        "type": "Point",
        "coordinates": [
          8.605073599999999,
          12.3363754
        ]
      },
      "properties": {
        "name": "SAIDAWA III",
        "ward": "SAIDAWA",
        "lga": "DANBATA",
        "state": "KANO"
      }
    },
    {
      "type": "Feature",
      "geometry": {
        "type": "Point",
        "coordinates": [
          8.595790899999999,
          12.3745817
        ]
      },
      "properties": {
        "name": "TAKAI II",
        "ward": "SAIDAWA",
        "lga": "DANBATA",
        "state": "KANO"
      }
    },
    {
      "type": "Feature",
      "geometry": {
        "type": "Point",
        "coordinates": [
          8.8845297,
          12.099387
        ]
      },
      "properties": {
        "name": "ZAKIRAI II",
        "ward": "SAIDAWA",
        "lga": "DANBATA",
        "state": "KANO"
      }
    },
    {
      "type": "Feature",
      "geometry": {
        "type": "Point",
        "coordinates": [
          8.5226015,
          12.4345552
        ]
      },
      "properties": {
        "name": "B/ASIBITI, OPEN SPACE",
        "ward": "DANBATTA WEST",
        "lga": "DANBATA",
        "state": "KANO"
      }
    },
    {
      "type": "Feature",
      "geometry": {
        "type": "Point",
        "coordinates": [
          8.4633824,
          12.3629229
        ]
      },
      "properties": {
        "name": "FAGWALO, PRIMARY SCHOOL",
        "ward": "DANBATTA WEST",
        "lga": "DANBATA",
        "state": "KANO"
      }
    },
    {
      "type": "Feature",
      "geometry": {
        "type": "Point",
        "coordinates": [
          8.514526199999999,
          12.4277208
        ]
      },
      "properties": {
        "name": "G/B.A.K., OPEN SPACE",
        "ward": "DANBATTA WEST",
        "lga": "DANBATA",
        "state": "KANO"
      }
    },
    {
      "type": "Feature",
      "geometry": {
        "type": "Point",
        "coordinates": [
          8.514526199999999,
          12.4277208
        ]
      },
      "properties": {
        "name": "GRA, OPEN SPACE",
        "ward": "DANBATTA WEST",
        "lga": "DANBATA",
        "state": "KANO"
      }
    },
    {
      "type": "Feature",
      "geometry": {
        "type": "Point",
        "coordinates": [
          8.5089427,
          12.4422467
        ]
      },
      "properties": {
        "name": "KANTI PRIMARY SCHOOL",
        "ward": "DANBATTA WEST",
        "lga": "DANBATA",
        "state": "KANO"
      }
    },
    {
      "type": "Feature",
      "geometry": {
        "type": "Point",
        "coordinates": [
          8.5109239,
          12.4347245
        ]
      },
      "properties": {
        "name": "G.G.A.S.S. DANBATA",
        "ward": "DANBATTA WEST",
        "lga": "DANBATA",
        "state": "KANO"
      }
    },
    {
      "type": "Feature",
      "geometry": {
        "type": "Point",
        "coordinates": [
          8.5226015,
          12.4345552
        ]
      },
      "properties": {
        "name": "TUKURA, OPEN SPACE",
        "ward": "DANBATTA WEST",
        "lga": "DANBATA",
        "state": "KANO"
      }
    },
    {
      "type": "Feature",
      "geometry": {
        "type": "Point",
        "coordinates": [
          8.5166718,
          12.4332988
        ]
      },
      "properties": {
        "name": "U. HERU, OPEN SPACE",
        "ward": "DANBATTA WEST",
        "lga": "DANBATA",
        "state": "KANO"
      }
    },
    {
      "type": "Feature",
      "geometry": {
        "type": "Point",
        "coordinates": [
          8.6160674,
          12.4382197
        ]
      },
      "properties": {
        "name": "ALFIJIR II",
        "ward": "DANBATTA WEST",
        "lga": "DANBATA",
        "state": "KANO"
      }
    },
    {
      "type": "Feature",
      "geometry": {
        "type": "Point",
        "coordinates": [
          8.6160674,
          12.4382197
        ]
      },
      "properties": {
        "name": "ALFIJIR III",
        "ward": "DANBATTA WEST",
        "lga": "DANBATA",
        "state": "KANO"
      }
    },
    {
      "type": "Feature",
      "geometry": {
        "type": "Point",
        "coordinates": [
          8.514526199999999,
          12.4277208
        ]
      },
      "properties": {
        "name": "ALFIJIR IV",
        "ward": "DANBATTA WEST",
        "lga": "DANBATA",
        "state": "KANO"
      }
    },
    {
      "type": "Feature",
      "geometry": {
        "type": "Point",
        "coordinates": [
          8.6160674,
          12.4382197
        ]
      },
      "properties": {
        "name": "BAYAN ASIBITI II",
        "ward": "DANBATTA WEST",
        "lga": "DANBATA",
        "state": "KANO"
      }
    },
    {
      "type": "Feature",
      "geometry": {
        "type": "Point",
        "coordinates": [
          8.6160674,
          12.4382197
        ]
      },
      "properties": {
        "name": "BAYAN ASIBITI III",
        "ward": "DANBATTA WEST",
        "lga": "DANBATA",
        "state": "KANO"
      }
    },
    {
      "type": "Feature",
      "geometry": {
        "type": "Point",
        "coordinates": [
          8.6160674,
          12.4382197
        ]
      },
      "properties": {
        "name": "GIDAN BAKI II",
        "ward": "DANBATTA WEST",
        "lga": "DANBATA",
        "state": "KANO"
      }
    },
    {
      "type": "Feature",
      "geometry": {
        "type": "Point",
        "coordinates": [
          8.5226015,
          12.4345552
        ]
      },
      "properties": {
        "name": "GIDAN BAKI III",
        "ward": "DANBATTA WEST",
        "lga": "DANBATA",
        "state": "KANO"
      }
    },
    {
      "type": "Feature",
      "geometry": {
        "type": "Point",
        "coordinates": [
          8.518661600000001,
          12.3484777
        ]
      },
      "properties": {
        "name": "U.B.E I",
        "ward": "DANBATTA WEST",
        "lga": "DANBATA",
        "state": "KANO"
      }
    },
    {
      "type": "Feature",
      "geometry": {
        "type": "Point",
        "coordinates": [
          8.5226015,
          12.4345552
        ]
      },
      "properties": {
        "name": "U.B.E II",
        "ward": "DANBATTA WEST",
        "lga": "DANBATA",
        "state": "KANO"
      }
    },
    {
      "type": "Feature",
      "geometry": {
        "type": "Point",
        "coordinates": [
          8.520306399999999,
          12.3400305
        ]
      },
      "properties": {
        "name": "KAUYEN MUDU II",
        "ward": "DANBATTA WEST",
        "lga": "DANBATA",
        "state": "KANO"
      }
    },
    {
      "type": "Feature",
      "geometry": {
        "type": "Point",
        "coordinates": [
          8.6160674,
          12.4382197
        ]
      },
      "properties": {
        "name": "NASSARAWA   II",
        "ward": "DANBATTA WEST",
        "lga": "DANBATA",
        "state": "KANO"
      }
    },
    {
      "type": "Feature",
      "geometry": {
        "type": "Point",
        "coordinates": [
          8.5089427,
          12.4422467
        ]
      },
      "properties": {
        "name": "KANTI   II",
        "ward": "DANBATTA WEST",
        "lga": "DANBATA",
        "state": "KANO"
      }
    },
    {
      "type": "Feature",
      "geometry": {
        "type": "Point",
        "coordinates": [
          8.5089427,
          12.4422467
        ]
      },
      "properties": {
        "name": "KANTI   III",
        "ward": "DANBATTA WEST",
        "lga": "DANBATA",
        "state": "KANO"
      }
    },
    {
      "type": "Feature",
      "geometry": {
        "type": "Point",
        "coordinates": [
          8.5089427,
          12.4422467
        ]
      },
      "properties": {
        "name": "KANTI   IV",
        "ward": "DANBATTA WEST",
        "lga": "DANBATA",
        "state": "KANO"
      }
    },
    {
      "type": "Feature",
      "geometry": {
        "type": "Point",
        "coordinates": [
          8.511082799999999,
          12.4428378
        ]
      },
      "properties": {
        "name": "SHA'ISKAWA",
        "ward": "DANBATTA WEST",
        "lga": "DANBATA",
        "state": "KANO"
      }
    },
    {
      "type": "Feature",
      "geometry": {
        "type": "Point",
        "coordinates": [
          8.6160674,
          12.4382197
        ]
      },
      "properties": {
        "name": "BIRNIN TAFASA",
        "ward": "DANBATTA WEST",
        "lga": "DANBATA",
        "state": "KANO"
      }
    },
    {
      "type": "Feature",
      "geometry": {
        "type": "Point",
        "coordinates": [
          8.6160674,
          12.4382197
        ]
      },
      "properties": {
        "name": "G.R.A. II",
        "ward": "DANBATTA WEST",
        "lga": "DANBATA",
        "state": "KANO"
      }
    },
    {
      "type": "Feature",
      "geometry": {
        "type": "Point",
        "coordinates": [
          8.6160674,
          12.4382197
        ]
      },
      "properties": {
        "name": "KATSERE",
        "ward": "DANBATTA WEST",
        "lga": "DANBATA",
        "state": "KANO"
      }
    },
    {
      "type": "Feature",
      "geometry": {
        "type": "Point",
        "coordinates": [
          8.5943422,
          12.4041573
        ]
      },
      "properties": {
        "name": "BALLODA, PRIMARY SCHOOL",
        "ward": "GWARABJAWA",
        "lga": "DANBATA",
        "state": "KANO"
      }
    },
    {
      "type": "Feature",
      "geometry": {
        "type": "Point",
        "coordinates": [
          8.6283145,
          12.5173835
        ]
      },
      "properties": {
        "name": "BAUSHE, PRIMARY SCHOOL",
        "ward": "GWARABJAWA",
        "lga": "DANBATA",
        "state": "KANO"
      }
    },
    {
      "type": "Feature",
      "geometry": {
        "type": "Point",
        "coordinates": [
          8.946017099999999,
          11.6325456
        ]
      },
      "properties": {
        "name": "GWALADA GARI, PRIMARY SCHOOL",
        "ward": "GWARABJAWA",
        "lga": "DANBATA",
        "state": "KANO"
      }
    },
    {
      "type": "Feature",
      "geometry": {
        "type": "Point",
        "coordinates": [
          8.518661600000001,
          12.3484777
        ]
      },
      "properties": {
        "name": "JAF TAWA, OPEN SPACE",
        "ward": "GWARABJAWA",
        "lga": "DANBATA",
        "state": "KANO"
      }
    },
    {
      "type": "Feature",
      "geometry": {
        "type": "Point",
        "coordinates": [
          8.5089427,
          12.4422467
        ]
      },
      "properties": {
        "name": "MAI GANJIN DANBATTA, PRIMARY SCHOOL",
        "ward": "GWARABJAWA",
        "lga": "DANBATA",
        "state": "KANO"
      }
    },
    {
      "type": "Feature",
      "geometry": {
        "type": "Point",
        "coordinates": [
          8.6241329,
          12.4140322
        ]
      },
      "properties": {
        "name": "MARAKI, OPEN SPACE",
        "ward": "GWARABJAWA",
        "lga": "DANBATA",
        "state": "KANO"
      }
    },
    {
      "type": "Feature",
      "geometry": {
        "type": "Point",
        "coordinates": [
          8.6056134,
          12.3212278
        ]
      },
      "properties": {
        "name": "MAIGAUJIN MAHUTA, PRIMARY SCHOOL",
        "ward": "GWARABJAWA",
        "lga": "DANBATA",
        "state": "KANO"
      }
    },
    {
      "type": "Feature",
      "geometry": {
        "type": "Point",
        "coordinates": [
          8.521037,
          11.9887832
        ]
      },
      "properties": {
        "name": "SAIDAWA, OPEN SPACE",
        "ward": "GWARABJAWA",
        "lga": "DANBATA",
        "state": "KANO"
      }
    },
    {
      "type": "Feature",
      "geometry": {
        "type": "Point",
        "coordinates": [
          8.5283153,
          11.9652675
        ]
      },
      "properties": {
        "name": "TAGWAYE, OPEN SPACE",
        "ward": "GWARABJAWA",
        "lga": "DANBATA",
        "state": "KANO"
      }
    },
    {
      "type": "Feature",
      "geometry": {
        "type": "Point",
        "coordinates": [
          8.6036907,
          12.4410086
        ]
      },
      "properties": {
        "name": "TSARAKA, PRIMARY SCHOOL",
        "ward": "GWARABJAWA",
        "lga": "DANBATA",
        "state": "KANO"
      }
    },
    {
      "type": "Feature",
      "geometry": {
        "type": "Point",
        "coordinates": [
          8.4893431,
          12.4605355
        ]
      },
      "properties": {
        "name": "TUFFOL, PRIMARY SCHOOL",
        "ward": "GWARABJAWA",
        "lga": "DANBATA",
        "state": "KANO"
      }
    },
    {
      "type": "Feature",
      "geometry": {
        "type": "Point",
        "coordinates": [
          8.4833289,
          12.0036294
        ]
      },
      "properties": {
        "name": "UNGUWARWAJE, OPEN SPACE",
        "ward": "GWARABJAWA",
        "lga": "DANBATA",
        "state": "KANO"
      }
    },
    {
      "type": "Feature",
      "geometry": {
        "type": "Point",
        "coordinates": [
          8.53397,
          12.00335
        ]
      },
      "properties": {
        "name": "UNGUWAR YUSUF, OPEN SPACE",
        "ward": "GWARABJAWA",
        "lga": "DANBATA",
        "state": "KANO"
      }
    },
    {
      "type": "Feature",
      "geometry": {
        "type": "Point",
        "coordinates": [
          8.5797739,
          12.3895034
        ]
      },
      "properties": {
        "name": "BALLODA II",
        "ward": "GWARABJAWA",
        "lga": "DANBATA",
        "state": "KANO"
      }
    },
    {
      "type": "Feature",
      "geometry": {
        "type": "Point",
        "coordinates": [
          8.6368569,
          12.5098174
        ]
      },
      "properties": {
        "name": "BAUSHE II",
        "ward": "GWARABJAWA",
        "lga": "DANBATA",
        "state": "KANO"
      }
    },
    {
      "type": "Feature",
      "geometry": {
        "type": "Point",
        "coordinates": [
          8.5742999,
          12.4651
        ]
      },
      "properties": {
        "name": "GWALAIDA II",
        "ward": "GWARABJAWA",
        "lga": "DANBATA",
        "state": "KANO"
      }
    },
    {
      "type": "Feature",
      "geometry": {
        "type": "Point",
        "coordinates": [
          8.5940814,
          12.5071028
        ]
      },
      "properties": {
        "name": "GWARABJAWA II",
        "ward": "GWARABJAWA",
        "lga": "DANBATA",
        "state": "KANO"
      }
    },
    {
      "type": "Feature",
      "geometry": {
        "type": "Point",
        "coordinates": [
          8.5797739,
          12.3895034
        ]
      },
      "properties": {
        "name": "MAIGANJI MAHUTA II",
        "ward": "GWARABJAWA",
        "lga": "DANBATA",
        "state": "KANO"
      }
    },
    {
      "type": "Feature",
      "geometry": {
        "type": "Point",
        "coordinates": [
          8.5669963,
          12.3748773
        ]
      },
      "properties": {
        "name": "SHIDDAR II",
        "ward": "GWARABJAWA",
        "lga": "DANBATA",
        "state": "KANO"
      }
    },
    {
      "type": "Feature",
      "geometry": {
        "type": "Point",
        "coordinates": [
          8.6036907,
          12.4410086
        ]
      },
      "properties": {
        "name": "TSARAKA II",
        "ward": "GWARABJAWA",
        "lga": "DANBATA",
        "state": "KANO"
      }
    },
    {
      "type": "Feature",
      "geometry": {
        "type": "Point",
        "coordinates": [
          8.5919749,
          12.0021529
        ]
      },
      "properties": {
        "name": "UNGUWAR YUSUF II",
        "ward": "GWARABJAWA",
        "lga": "DANBATA",
        "state": "KANO"
      }
    },
    {
      "type": "Feature",
      "geometry": {
        "type": "Point",
        "coordinates": [
          8.5226015,
          12.4345552
        ]
      },
      "properties": {
        "name": "BUNDU CHIMO",
        "ward": "GWARABJAWA",
        "lga": "DANBATA",
        "state": "KANO"
      }
    },
    {
      "type": "Feature",
      "geometry": {
        "type": "Point",
        "coordinates": [
          8.506715400000001,
          12.4784403
        ]
      },
      "properties": {
        "name": "AJUMAWA, PRIMARY SCHOOL",
        "ward": "AJUMAWA",
        "lga": "DANBATA",
        "state": "KANO"
      }
    },
    {
      "type": "Feature",
      "geometry": {
        "type": "Point",
        "coordinates": [
          8.5235252,
          12.0361719
        ]
      },
      "properties": {
        "name": "BABBAKA, OPEN SPACE",
        "ward": "AJUMAWA",
        "lga": "DANBATA",
        "state": "KANO"
      }
    },
    {
      "type": "Feature",
      "geometry": {
        "type": "Point",
        "coordinates": [
          8.4345379,
          11.9583365
        ]
      },
      "properties": {
        "name": "DANYAGARI PRIMARY SCHOOL",
        "ward": "AJUMAWA",
        "lga": "DANBATA",
        "state": "KANO"
      }
    },
    {
      "type": "Feature",
      "geometry": {
        "type": "Point",
        "coordinates": [
          8.5574427,
          11.9689693
        ]
      },
      "properties": {
        "name": "DAURAWA, PRIMARY SCHOOL",
        "ward": "AJUMAWA",
        "lga": "DANBATA",
        "state": "KANO"
      }
    },
    {
      "type": "Feature",
      "geometry": {
        "type": "Point",
        "coordinates": [
          8.521037,
          11.9887832
        ]
      },
      "properties": {
        "name": "DOGARAFI, OPEN SPACE",
        "ward": "AJUMAWA",
        "lga": "DANBATA",
        "state": "KANO"
      }
    },
    {
      "type": "Feature",
      "geometry": {
        "type": "Point",
        "coordinates": [
          8.5919749,
          12.0021529
        ]
      },
      "properties": {
        "name": "GANJI, OPEN SPACE",
        "ward": "AJUMAWA",
        "lga": "DANBATA",
        "state": "KANO"
      }
    },
    {
      "type": "Feature",
      "geometry": {
        "type": "Point",
        "coordinates": [
          8.510847199999999,
          11.9833825
        ]
      },
      "properties": {
        "name": "MAKERA, OPEN SPACE",
        "ward": "AJUMAWA",
        "lga": "DANBATA",
        "state": "KANO"
      }
    },
    {
      "type": "Feature",
      "geometry": {
        "type": "Point",
        "coordinates": [
          8.5374346,
          12.4732498
        ]
      },
      "properties": {
        "name": "MASALLACHI, OPEN SPACE",
        "ward": "AJUMAWA",
        "lga": "DANBATA",
        "state": "KANO"
      }
    },
    {
      "type": "Feature",
      "geometry": {
        "type": "Point",
        "coordinates": [
          8.5166718,
          12.4332988
        ]
      },
      "properties": {
        "name": "MARKEN DANYA, OPEN SPACE",
        "ward": "AJUMAWA",
        "lga": "DANBATA",
        "state": "KANO"
      }
    },
    {
      "type": "Feature",
      "geometry": {
        "type": "Point",
        "coordinates": [
          8.582835500000002,
          11.9740196
        ]
      },
      "properties": {
        "name": "TSAMIYA, OPEN SPACE",
        "ward": "AJUMAWA",
        "lga": "DANBATA",
        "state": "KANO"
      }
    },
    {
      "type": "Feature",
      "geometry": {
        "type": "Point",
        "coordinates": [
          8.5919749,
          12.0021529
        ]
      },
      "properties": {
        "name": "TSALLEWA, OPEN SPACE",
        "ward": "AJUMAWA",
        "lga": "DANBATA",
        "state": "KANO"
      }
    },
    {
      "type": "Feature",
      "geometry": {
        "type": "Point",
        "coordinates": [
          8.475738999999999,
          12.4883741
        ]
      },
      "properties": {
        "name": "WANZAMAI, OPEN SPACE",
        "ward": "AJUMAWA",
        "lga": "DANBATA",
        "state": "KANO"
      }
    },
    {
      "type": "Feature",
      "geometry": {
        "type": "Point",
        "coordinates": [
          8.677641099999999,
          12.537937
        ]
      },
      "properties": {
        "name": "YAMMAWA PRIMARY SCHOOL",
        "ward": "AJUMAWA",
        "lga": "DANBATA",
        "state": "KANO"
      }
    },
    {
      "type": "Feature",
      "geometry": {
        "type": "Point",
        "coordinates": [
          8.4732718,
          12.4768293
        ]
      },
      "properties": {
        "name": "AJUMAWA II",
        "ward": "AJUMAWA",
        "lga": "DANBATA",
        "state": "KANO"
      }
    },
    {
      "type": "Feature",
      "geometry": {
        "type": "Point",
        "coordinates": [
          8.5374346,
          12.4732498
        ]
      },
      "properties": {
        "name": "MASALLACI II",
        "ward": "AJUMAWA",
        "lga": "DANBATA",
        "state": "KANO"
      }
    },
    {
      "type": "Feature",
      "geometry": {
        "type": "Point",
        "coordinates": [
          8.6160283,
          11.9421862
        ]
      },
      "properties": {
        "name": "MARKEN DANO II",
        "ward": "AJUMAWA",
        "lga": "DANBATA",
        "state": "KANO"
      }
    },
    {
      "type": "Feature",
      "geometry": {
        "type": "Point",
        "coordinates": [
          8.6490584,
          11.9950575
        ]
      },
      "properties": {
        "name": "TSAMIYA II",
        "ward": "AJUMAWA",
        "lga": "DANBATA",
        "state": "KANO"
      }
    },
    {
      "type": "Feature",
      "geometry": {
        "type": "Point",
        "coordinates": [
          8.521985599999999,
          12.432577
        ]
      },
      "properties": {
        "name": "BARDE, PRIMARY SCHOOL",
        "ward": "DANBATTA EAST",
        "lga": "DANBATA",
        "state": "KANO"
      }
    },
    {
      "type": "Feature",
      "geometry": {
        "type": "Point",
        "coordinates": [
          8.5221871,
          12.4329598
        ]
      },
      "properties": {
        "name": "BENGEL, OPEN SPACE",
        "ward": "DANBATTA EAST",
        "lga": "DANBATA",
        "state": "KANO"
      }
    },
    {
      "type": "Feature",
      "geometry": {
        "type": "Point",
        "coordinates": [
          8.521360099999999,
          12.4385699
        ]
      },
      "properties": {
        "name": "BIRNIN KARA-PRIMARY SCHOOL",
        "ward": "DANBATTA EAST",
        "lga": "DANBATA",
        "state": "KANO"
      }
    },
    {
      "type": "Feature",
      "geometry": {
        "type": "Point",
        "coordinates": [
          8.5226015,
          12.4345552
        ]
      },
      "properties": {
        "name": "DANMAKO, OPEN SPACE",
        "ward": "DANBATTA EAST",
        "lga": "DANBATA",
        "state": "KANO"
      }
    },
    {
      "type": "Feature",
      "geometry": {
        "type": "Point",
        "coordinates": [
          8.5221871,
          12.4329598
        ]
      },
      "properties": {
        "name": "DAURAWA, OPEN SPACE",
        "ward": "DANBATTA EAST",
        "lga": "DANBATA",
        "state": "KANO"
      }
    },
    {
      "type": "Feature",
      "geometry": {
        "type": "Point",
        "coordinates": [
          8.5221871,
          12.4329598
        ]
      },
      "properties": {
        "name": "ISLAMIYA PRIMARY SCHOOL",
        "ward": "DANBATTA EAST",
        "lga": "DANBATA",
        "state": "KANO"
      }
    },
    {
      "type": "Feature",
      "geometry": {
        "type": "Point",
        "coordinates": [
          8.6601406,
          11.5323969
        ]
      },
      "properties": {
        "name": "K/AREWA ,PRIMARY SCHOOL I",
        "ward": "DANBATTA EAST",
        "lga": "DANBATA",
        "state": "KANO"
      }
    },
    {
      "type": "Feature",
      "geometry": {
        "type": "Point",
        "coordinates": [
          8.6601406,
          11.5323969
        ]
      },
      "properties": {
        "name": "K/AREWA, PRIMARY SCHOOL II",
        "ward": "DANBATTA EAST",
        "lga": "DANBATA",
        "state": "KANO"
      }
    },
    {
      "type": "Feature",
      "geometry": {
        "type": "Point",
        "coordinates": [
          8.5089427,
          12.4422467
        ]
      },
      "properties": {
        "name": "K/KUDU, PRIMARY SCHOOL I",
        "ward": "DANBATTA EAST",
        "lga": "DANBATA",
        "state": "KANO"
      }
    },
    {
      "type": "Feature",
      "geometry": {
        "type": "Point",
        "coordinates": [
          8.5089427,
          12.4422467
        ]
      },
      "properties": {
        "name": "K/KUDU, PRIMARY SCHOOL II",
        "ward": "DANBATTA EAST",
        "lga": "DANBATA",
        "state": "KANO"
      }
    },
    {
      "type": "Feature",
      "geometry": {
        "type": "Point",
        "coordinates": [
          8.5221871,
          12.4329598
        ]
      },
      "properties": {
        "name": "MATSIGA, OPEN SPACE",
        "ward": "DANBATTA EAST",
        "lga": "DANBATA",
        "state": "KANO"
      }
    },
    {
      "type": "Feature",
      "geometry": {
        "type": "Point",
        "coordinates": [
          8.5564312,
          12.023762
        ]
      },
      "properties": {
        "name": "T/WADA, PRIMARY SCHOOL I",
        "ward": "DANBATTA EAST",
        "lga": "DANBATA",
        "state": "KANO"
      }
    },
    {
      "type": "Feature",
      "geometry": {
        "type": "Point",
        "coordinates": [
          8.5564312,
          12.023762
        ]
      },
      "properties": {
        "name": "T/WADA, PRIMARY SCHOOL II",
        "ward": "DANBATTA EAST",
        "lga": "DANBATA",
        "state": "KANO"
      }
    },
    {
      "type": "Feature",
      "geometry": {
        "type": "Point",
        "coordinates": [
          8.5226015,
          12.4345552
        ]
      },
      "properties": {
        "name": "T/DANYARO, OPEN SPACE I",
        "ward": "DANBATTA EAST",
        "lga": "DANBATA",
        "state": "KANO"
      }
    },
    {
      "type": "Feature",
      "geometry": {
        "type": "Point",
        "coordinates": [
          8.6160674,
          12.4382197
        ]
      },
      "properties": {
        "name": "BARDE  II",
        "ward": "DANBATTA EAST",
        "lga": "DANBATA",
        "state": "KANO"
      }
    },
    {
      "type": "Feature",
      "geometry": {
        "type": "Point",
        "coordinates": [
          8.6160674,
          12.4382197
        ]
      },
      "properties": {
        "name": "BARDE  III",
        "ward": "DANBATTA EAST",
        "lga": "DANBATA",
        "state": "KANO"
      }
    },
    {
      "type": "Feature",
      "geometry": {
        "type": "Point",
        "coordinates": [
          8.5221871,
          12.4329598
        ]
      },
      "properties": {
        "name": "BENGEL II",
        "ward": "DANBATTA EAST",
        "lga": "DANBATA",
        "state": "KANO"
      }
    },
    {
      "type": "Feature",
      "geometry": {
        "type": "Point",
        "coordinates": [
          8.5155045,
          12.4200678
        ]
      },
      "properties": {
        "name": "KARKASARA I",
        "ward": "DANBATTA EAST",
        "lga": "DANBATA",
        "state": "KANO"
      }
    },
    {
      "type": "Feature",
      "geometry": {
        "type": "Point",
        "coordinates": [
          8.5221871,
          12.4329598
        ]
      },
      "properties": {
        "name": "KARKASARA II",
        "ward": "DANBATTA EAST",
        "lga": "DANBATA",
        "state": "KANO"
      }
    },
    {
      "type": "Feature",
      "geometry": {
        "type": "Point",
        "coordinates": [
          8.514526199999999,
          12.4277208
        ]
      },
      "properties": {
        "name": "DAURAWA II",
        "ward": "DANBATTA EAST",
        "lga": "DANBATA",
        "state": "KANO"
      }
    },
    {
      "type": "Feature",
      "geometry": {
        "type": "Point",
        "coordinates": [
          8.5226015,
          12.4345552
        ]
      },
      "properties": {
        "name": "DAURAWA III",
        "ward": "DANBATTA EAST",
        "lga": "DANBATA",
        "state": "KANO"
      }
    },
    {
      "type": "Feature",
      "geometry": {
        "type": "Point",
        "coordinates": [
          8.5221871,
          12.4329598
        ]
      },
      "properties": {
        "name": "ISLAMIYYA II",
        "ward": "DANBATTA EAST",
        "lga": "DANBATA",
        "state": "KANO"
      }
    },
    {
      "type": "Feature",
      "geometry": {
        "type": "Point",
        "coordinates": [
          8.5221871,
          12.4329598
        ]
      },
      "properties": {
        "name": "ISLAMIYYA III",
        "ward": "DANBATTA EAST",
        "lga": "DANBATA",
        "state": "KANO"
      }
    },
    {
      "type": "Feature",
      "geometry": {
        "type": "Point",
        "coordinates": [
          8.5221871,
          12.4329598
        ]
      },
      "properties": {
        "name": "KOFAR AREWA II",
        "ward": "DANBATTA EAST",
        "lga": "DANBATA",
        "state": "KANO"
      }
    },
    {
      "type": "Feature",
      "geometry": {
        "type": "Point",
        "coordinates": [
          8.5221871,
          12.4329598
        ]
      },
      "properties": {
        "name": "KOFAR FADA",
        "ward": "DANBATTA EAST",
        "lga": "DANBATA",
        "state": "KANO"
      }
    },
    {
      "type": "Feature",
      "geometry": {
        "type": "Point",
        "coordinates": [
          8.5395768,
          12.0185128
        ]
      },
      "properties": {
        "name": "YAN GORO",
        "ward": "DANBATTA EAST",
        "lga": "DANBATA",
        "state": "KANO"
      }
    },
    {
      "type": "Feature",
      "geometry": {
        "type": "Point",
        "coordinates": [
          8.5166718,
          12.4332988
        ]
      },
      "properties": {
        "name": "UNGUWAR FULANI II",
        "ward": "DANBATTA EAST",
        "lga": "DANBATA",
        "state": "KANO"
      }
    },
    {
      "type": "Feature",
      "geometry": {
        "type": "Point",
        "coordinates": [
          8.518661600000001,
          12.3484777
        ]
      },
      "properties": {
        "name": "KOFAR YAMMA II",
        "ward": "DANBATTA EAST",
        "lga": "DANBATA",
        "state": "KANO"
      }
    },
    {
      "type": "Feature",
      "geometry": {
        "type": "Point",
        "coordinates": [
          8.518661600000001,
          12.3484777
        ]
      },
      "properties": {
        "name": "KOFAR YAMMA III",
        "ward": "DANBATTA EAST",
        "lga": "DANBATA",
        "state": "KANO"
      }
    },
    {
      "type": "Feature",
      "geometry": {
        "type": "Point",
        "coordinates": [
          8.5221871,
          12.4329598
        ]
      },
      "properties": {
        "name": "MATSIGA II",
        "ward": "DANBATTA EAST",
        "lga": "DANBATA",
        "state": "KANO"
      }
    },
    {
      "type": "Feature",
      "geometry": {
        "type": "Point",
        "coordinates": [
          8.514526199999999,
          12.4277208
        ]
      },
      "properties": {
        "name": "BARDE  IV",
        "ward": "DANBATTA EAST",
        "lga": "DANBATA",
        "state": "KANO"
      }
    },
    {
      "type": "Feature",
      "geometry": {
        "type": "Point",
        "coordinates": [
          8.552874599999999,
          12.0234785
        ]
      },
      "properties": {
        "name": "TUDUN WADA III",
        "ward": "DANBATTA EAST",
        "lga": "DANBATA",
        "state": "KANO"
      }
    },
    {
      "type": "Feature",
      "geometry": {
        "type": "Point",
        "coordinates": [
          8.4047163,
          11.2496719
        ]
      },
      "properties": {
        "name": "TUDUN WADA  IV",
        "ward": "DANBATTA EAST",
        "lga": "DANBATA",
        "state": "KANO"
      }
    },
    {
      "type": "Feature",
      "geometry": {
        "type": "Point",
        "coordinates": [
          8.528161299999999,
          11.2658163
        ]
      },
      "properties": {
        "name": "TUDUN WADA  V",
        "ward": "DANBATTA EAST",
        "lga": "DANBATA",
        "state": "KANO"
      }
    },
    {
      "type": "Feature",
      "geometry": {
        "type": "Point",
        "coordinates": [
          8.552874599999999,
          12.0234785
        ]
      },
      "properties": {
        "name": "TUDUN WADA VI",
        "ward": "DANBATTA EAST",
        "lga": "DANBATA",
        "state": "KANO"
      }
    },
    {
      "type": "Feature",
      "geometry": {
        "type": "Point",
        "coordinates": [
          8.5226015,
          12.4345552
        ]
      },
      "properties": {
        "name": "KAMA KARYA",
        "ward": "DANBATTA EAST",
        "lga": "DANBATA",
        "state": "KANO"
      }
    },
    {
      "type": "Feature",
      "geometry": {
        "type": "Point",
        "coordinates": [
          8.5109239,
          12.4347245
        ]
      },
      "properties": {
        "name": "AIYAWA, OPEN SPACE",
        "ward": "KORE",
        "lga": "DANBATA",
        "state": "KANO"
      }
    },
    {
      "type": "Feature",
      "geometry": {
        "type": "Point",
        "coordinates": [
          8.5140963,
          12.4298939
        ]
      },
      "properties": {
        "name": "BANDAMAYE, PRIMARY",
        "ward": "KORE",
        "lga": "DANBATA",
        "state": "KANO"
      }
    },
    {
      "type": "Feature",
      "geometry": {
        "type": "Point",
        "coordinates": [
          8.521037,
          11.9887832
        ]
      },
      "properties": {
        "name": "DUMMA, OPEN SPACE",
        "ward": "KORE",
        "lga": "DANBATA",
        "state": "KANO"
      }
    },
    {
      "type": "Feature",
      "geometry": {
        "type": "Point",
        "coordinates": [
          8.7504553,
          12.3472482
        ]
      },
      "properties": {
        "name": "FABA, PRIMARY SCOOL",
        "ward": "KORE",
        "lga": "DANBATA",
        "state": "KANO"
      }
    },
    {
      "type": "Feature",
      "geometry": {
        "type": "Point",
        "coordinates": [
          8.5109239,
          12.4347245
        ]
      },
      "properties": {
        "name": "GWADAMA, OPEN SPACE",
        "ward": "KORE",
        "lga": "DANBATA",
        "state": "KANO"
      }
    },
    {
      "type": "Feature",
      "geometry": {
        "type": "Point",
        "coordinates": [
          8.514526199999999,
          12.4277208
        ]
      },
      "properties": {
        "name": "KABORI, OPEN SPACE",
        "ward": "KORE",
        "lga": "DANBATA",
        "state": "KANO"
      }
    },
    {
      "type": "Feature",
      "geometry": {
        "type": "Point",
        "coordinates": [
          8.521037,
          11.9887832
        ]
      },
      "properties": {
        "name": "MAIHURA, OPEN SPACE",
        "ward": "KORE",
        "lga": "DANBATA",
        "state": "KANO"
      }
    },
    {
      "type": "Feature",
      "geometry": {
        "type": "Point",
        "coordinates": [
          8.5109239,
          12.4347245
        ]
      },
      "properties": {
        "name": "R/GANJI, OPEN SPACE",
        "ward": "KORE",
        "lga": "DANBATA",
        "state": "KANO"
      }
    },
    {
      "type": "Feature",
      "geometry": {
        "type": "Point",
        "coordinates": [
          8.7381703,
          12.4075727
        ]
      },
      "properties": {
        "name": "RUWAN TSA, PRIMARY SCHOOL",
        "ward": "KORE",
        "lga": "DANBATA",
        "state": "KANO"
      }
    },
    {
      "type": "Feature",
      "geometry": {
        "type": "Point",
        "coordinates": [
          8.5458222,
          12.0087943
        ]
      },
      "properties": {
        "name": "TAKUYAR KUDA, OPEN SPACE",
        "ward": "KORE",
        "lga": "DANBATA",
        "state": "KANO"
      }
    },
    {
      "type": "Feature",
      "geometry": {
        "type": "Point",
        "coordinates": [
          8.7816453,
          12.3901546
        ]
      },
      "properties": {
        "name": "UNGUWAR DOGO",
        "ward": "KORE",
        "lga": "DANBATA",
        "state": "KANO"
      }
    },
    {
      "type": "Feature",
      "geometry": {
        "type": "Point",
        "coordinates": [
          8.7816453,
          12.3901546
        ]
      },
      "properties": {
        "name": "UNGUWAR JILO, OPEN SPACE",
        "ward": "KORE",
        "lga": "DANBATA",
        "state": "KANO"
      }
    },
    {
      "type": "Feature",
      "geometry": {
        "type": "Point",
        "coordinates": [
          8.7504553,
          12.3472482
        ]
      },
      "properties": {
        "name": "FABA II",
        "ward": "KORE",
        "lga": "DANBATA",
        "state": "KANO"
      }
    },
    {
      "type": "Feature",
      "geometry": {
        "type": "Point",
        "coordinates": [
          8.7371039,
          12.3775671
        ]
      },
      "properties": {
        "name": "KORE II",
        "ward": "KORE",
        "lga": "DANBATA",
        "state": "KANO"
      }
    },
    {
      "type": "Feature",
      "geometry": {
        "type": "Point",
        "coordinates": [
          8.7371039,
          12.3775671
        ]
      },
      "properties": {
        "name": "KORE III",
        "ward": "KORE",
        "lga": "DANBATA",
        "state": "KANO"
      }
    },
    {
      "type": "Feature",
      "geometry": {
        "type": "Point",
        "coordinates": [
          8.7386,
          12.408
        ]
      },
      "properties": {
        "name": "RUWANTSA II",
        "ward": "KORE",
        "lga": "DANBATA",
        "state": "KANO"
      }
    },
    {
      "type": "Feature",
      "geometry": {
        "type": "Point",
        "coordinates": [
          8.5226015,
          12.4345552
        ]
      },
      "properties": {
        "name": "TAKUNYAR KUDA II",
        "ward": "KORE",
        "lga": "DANBATA",
        "state": "KANO"
      }
    },
    {
      "type": "Feature",
      "geometry": {
        "type": "Point",
        "coordinates": [
          8.5328087,
          12.0154276
        ]
      },
      "properties": {
        "name": "CHIROMA, OPEN SPACE",
        "ward": "SANSAN",
        "lga": "DANBATA",
        "state": "KANO"
      }
    },
    {
      "type": "Feature",
      "geometry": {
        "type": "Point",
        "coordinates": [
          8.4345379,
          11.9583365
        ]
      },
      "properties": {
        "name": "DUNGURMI, PRI. SCH.",
        "ward": "SANSAN",
        "lga": "DANBATA",
        "state": "KANO"
      }
    },
    {
      "type": "Feature",
      "geometry": {
        "type": "Point",
        "coordinates": [
          8.521037,
          11.9887832
        ]
      },
      "properties": {
        "name": "GANGARADUNGURMI, OPEN SPACE",
        "ward": "SANSAN",
        "lga": "DANBATA",
        "state": "KANO"
      }
    },
    {
      "type": "Feature",
      "geometry": {
        "type": "Point",
        "coordinates": [
          8.5592177,
          11.9715137
        ]
      },
      "properties": {
        "name": "GANGARE, OPEN SPACE",
        "ward": "SANSAN",
        "lga": "DANBATA",
        "state": "KANO"
      }
    },
    {
      "type": "Feature",
      "geometry": {
        "type": "Point",
        "coordinates": [
          8.5109058,
          11.9501714
        ]
      },
      "properties": {
        "name": "GANDU ,OPEN SPACE",
        "ward": "SANSAN",
        "lga": "DANBATA",
        "state": "KANO"
      }
    },
    {
      "type": "Feature",
      "geometry": {
        "type": "Point",
        "coordinates": [
          8.5919749,
          12.0021529
        ]
      },
      "properties": {
        "name": "KANWAYE, OPEN SPACE",
        "ward": "SANSAN",
        "lga": "DANBATA",
        "state": "KANO"
      }
    },
    {
      "type": "Feature",
      "geometry": {
        "type": "Point",
        "coordinates": [
          8.5221871,
          12.4329598
        ]
      },
      "properties": {
        "name": "KWASHURI, PRI. SCH.",
        "ward": "SANSAN",
        "lga": "DANBATA",
        "state": "KANO"
      }
    },
    {
      "type": "Feature",
      "geometry": {
        "type": "Point",
        "coordinates": [
          8.521037,
          11.9887832
        ]
      },
      "properties": {
        "name": "MAIFARU, OPEN SPACE",
        "ward": "SANSAN",
        "lga": "DANBATA",
        "state": "KANO"
      }
    },
    {
      "type": "Feature",
      "geometry": {
        "type": "Point",
        "coordinates": [
          8.514526199999999,
          12.4277208
        ]
      },
      "properties": {
        "name": "TSALLEWA, OPEN SPACE",
        "ward": "SANSAN",
        "lga": "DANBATA",
        "state": "KANO"
      }
    },
    {
      "type": "Feature",
      "geometry": {
        "type": "Point",
        "coordinates": [
          8.5515445,
          11.960543
        ]
      },
      "properties": {
        "name": "U/MAMMAN, OPEN SPACE",
        "ward": "SANSAN",
        "lga": "DANBATA",
        "state": "KANO"
      }
    },
    {
      "type": "Feature",
      "geometry": {
        "type": "Point",
        "coordinates": [
          8.6767366,
          12.4315997
        ]
      },
      "properties": {
        "name": "KWASAURI II",
        "ward": "SANSAN",
        "lga": "DANBATA",
        "state": "KANO"
      }
    },
    {
      "type": "Feature",
      "geometry": {
        "type": "Point",
        "coordinates": [
          8.5069,
          12.4271
        ]
      },
      "properties": {
        "name": "SANSAN II",
        "ward": "SANSAN",
        "lga": "DANBATA",
        "state": "KANO"
      }
    },
    {
      "type": "Feature",
      "geometry": {
        "type": "Point",
        "coordinates": [
          8.5437657,
          11.9437275
        ]
      },
      "properties": {
        "name": "BORODO, PRIMARY SCHOOL",
        "ward": "FAGWALAWA",
        "lga": "DANBATA",
        "state": "KANO"
      }
    },
    {
      "type": "Feature",
      "geometry": {
        "type": "Point",
        "coordinates": [
          8.5166718,
          12.4332988
        ]
      },
      "properties": {
        "name": "DAMA, OPEN SPACE",
        "ward": "FAGWALAWA",
        "lga": "DANBATA",
        "state": "KANO"
      }
    },
    {
      "type": "Feature",
      "geometry": {
        "type": "Point",
        "coordinates": [
          8.6807444,
          12.3177509
        ]
      },
      "properties": {
        "name": "FAGWALAWA DASHI, PRIMARY SCHOOL",
        "ward": "FAGWALAWA",
        "lga": "DANBATA",
        "state": "KANO"
      }
    },
    {
      "type": "Feature",
      "geometry": {
        "type": "Point",
        "coordinates": [
          8.674052099999999,
          12.3194569
        ]
      },
      "properties": {
        "name": "FAGWALAWA GARI, PRIMARY SCHOOL",
        "ward": "FAGWALAWA",
        "lga": "DANBATA",
        "state": "KANO"
      }
    },
    {
      "type": "Feature",
      "geometry": {
        "type": "Point",
        "coordinates": [
          8.5109239,
          12.4347245
        ]
      },
      "properties": {
        "name": "GASADOCE , PRIMARY SCHOOL",
        "ward": "FAGWALAWA",
        "lga": "DANBATA",
        "state": "KANO"
      }
    },
    {
      "type": "Feature",
      "geometry": {
        "type": "Point",
        "coordinates": [
          8.546994999999999,
          12.0293065
        ]
      },
      "properties": {
        "name": "JAMA'A ,PRIMARY SCHOOL",
        "ward": "FAGWALAWA",
        "lga": "DANBATA",
        "state": "KANO"
      }
    },
    {
      "type": "Feature",
      "geometry": {
        "type": "Point",
        "coordinates": [
          8.667107,
          12.3320238
        ]
      },
      "properties": {
        "name": "KATSARDUWA, PRIMARY SCHOOL",
        "ward": "FAGWALAWA",
        "lga": "DANBATA",
        "state": "KANO"
      }
    },
    {
      "type": "Feature",
      "geometry": {
        "type": "Point",
        "coordinates": [
          8.520306399999999,
          12.3400305
        ]
      },
      "properties": {
        "name": "MALIKAWA GARU, OPEN SPACE",
        "ward": "FAGWALAWA",
        "lga": "DANBATA",
        "state": "KANO"
      }
    },
    {
      "type": "Feature",
      "geometry": {
        "type": "Point",
        "coordinates": [
          8.685612899999999,
          12.3264195
        ]
      },
      "properties": {
        "name": "MAKERA, PRIMARY SCHOOL",
        "ward": "FAGWALAWA",
        "lga": "DANBATA",
        "state": "KANO"
      }
    },
    {
      "type": "Feature",
      "geometry": {
        "type": "Point",
        "coordinates": [
          8.5328087,
          12.0154276
        ]
      },
      "properties": {
        "name": "SAKIYA, OPEN SPACE",
        "ward": "FAGWALAWA",
        "lga": "DANBATA",
        "state": "KANO"
      }
    },
    {
      "type": "Feature",
      "geometry": {
        "type": "Point",
        "coordinates": [
          8.5235252,
          12.0361719
        ]
      },
      "properties": {
        "name": "SUNBUNA, OPEN SPACE",
        "ward": "FAGWALAWA",
        "lga": "DANBATA",
        "state": "KANO"
      }
    },
    {
      "type": "Feature",
      "geometry": {
        "type": "Point",
        "coordinates": [
          8.542726799999999,
          12.0140047
        ]
      },
      "properties": {
        "name": "TONA ,PRIMARY SPACE",
        "ward": "FAGWALAWA",
        "lga": "DANBATA",
        "state": "KANO"
      }
    },
    {
      "type": "Feature",
      "geometry": {
        "type": "Point",
        "coordinates": [
          8.7241521,
          12.2690121
        ]
      },
      "properties": {
        "name": "TSAMEKU, PRIMARY SCHOOL",
        "ward": "FAGWALAWA",
        "lga": "DANBATA",
        "state": "KANO"
      }
    },
    {
      "type": "Feature",
      "geometry": {
        "type": "Point",
        "coordinates": [
          8.5592177,
          11.9715137
        ]
      },
      "properties": {
        "name": "TIRZAU, OPEN SPACE",
        "ward": "FAGWALAWA",
        "lga": "DANBATA",
        "state": "KANO"
      }
    },
    {
      "type": "Feature",
      "geometry": {
        "type": "Point",
        "coordinates": [
          8.674052099999999,
          12.3194569
        ]
      },
      "properties": {
        "name": "ZADAWA, OPEN SPACE",
        "ward": "FAGWALAWA",
        "lga": "DANBATA",
        "state": "KANO"
      }
    },
    {
      "type": "Feature",
      "geometry": {
        "type": "Point",
        "coordinates": [
          8.693068499999999,
          12.333582
        ]
      },
      "properties": {
        "name": "FAGWALAWA DASHI    II",
        "ward": "FAGWALAWA",
        "lga": "DANBATA",
        "state": "KANO"
      }
    },
    {
      "type": "Feature",
      "geometry": {
        "type": "Point",
        "coordinates": [
          8.693068499999999,
          12.333582
        ]
      },
      "properties": {
        "name": "FAGWALAWAI II",
        "ward": "FAGWALAWA",
        "lga": "DANBATA",
        "state": "KANO"
      }
    },
    {
      "type": "Feature",
      "geometry": {
        "type": "Point",
        "coordinates": [
          8.693068499999999,
          12.333582
        ]
      },
      "properties": {
        "name": "MAKERA II",
        "ward": "FAGWALAWA",
        "lga": "DANBATA",
        "state": "KANO"
      }
    },
    {
      "type": "Feature",
      "geometry": {
        "type": "Point",
        "coordinates": [
          8.7241521,
          12.2690121
        ]
      },
      "properties": {
        "name": "TSAMEKU II",
        "ward": "FAGWALAWA",
        "lga": "DANBATA",
        "state": "KANO"
      }
    },
    {
      "type": "Feature",
      "geometry": {
        "type": "Point",
        "coordinates": [
          8.7322918,
          12.2923784
        ]
      },
      "properties": {
        "name": "ZAIDAWA     I I",
        "ward": "FAGWALAWA",
        "lga": "DANBATA",
        "state": "KANO"
      }
    },
    {
      "type": "Feature",
      "geometry": {
        "type": "Point",
        "coordinates": [
          8.693068499999999,
          12.333582
        ]
      },
      "properties": {
        "name": "FAGWALAWAI III",
        "ward": "FAGWALAWA",
        "lga": "DANBATA",
        "state": "KANO"
      }
    },
    {
      "type": "Feature",
      "geometry": {
        "type": "Point",
        "coordinates": [
          8.5859267,
          11.5604996
        ]
      },
      "properties": {
        "name": "DANGAGE",
        "ward": "SAJI",
        "lga": "RANO",
        "state": "KANO"
      }
    },
    {
      "type": "Feature",
      "geometry": {
        "type": "Point",
        "coordinates": [
          8.5879314,
          11.4919646
        ]
      },
      "properties": {
        "name": "JANGARU",
        "ward": "SAJI",
        "lga": "RANO",
        "state": "KANO"
      }
    },
    {
      "type": "Feature",
      "geometry": {
        "type": "Point",
        "coordinates": [
          8.5879314,
          11.4919646
        ]
      },
      "properties": {
        "name": "KAFIN ALHAJI",
        "ward": "SAJI",
        "lga": "RANO",
        "state": "KANO"
      }
    },
    {
      "type": "Feature",
      "geometry": {
        "type": "Point",
        "coordinates": [
          8.4663865,
          11.9807784
        ]
      },
      "properties": {
        "name": "RINJI",
        "ward": "SAJI",
        "lga": "RANO",
        "state": "KANO"
      }
    },
    {
      "type": "Feature",
      "geometry": {
        "type": "Point",
        "coordinates": [
          8.57774,
          11.9692
        ]
      },
      "properties": {
        "name": "TAI-TAI",
        "ward": "SAJI",
        "lga": "RANO",
        "state": "KANO"
      }
    },
    {
      "type": "Feature",
      "geometry": {
        "type": "Point",
        "coordinates": [
          8.5768118,
          11.5557041
        ]
      },
      "properties": {
        "name": "TAKALAFIYA",
        "ward": "SAJI",
        "lga": "RANO",
        "state": "KANO"
      }
    },
    {
      "type": "Feature",
      "geometry": {
        "type": "Point",
        "coordinates": [
          8.5859267,
          11.5604996
        ]
      },
      "properties": {
        "name": "TARUJA",
        "ward": "SAJI",
        "lga": "RANO",
        "state": "KANO"
      }
    },
    {
      "type": "Feature",
      "geometry": {
        "type": "Point",
        "coordinates": [
          8.57774,
          11.9692
        ]
      },
      "properties": {
        "name": "BURAN",
        "ward": "SAJI",
        "lga": "RANO",
        "state": "KANO"
      }
    },
    {
      "type": "Feature",
      "geometry": {
        "type": "Point",
        "coordinates": [
          8.5768401,
          11.5533684
        ]
      },
      "properties": {
        "name": "KWACHANI",
        "ward": "SAJI",
        "lga": "RANO",
        "state": "KANO"
      }
    },
    {
      "type": "Feature",
      "geometry": {
        "type": "Point",
        "coordinates": [
          8.5777574,
          11.96916
        ]
      },
      "properties": {
        "name": "YAMA",
        "ward": "SAJI",
        "lga": "RANO",
        "state": "KANO"
      }
    },
    {
      "type": "Feature",
      "geometry": {
        "type": "Point",
        "coordinates": [
          8.5768401,
          11.5533684
        ]
      },
      "properties": {
        "name": "BAIZO",
        "ward": "ZINYAU",
        "lga": "RANO",
        "state": "KANO"
      }
    },
    {
      "type": "Feature",
      "geometry": {
        "type": "Point",
        "coordinates": [
          8.577323699999999,
          11.5593038
        ]
      },
      "properties": {
        "name": "BIMA",
        "ward": "ZINYAU",
        "lga": "RANO",
        "state": "KANO"
      }
    },
    {
      "type": "Feature",
      "geometry": {
        "type": "Point",
        "coordinates": [
          8.5768401,
          11.5533684
        ]
      },
      "properties": {
        "name": "FUNKUYI",
        "ward": "ZINYAU",
        "lga": "RANO",
        "state": "KANO"
      }
    },
    {
      "type": "Feature",
      "geometry": {
        "type": "Point",
        "coordinates": [
          8.423003699999999,
          11.7652528
        ]
      },
      "properties": {
        "name": "GIDAN MURABUS",
        "ward": "ZINYAU",
        "lga": "RANO",
        "state": "KANO"
      }
    },
    {
      "type": "Feature",
      "geometry": {
        "type": "Point",
        "coordinates": [
          8.5192608,
          11.5190907
        ]
      },
      "properties": {
        "name": "WAR",
        "ward": "ZINYAU",
        "lga": "RANO",
        "state": "KANO"
      }
    },
    {
      "type": "Feature",
      "geometry": {
        "type": "Point",
        "coordinates": [
          8.5796262,
          11.5149881
        ]
      },
      "properties": {
        "name": "ZINYAU CIKIN GARI",
        "ward": "ZINYAU",
        "lga": "RANO",
        "state": "KANO"
      }
    },
    {
      "type": "Feature",
      "geometry": {
        "type": "Point",
        "coordinates": [
          8.5796262,
          11.5149881
        ]
      },
      "properties": {
        "name": "ZINYAU CIKIN GARI",
        "ward": "ZINYAU",
        "lga": "RANO",
        "state": "KANO"
      }
    },
    {
      "type": "Feature",
      "geometry": {
        "type": "Point",
        "coordinates": [
          8.591268699999999,
          11.981093
        ]
      },
      "properties": {
        "name": "GIDAN RUWA",
        "ward": "ZINYAU",
        "lga": "RANO",
        "state": "KANO"
      }
    },
    {
      "type": "Feature",
      "geometry": {
        "type": "Point",
        "coordinates": [
          8.5680735,
          11.9815187
        ]
      },
      "properties": {
        "name": "TAFIZUL QUR'AN GIDAN DAJE",
        "ward": "ZINYAU",
        "lga": "RANO",
        "state": "KANO"
      }
    },
    {
      "type": "Feature",
      "geometry": {
        "type": "Point",
        "coordinates": [
          8.6334082,
          11.6247529
        ]
      },
      "properties": {
        "name": "FIYARAN",
        "ward": "MADACHI",
        "lga": "RANO",
        "state": "KANO"
      }
    },
    {
      "type": "Feature",
      "geometry": {
        "type": "Point",
        "coordinates": [
          8.6147785,
          11.602438
        ]
      },
      "properties": {
        "name": "GWARGO",
        "ward": "MADACHI",
        "lga": "RANO",
        "state": "KANO"
      }
    },
    {
      "type": "Feature",
      "geometry": {
        "type": "Point",
        "coordinates": [
          8.5242148,
          12.0127008
        ]
      },
      "properties": {
        "name": "JUMA GARI I",
        "ward": "MADACHI",
        "lga": "RANO",
        "state": "KANO"
      }
    },
    {
      "type": "Feature",
      "geometry": {
        "type": "Point",
        "coordinates": [
          8.5242148,
          12.0127008
        ]
      },
      "properties": {
        "name": "JUMA GARI II",
        "ward": "MADACHI",
        "lga": "RANO",
        "state": "KANO"
      }
    },
    {
      "type": "Feature",
      "geometry": {
        "type": "Point",
        "coordinates": [
          8.585500000000001,
          11.5627
        ]
      },
      "properties": {
        "name": "LAMBANAWA",
        "ward": "MADACHI",
        "lga": "RANO",
        "state": "KANO"
      }
    },
    {
      "type": "Feature",
      "geometry": {
        "type": "Point",
        "coordinates": [
          8.612051,
          11.5745884
        ]
      },
      "properties": {
        "name": "RUGA",
        "ward": "MADACHI",
        "lga": "RANO",
        "state": "KANO"
      }
    },
    {
      "type": "Feature",
      "geometry": {
        "type": "Point",
        "coordinates": [
          8.5993196,
          11.5855756
        ]
      },
      "properties": {
        "name": "TAURE PRIMARY SCHOOL",
        "ward": "MADACHI",
        "lga": "RANO",
        "state": "KANO"
      }
    },
    {
      "type": "Feature",
      "geometry": {
        "type": "Point",
        "coordinates": [
          8.5817208,
          11.5610365
        ]
      },
      "properties": {
        "name": "TAURE P.S. II",
        "ward": "MADACHI",
        "lga": "RANO",
        "state": "KANO"
      }
    },
    {
      "type": "Feature",
      "geometry": {
        "type": "Point",
        "coordinates": [
          8.5768401,
          11.5533684
        ]
      },
      "properties": {
        "name": "YANKWARCHI PRIMARY SCH. OPEN SPACE (YANKWARCHI)",
        "ward": "MADACHI",
        "lga": "RANO",
        "state": "KANO"
      }
    },
    {
      "type": "Feature",
      "geometry": {
        "type": "Point",
        "coordinates": [
          8.612051,
          11.5745884
        ]
      },
      "properties": {
        "name": "MADACHI CIKIN GARI II",
        "ward": "MADACHI",
        "lga": "RANO",
        "state": "KANO"
      }
    },
    {
      "type": "Feature",
      "geometry": {
        "type": "Point",
        "coordinates": [
          8.4594766,
          11.984807
        ]
      },
      "properties": {
        "name": "NANA KHADIJA ISLAMIYYA",
        "ward": "MADACHI",
        "lga": "RANO",
        "state": "KANO"
      }
    },
    {
      "type": "Feature",
      "geometry": {
        "type": "Point",
        "coordinates": [
          8.4887979,
          11.9928646
        ]
      },
      "properties": {
        "name": "AGENCY FOR MASS EDUC. I",
        "ward": "RANO",
        "lga": "RANO",
        "state": "KANO"
      }
    },
    {
      "type": "Feature",
      "geometry": {
        "type": "Point",
        "coordinates": [
          8.4887979,
          11.9928646
        ]
      },
      "properties": {
        "name": "AGENCY FOR MASS EDUC. II",
        "ward": "RANO",
        "lga": "RANO",
        "state": "KANO"
      }
    },
    {
      "type": "Feature",
      "geometry": {
        "type": "Point",
        "coordinates": [
          8.5702699,
          11.5590008
        ]
      },
      "properties": {
        "name": "RANO CENTRAL PRY. SCH. I",
        "ward": "RANO",
        "lga": "RANO",
        "state": "KANO"
      }
    },
    {
      "type": "Feature",
      "geometry": {
        "type": "Point",
        "coordinates": [
          8.5702699,
          11.5590008
        ]
      },
      "properties": {
        "name": "RANO CENTRAL PRY. SCH. II",
        "ward": "RANO",
        "lga": "RANO",
        "state": "KANO"
      }
    },
    {
      "type": "Feature",
      "geometry": {
        "type": "Point",
        "coordinates": [
          8.5702699,
          11.5590008
        ]
      },
      "properties": {
        "name": "RANO CENTRAL PRY. SCH. III",
        "ward": "RANO",
        "lga": "RANO",
        "state": "KANO"
      }
    },
    {
      "type": "Feature",
      "geometry": {
        "type": "Point",
        "coordinates": [
          8.5768401,
          11.5533684
        ]
      },
      "properties": {
        "name": "RANO CENTRAL PRY. SCH. IV",
        "ward": "RANO",
        "lga": "RANO",
        "state": "KANO"
      }
    },
    {
      "type": "Feature",
      "geometry": {
        "type": "Point",
        "coordinates": [
          8.5768401,
          11.5533684
        ]
      },
      "properties": {
        "name": "RANO CENTRAL PRY. SCH. V",
        "ward": "RANO",
        "lga": "RANO",
        "state": "KANO"
      }
    },
    {
      "type": "Feature",
      "geometry": {
        "type": "Point",
        "coordinates": [
          8.5768401,
          11.5533684
        ]
      },
      "properties": {
        "name": "RANO KOFAR FADA I",
        "ward": "RANO",
        "lga": "RANO",
        "state": "KANO"
      }
    },
    {
      "type": "Feature",
      "geometry": {
        "type": "Point",
        "coordinates": [
          8.4928969,
          11.9781397
        ]
      },
      "properties": {
        "name": "MAI BENE ISLAMIYYA SCH. OPEN SPACE I (SABO LAYI I)",
        "ward": "RANO",
        "lga": "RANO",
        "state": "KANO"
      }
    },
    {
      "type": "Feature",
      "geometry": {
        "type": "Point",
        "coordinates": [
          8.552152699999999,
          12.0096745
        ]
      },
      "properties": {
        "name": "MAI BENE ISLAMIYYA SCH. OPEN SPACE II (SABO LAYI II)",
        "ward": "RANO",
        "lga": "RANO",
        "state": "KANO"
      }
    },
    {
      "type": "Feature",
      "geometry": {
        "type": "Point",
        "coordinates": [
          8.5269882,
          11.9929847
        ]
      },
      "properties": {
        "name": "JUNIOR GIRLS SEC SCH. OPEN SPACE (SHAGARI QUARTERS I)",
        "ward": "RANO",
        "lga": "RANO",
        "state": "KANO"
      }
    },
    {
      "type": "Feature",
      "geometry": {
        "type": "Point",
        "coordinates": [
          8.5266834,
          11.96254
        ]
      },
      "properties": {
        "name": "SHAGARI QUARTERS II",
        "ward": "RANO",
        "lga": "RANO",
        "state": "KANO"
      }
    },
    {
      "type": "Feature",
      "geometry": {
        "type": "Point",
        "coordinates": [
          8.57774,
          11.9692
        ]
      },
      "properties": {
        "name": "UNGUWAR GUSKA OPEN SPACE (UNGUWAR GUSK)",
        "ward": "RANO",
        "lga": "RANO",
        "state": "KANO"
      }
    },
    {
      "type": "Feature",
      "geometry": {
        "type": "Point",
        "coordinates": [
          8.577142799999999,
          11.5537814
        ]
      },
      "properties": {
        "name": "FINDI ISLAMIYYA I",
        "ward": "RANO",
        "lga": "RANO",
        "state": "KANO"
      }
    },
    {
      "type": "Feature",
      "geometry": {
        "type": "Point",
        "coordinates": [
          8.5859267,
          11.5604996
        ]
      },
      "properties": {
        "name": "RANO CPS BLOCK J",
        "ward": "RANO",
        "lga": "RANO",
        "state": "KANO"
      }
    },
    {
      "type": "Feature",
      "geometry": {
        "type": "Point",
        "coordinates": [
          8.4293891,
          12.0017645
        ]
      },
      "properties": {
        "name": "NURUL DURUS ISLAMIYYA",
        "ward": "RANO",
        "lga": "RANO",
        "state": "KANO"
      }
    },
    {
      "type": "Feature",
      "geometry": {
        "type": "Point",
        "coordinates": [
          8.580901599999999,
          11.559144
        ]
      },
      "properties": {
        "name": "FINDI ISLAMIYYA II",
        "ward": "RANO",
        "lga": "RANO",
        "state": "KANO"
      }
    },
    {
      "type": "Feature",
      "geometry": {
        "type": "Point",
        "coordinates": [
          8.575684299999999,
          11.5538644
        ]
      },
      "properties": {
        "name": "WOMEN CENTER RANO",
        "ward": "RANO",
        "lga": "RANO",
        "state": "KANO"
      }
    },
    {
      "type": "Feature",
      "geometry": {
        "type": "Point",
        "coordinates": [
          8.577142799999999,
          11.5537814
        ]
      },
      "properties": {
        "name": "ZINATUDDEEN ISLAMIYYA",
        "ward": "RANO",
        "lga": "RANO",
        "state": "KANO"
      }
    },
    {
      "type": "Feature",
      "geometry": {
        "type": "Point",
        "coordinates": [
          8.5006903,
          12.0052643
        ]
      },
      "properties": {
        "name": "GALKERE ISLAMIYYA",
        "ward": "RANO",
        "lga": "RANO",
        "state": "KANO"
      }
    },
    {
      "type": "Feature",
      "geometry": {
        "type": "Point",
        "coordinates": [
          8.5680735,
          11.9815187
        ]
      },
      "properties": {
        "name": "G.G.S.S TAHFIZ QUR'AN ISLAMIYYA SHAGAR",
        "ward": "RANO",
        "lga": "RANO",
        "state": "KANO"
      }
    },
    {
      "type": "Feature",
      "geometry": {
        "type": "Point",
        "coordinates": [
          8.5680735,
          11.9815187
        ]
      },
      "properties": {
        "name": "GGSS TAHFIZ QUR'AN ISLAMIYYA SHAGAR",
        "ward": "RANO",
        "lga": "RANO",
        "state": "KANO"
      }
    },
    {
      "type": "Feature",
      "geometry": {
        "type": "Point",
        "coordinates": [
          8.4442853,
          11.9830474
        ]
      },
      "properties": {
        "name": "ABDULLAHI BIN MAS'UD ISLAMIYYA",
        "ward": "RANO",
        "lga": "RANO",
        "state": "KANO"
      }
    },
    {
      "type": "Feature",
      "geometry": {
        "type": "Point",
        "coordinates": [
          8.5791753,
          11.5602087
        ]
      },
      "properties": {
        "name": "EDUCATION OFFICE RANO",
        "ward": "RANO",
        "lga": "RANO",
        "state": "KANO"
      }
    },
    {
      "type": "Feature",
      "geometry": {
        "type": "Point",
        "coordinates": [
          8.4517274,
          11.5198261
        ]
      },
      "properties": {
        "name": "J.S.S. RURUM I",
        "ward": "RURUM TSOHON-GARI",
        "lga": "RANO",
        "state": "KANO"
      }
    },
    {
      "type": "Feature",
      "geometry": {
        "type": "Point",
        "coordinates": [
          8.4517274,
          11.5198261
        ]
      },
      "properties": {
        "name": "J.S.S. RURUM I",
        "ward": "RURUM TSOHON-GARI",
        "lga": "RANO",
        "state": "KANO"
      }
    },
    {
      "type": "Feature",
      "geometry": {
        "type": "Point",
        "coordinates": [
          8.4517274,
          11.5198261
        ]
      },
      "properties": {
        "name": "J.S.S. RURUM II",
        "ward": "RURUM TSOHON-GARI",
        "lga": "RANO",
        "state": "KANO"
      }
    },
    {
      "type": "Feature",
      "geometry": {
        "type": "Point",
        "coordinates": [
          8.5352087,
          12.0058908
        ]
      },
      "properties": {
        "name": "KAFI",
        "ward": "RURUM TSOHON-GARI",
        "lga": "RANO",
        "state": "KANO"
      }
    },
    {
      "type": "Feature",
      "geometry": {
        "type": "Point",
        "coordinates": [
          8.4513272,
          11.4592336
        ]
      },
      "properties": {
        "name": "KAURA GARBA I",
        "ward": "RURUM TSOHON-GARI",
        "lga": "RANO",
        "state": "KANO"
      }
    },
    {
      "type": "Feature",
      "geometry": {
        "type": "Point",
        "coordinates": [
          8.4513272,
          11.4592336
        ]
      },
      "properties": {
        "name": "KAURA GARBA II",
        "ward": "RURUM TSOHON-GARI",
        "lga": "RANO",
        "state": "KANO"
      }
    },
    {
      "type": "Feature",
      "geometry": {
        "type": "Point",
        "coordinates": [
          8.4513272,
          11.4592336
        ]
      },
      "properties": {
        "name": "KAURA GARBA III",
        "ward": "RURUM TSOHON-GARI",
        "lga": "RANO",
        "state": "KANO"
      }
    },
    {
      "type": "Feature",
      "geometry": {
        "type": "Point",
        "coordinates": [
          8.5777574,
          11.96916
        ]
      },
      "properties": {
        "name": "KAURA GARBA IV",
        "ward": "RURUM TSOHON-GARI",
        "lga": "RANO",
        "state": "KANO"
      }
    },
    {
      "type": "Feature",
      "geometry": {
        "type": "Point",
        "coordinates": [
          8.4997916,
          11.9880371
        ]
      },
      "properties": {
        "name": "MAZAUNA I",
        "ward": "RURUM TSOHON-GARI",
        "lga": "RANO",
        "state": "KANO"
      }
    },
    {
      "type": "Feature",
      "geometry": {
        "type": "Point",
        "coordinates": [
          8.4997916,
          11.9880371
        ]
      },
      "properties": {
        "name": "MAZAUNA II",
        "ward": "RURUM TSOHON-GARI",
        "lga": "RANO",
        "state": "KANO"
      }
    },
    {
      "type": "Feature",
      "geometry": {
        "type": "Point",
        "coordinates": [
          8.4391362,
          11.459608
        ]
      },
      "properties": {
        "name": "TASHAR IDI",
        "ward": "RURUM TSOHON-GARI",
        "lga": "RANO",
        "state": "KANO"
      }
    },
    {
      "type": "Feature",
      "geometry": {
        "type": "Point",
        "coordinates": [
          8.4647405,
          11.4348557
        ]
      },
      "properties": {
        "name": "J.S.S.S RURUM IV",
        "ward": "RURUM TSOHON-GARI",
        "lga": "RANO",
        "state": "KANO"
      }
    },
    {
      "type": "Feature",
      "geometry": {
        "type": "Point",
        "coordinates": [
          8.4220531,
          11.4711904
        ]
      },
      "properties": {
        "name": "FARAR GADA",
        "ward": "RURUM TSOHON-GARI",
        "lga": "RANO",
        "state": "KANO"
      }
    },
    {
      "type": "Feature",
      "geometry": {
        "type": "Point",
        "coordinates": [
          8.5777574,
          11.96916
        ]
      },
      "properties": {
        "name": "KAMBARAWA",
        "ward": "LAUSU",
        "lga": "RANO",
        "state": "KANO"
      }
    },
    {
      "type": "Feature",
      "geometry": {
        "type": "Point",
        "coordinates": [
          8.51271,
          12.0024404
        ]
      },
      "properties": {
        "name": "KURMI",
        "ward": "LAUSU",
        "lga": "RANO",
        "state": "KANO"
      }
    },
    {
      "type": "Feature",
      "geometry": {
        "type": "Point",
        "coordinates": [
          8.634264199999999,
          11.5833105
        ]
      },
      "properties": {
        "name": "LAUSU GABAS I",
        "ward": "LAUSU",
        "lga": "RANO",
        "state": "KANO"
      }
    },
    {
      "type": "Feature",
      "geometry": {
        "type": "Point",
        "coordinates": [
          8.57774,
          11.9692
        ]
      },
      "properties": {
        "name": "LAUSU GABAS II",
        "ward": "LAUSU",
        "lga": "RANO",
        "state": "KANO"
      }
    },
    {
      "type": "Feature",
      "geometry": {
        "type": "Point",
        "coordinates": [
          8.57774,
          11.9692
        ]
      },
      "properties": {
        "name": "LAUSU GABAS III",
        "ward": "LAUSU",
        "lga": "RANO",
        "state": "KANO"
      }
    },
    {
      "type": "Feature",
      "geometry": {
        "type": "Point",
        "coordinates": [
          8.620066399999999,
          11.557545
        ]
      },
      "properties": {
        "name": "LAUSU YAMMA",
        "ward": "LAUSU",
        "lga": "RANO",
        "state": "KANO"
      }
    },
    {
      "type": "Feature",
      "geometry": {
        "type": "Point",
        "coordinates": [
          8.57774,
          11.9692
        ]
      },
      "properties": {
        "name": "SHANGU",
        "ward": "LAUSU",
        "lga": "RANO",
        "state": "KANO"
      }
    },
    {
      "type": "Feature",
      "geometry": {
        "type": "Point",
        "coordinates": [
          8.5777574,
          11.96916
        ]
      },
      "properties": {
        "name": "YAWAR",
        "ward": "LAUSU",
        "lga": "RANO",
        "state": "KANO"
      }
    },
    {
      "type": "Feature",
      "geometry": {
        "type": "Point",
        "coordinates": [
          8.57774,
          11.9692
        ]
      },
      "properties": {
        "name": "LAUSU GABAS PRIMARY SCHOOL  AA RANO",
        "ward": "LAUSU",
        "lga": "RANO",
        "state": "KANO"
      }
    },
    {
      "type": "Feature",
      "geometry": {
        "type": "Point",
        "coordinates": [
          8.5859267,
          11.5604996
        ]
      },
      "properties": {
        "name": "G.G.A.S.S LAUSU",
        "ward": "LAUSU",
        "lga": "RANO",
        "state": "KANO"
      }
    },
    {
      "type": "Feature",
      "geometry": {
        "type": "Point",
        "coordinates": [
          8.5859267,
          11.5604996
        ]
      },
      "properties": {
        "name": "G.I.S.S SHANGU",
        "ward": "LAUSU",
        "lga": "RANO",
        "state": "KANO"
      }
    },
    {
      "type": "Feature",
      "geometry": {
        "type": "Point",
        "coordinates": [
          8.5827878,
          11.5581609
        ]
      },
      "properties": {
        "name": "BAKIN INJI I",
        "ward": "RURUM SABON-GARI",
        "lga": "RANO",
        "state": "KANO"
      }
    },
    {
      "type": "Feature",
      "geometry": {
        "type": "Point",
        "coordinates": [
          8.5827878,
          11.5581609
        ]
      },
      "properties": {
        "name": "BAKIN INJI II",
        "ward": "RURUM SABON-GARI",
        "lga": "RANO",
        "state": "KANO"
      }
    },
    {
      "type": "Feature",
      "geometry": {
        "type": "Point",
        "coordinates": [
          7.7100056,
          11.078286
        ]
      },
      "properties": {
        "name": "DOKA - RURUM",
        "ward": "RURUM SABON-GARI",
        "lga": "RANO",
        "state": "KANO"
      }
    },
    {
      "type": "Feature",
      "geometry": {
        "type": "Point",
        "coordinates": [
          8.490573999999999,
          11.5399621
        ]
      },
      "properties": {
        "name": "FADI SONKA",
        "ward": "RURUM SABON-GARI",
        "lga": "RANO",
        "state": "KANO"
      }
    },
    {
      "type": "Feature",
      "geometry": {
        "type": "Point",
        "coordinates": [
          8.4513264,
          11.5200062
        ]
      },
      "properties": {
        "name": "MUNTURE I",
        "ward": "RURUM SABON-GARI",
        "lga": "RANO",
        "state": "KANO"
      }
    },
    {
      "type": "Feature",
      "geometry": {
        "type": "Point",
        "coordinates": [
          8.4513264,
          11.5200062
        ]
      },
      "properties": {
        "name": "MUNTURE II",
        "ward": "RURUM SABON-GARI",
        "lga": "RANO",
        "state": "KANO"
      }
    },
    {
      "type": "Feature",
      "geometry": {
        "type": "Point",
        "coordinates": [
          8.4576964,
          11.5535986
        ]
      },
      "properties": {
        "name": "REFAWA",
        "ward": "RURUM SABON-GARI",
        "lga": "RANO",
        "state": "KANO"
      }
    },
    {
      "type": "Feature",
      "geometry": {
        "type": "Point",
        "coordinates": [
          8.4513272,
          11.5268106
        ]
      },
      "properties": {
        "name": "RURUM SABON GARI I",
        "ward": "RURUM SABON-GARI",
        "lga": "RANO",
        "state": "KANO"
      }
    },
    {
      "type": "Feature",
      "geometry": {
        "type": "Point",
        "coordinates": [
          8.4513272,
          11.5268106
        ]
      },
      "properties": {
        "name": "RURUM SABON GARI II",
        "ward": "RURUM SABON-GARI",
        "lga": "RANO",
        "state": "KANO"
      }
    },
    {
      "type": "Feature",
      "geometry": {
        "type": "Point",
        "coordinates": [
          8.4513272,
          11.5268106
        ]
      },
      "properties": {
        "name": "RURUM SABON GARI III",
        "ward": "RURUM SABON-GARI",
        "lga": "RANO",
        "state": "KANO"
      }
    },
    {
      "type": "Feature",
      "geometry": {
        "type": "Point",
        "coordinates": [
          8.4513272,
          11.5268106
        ]
      },
      "properties": {
        "name": "UNGUWAR SULE I",
        "ward": "RURUM SABON-GARI",
        "lga": "RANO",
        "state": "KANO"
      }
    },
    {
      "type": "Feature",
      "geometry": {
        "type": "Point",
        "coordinates": [
          8.4513272,
          11.5268106
        ]
      },
      "properties": {
        "name": "UNGUWAR SULE II",
        "ward": "RURUM SABON-GARI",
        "lga": "RANO",
        "state": "KANO"
      }
    },
    {
      "type": "Feature",
      "geometry": {
        "type": "Point",
        "coordinates": [
          8.539000099999999,
          12.0263498
        ]
      },
      "properties": {
        "name": "GGSS DAHERE",
        "ward": "RURUM SABON-GARI",
        "lga": "RANO",
        "state": "KANO"
      }
    },
    {
      "type": "Feature",
      "geometry": {
        "type": "Point",
        "coordinates": [
          8.5680735,
          11.9815187
        ]
      },
      "properties": {
        "name": "TAHFIZUL QUR'AN",
        "ward": "RURUM SABON-GARI",
        "lga": "RANO",
        "state": "KANO"
      }
    },
    {
      "type": "Feature",
      "geometry": {
        "type": "Point",
        "coordinates": [
          8.5680735,
          11.9815187
        ]
      },
      "properties": {
        "name": "GOVT. TAHFIZUL QUR'AN",
        "ward": "RURUM SABON-GARI",
        "lga": "RANO",
        "state": "KANO"
      }
    },
    {
      "type": "Feature",
      "geometry": {
        "type": "Point",
        "coordinates": [
          8.5415885,
          12.0259362
        ]
      },
      "properties": {
        "name": "KUNDUM OPEN SPACE",
        "ward": "RURUM SABON-GARI",
        "lga": "RANO",
        "state": "KANO"
      }
    },
    {
      "type": "Feature",
      "geometry": {
        "type": "Point",
        "coordinates": [
          8.580522,
          11.5566278
        ]
      },
      "properties": {
        "name": "BABUHA",
        "ward": "YALWA",
        "lga": "RANO",
        "state": "KANO"
      }
    },
    {
      "type": "Feature",
      "geometry": {
        "type": "Point",
        "coordinates": [
          8.550251,
          11.9753659
        ]
      },
      "properties": {
        "name": "BAKIN FA",
        "ward": "YALWA",
        "lga": "RANO",
        "state": "KANO"
      }
    },
    {
      "type": "Feature",
      "geometry": {
        "type": "Point",
        "coordinates": [
          8.4955433,
          11.990993
        ]
      },
      "properties": {
        "name": "BUL I",
        "ward": "YALWA",
        "lga": "RANO",
        "state": "KANO"
      }
    },
    {
      "type": "Feature",
      "geometry": {
        "type": "Point",
        "coordinates": [
          8.528161299999999,
          11.4457444
        ]
      },
      "properties": {
        "name": "DOKA YALWA",
        "ward": "YALWA",
        "lga": "RANO",
        "state": "KANO"
      }
    },
    {
      "type": "Feature",
      "geometry": {
        "type": "Point",
        "coordinates": [
          8.5368658,
          11.3924719
        ]
      },
      "properties": {
        "name": "KAZAURAWA",
        "ward": "YALWA",
        "lga": "RANO",
        "state": "KANO"
      }
    },
    {
      "type": "Feature",
      "geometry": {
        "type": "Point",
        "coordinates": [
          8.5162293,
          11.4835853
        ]
      },
      "properties": {
        "name": "MASHE",
        "ward": "YALWA",
        "lga": "RANO",
        "state": "KANO"
      }
    },
    {
      "type": "Feature",
      "geometry": {
        "type": "Point",
        "coordinates": [
          8.5108941,
          11.9467229
        ]
      },
      "properties": {
        "name": "TAKALAFIYA",
        "ward": "YALWA",
        "lga": "RANO",
        "state": "KANO"
      }
    },
    {
      "type": "Feature",
      "geometry": {
        "type": "Point",
        "coordinates": [
          8.185176499999999,
          11.4852437
        ]
      },
      "properties": {
        "name": "YALWA CIKIN GARI I",
        "ward": "YALWA",
        "lga": "RANO",
        "state": "KANO"
      }
    },
    {
      "type": "Feature",
      "geometry": {
        "type": "Point",
        "coordinates": [
          8.185176499999999,
          11.4852437
        ]
      },
      "properties": {
        "name": "YALWA CIKIN GARI II",
        "ward": "YALWA",
        "lga": "RANO",
        "state": "KANO"
      }
    },
    {
      "type": "Feature",
      "geometry": {
        "type": "Point",
        "coordinates": [
          8.729931299999999,
          11.8306297
        ]
      },
      "properties": {
        "name": "GIDAN ZANGI ISLAMIYYA",
        "ward": "YALWA",
        "lga": "RANO",
        "state": "KANO"
      }
    },
    {
      "type": "Feature",
      "geometry": {
        "type": "Point",
        "coordinates": [
          8.577142799999999,
          11.5537814
        ]
      },
      "properties": {
        "name": "CHAKWAYA",
        "ward": "DAWAKI",
        "lga": "RANO",
        "state": "KANO"
      }
    },
    {
      "type": "Feature",
      "geometry": {
        "type": "Point",
        "coordinates": [
          8.581717,
          11.5610083
        ]
      },
      "properties": {
        "name": "DAWAKI",
        "ward": "DAWAKI",
        "lga": "RANO",
        "state": "KANO"
      }
    },
    {
      "type": "Feature",
      "geometry": {
        "type": "Point",
        "coordinates": [
          7.396642600000001,
          9.1324845
        ]
      },
      "properties": {
        "name": "DAWAKI P.S. I",
        "ward": "DAWAKI",
        "lga": "RANO",
        "state": "KANO"
      }
    },
    {
      "type": "Feature",
      "geometry": {
        "type": "Point",
        "coordinates": [
          8.5611142,
          11.5461259
        ]
      },
      "properties": {
        "name": "DAWAKI P.S. II",
        "ward": "DAWAKI",
        "lga": "RANO",
        "state": "KANO"
      }
    },
    {
      "type": "Feature",
      "geometry": {
        "type": "Point",
        "coordinates": [
          8.577142799999999,
          11.5537814
        ]
      },
      "properties": {
        "name": "DAWAKI P.S. III",
        "ward": "DAWAKI",
        "lga": "RANO",
        "state": "KANO"
      }
    },
    {
      "type": "Feature",
      "geometry": {
        "type": "Point",
        "coordinates": [
          8.577142799999999,
          11.5537814
        ]
      },
      "properties": {
        "name": "GWANGWAN",
        "ward": "DAWAKI",
        "lga": "RANO",
        "state": "KANO"
      }
    },
    {
      "type": "Feature",
      "geometry": {
        "type": "Point",
        "coordinates": [
          8.577142799999999,
          11.5537814
        ]
      },
      "properties": {
        "name": "LUFUR",
        "ward": "DAWAKI",
        "lga": "RANO",
        "state": "KANO"
      }
    },
    {
      "type": "Feature",
      "geometry": {
        "type": "Point",
        "coordinates": [
          8.418422399999999,
          12.1493458
        ]
      },
      "properties": {
        "name": "TOFA I",
        "ward": "DAWAKI",
        "lga": "RANO",
        "state": "KANO"
      }
    },
    {
      "type": "Feature",
      "geometry": {
        "type": "Point",
        "coordinates": [
          8.418422399999999,
          12.1493458
        ]
      },
      "properties": {
        "name": "TOFA II",
        "ward": "DAWAKI",
        "lga": "RANO",
        "state": "KANO"
      }
    },