{
  "type": "FeatureCollection",
  "features": [
    {
      "type": "Feature",
      "geometry": {
        "type": "Point",
        "coordinates": [
          7.660236500000001,
          8.8844727
        ]
      },
      "properties": {
        "name": "KWADAKI - OP",
        "ward": "KARSHI I",
        "lga": "KARU",
        "state": "NASARAWA"
      }
    },
    {
      "type": "Feature",
      "geometry": {
        "type": "Point",
        "coordinates": [
          7.569414099999999,
          8.8083292
        ]
      },
      "properties": {
        "name": "KARSHI PADA - OP",
        "ward": "KARSHI I",
        "lga": "KARU",
        "state": "NASARAWA"
      }
    },
    {
      "type": "Feature",
      "geometry": {
        "type": "Point",
        "coordinates": [
          7.5625669,
          8.8195672
        ]
      },
      "properties": {
        "name": "PIYANKO BOLE - OP",
        "ward": "KARSHI I",
        "lga": "KARU",
        "state": "NASARAWA"
      }
    },
    {
      "type": "Feature",
      "geometry": {
        "type": "Point",
        "coordinates": [
          7.6004644,
          9.0268067
        ]
      },
      "properties": {
        "name": "KARSHI OROZO - OP",
        "ward": "KARSHI I",
        "lga": "KARU",
        "state": "NASARAWA"
      }
    },
    {
      "type": "Feature",
      "geometry": {
        "type": "Point",
        "coordinates": [
          7.5800124,
          8.828455199999999
        ]
      },
      "properties": {
        "name": "AURA AHMDIYA",
        "ward": "KARSHI I",
        "lga": "KARU",
        "state": "NASARAWA"
      }
    },
    {
      "type": "Feature",
      "geometry": {
        "type": "Point",
        "coordinates": [
          7.633112999999999,
          9.0000973
        ]
      },
      "properties": {
        "name": "NGBOGANI-OP",
        "ward": "KARSHI I",
        "lga": "KARU",
        "state": "NASARAWA"
      }
    },
    {
      "type": "Feature",
      "geometry": {
        "type": "Point",
        "coordinates": [
          7.660236500000001,
          8.8844727
        ]
      },
      "properties": {
        "name": "KARSHI PADA I-OP",
        "ward": "KARSHI I",
        "lga": "KARU",
        "state": "NASARAWA"
      }
    },
    {
      "type": "Feature",
      "geometry": {
        "type": "Point",
        "coordinates": [
          7.660236500000001,
          8.8844727
        ]
      },
      "properties": {
        "name": "KASHI PADA II",
        "ward": "KARSHI I",
        "lga": "KARU",
        "state": "NASARAWA"
      }
    },
    {
      "type": "Feature",
      "geometry": {
        "type": "Point",
        "coordinates": [
          7.5788108,
          8.82952
        ]
      },
      "properties": {
        "name": "ANG. GALADIMA",
        "ward": "KARSHI I",
        "lga": "KARU",
        "state": "NASARAWA"
      }
    },
    {
      "type": "Feature",
      "geometry": {
        "type": "Point",
        "coordinates": [
          7.5800124,
          8.828455199999999
        ]
      },
      "properties": {
        "name": "PIANKO PRI. SCH.",
        "ward": "KARSHI I",
        "lga": "KARU",
        "state": "NASARAWA"
      }
    },
    {
      "type": "Feature",
      "geometry": {
        "type": "Point",
        "coordinates": [
          7.589135799999999,
          8.8687632
        ]
      },
      "properties": {
        "name": "GASAKI",
        "ward": "KARSHI I",
        "lga": "KARU",
        "state": "NASARAWA"
      }
    },
    {
      "type": "Feature",
      "geometry": {
        "type": "Point",
        "coordinates": [
          7.5676411,
          8.828242699999999
        ]
      },
      "properties": {
        "name": "KARSHI OROZO PRI. SCH",
        "ward": "KARSHI I",
        "lga": "KARU",
        "state": "NASARAWA"
      }
    },
    {
      "type": "Feature",
      "geometry": {
        "type": "Point",
        "coordinates": [
          7.556109999999999,
          8.8166391
        ]
      },
      "properties": {
        "name": "KARSHI OROZO SEC. SCH",
        "ward": "KARSHI I",
        "lga": "KARU",
        "state": "NASARAWA"
      }
    },
    {
      "type": "Feature",
      "geometry": {
        "type": "Point",
        "coordinates": [
          7.5788108,
          8.82952
        ]
      },
      "properties": {
        "name": "ANG. SARKI FADA",
        "ward": "KARSHI I",
        "lga": "KARU",
        "state": "NASARAWA"
      }
    },
    {
      "type": "Feature",
      "geometry": {
        "type": "Point",
        "coordinates": [
          7.5800124,
          8.828455199999999
        ]
      },
      "properties": {
        "name": "LOKO PRI. SCH.",
        "ward": "KARSHI I",
        "lga": "KARU",
        "state": "NASARAWA"
      }
    },
    {
      "type": "Feature",
      "geometry": {
        "type": "Point",
        "coordinates": [
          7.600761399999999,
          8.886562999999999
        ]
      },
      "properties": {
        "name": "GIDAN JAFARU",
        "ward": "KARSHI I",
        "lga": "KARU",
        "state": "NASARAWA"
      }
    },
    {
      "type": "Feature",
      "geometry": {
        "type": "Point",
        "coordinates": [
          7.572462199999999,
          8.992779600000002
        ]
      },
      "properties": {
        "name": "GIDAN MUDU",
        "ward": "KARSHI I",
        "lga": "KARU",
        "state": "NASARAWA"
      }
    },
    {
      "type": "Feature",
      "geometry": {
        "type": "Point",
        "coordinates": [
          7.609587299999999,
          8.8858519
        ]
      },
      "properties": {
        "name": "NAVY ESTATE",
        "ward": "KARSHI I",
        "lga": "KARU",
        "state": "NASARAWA"
      }
    },
    {
      "type": "Feature",
      "geometry": {
        "type": "Point",
        "coordinates": [
          7.569414099999999,
          8.8083292
        ]
      },
      "properties": {
        "name": "ANG. BAKO",
        "ward": "KARSHI I",
        "lga": "KARU",
        "state": "NASARAWA"
      }
    },
    {
      "type": "Feature",
      "geometry": {
        "type": "Point",
        "coordinates": [
          7.588273999999999,
          8.9030947
        ]
      },
      "properties": {
        "name": "KAJA ESTATE",
        "ward": "KARSHI I",
        "lga": "KARU",
        "state": "NASARAWA"
      }
    },
    {
      "type": "Feature",
      "geometry": {
        "type": "Point",
        "coordinates": [
          7.6765157,
          9.1748475
        ]
      },
      "properties": {
        "name": "GWANDARA  I",
        "ward": "GURKU/KABUSU",
        "lga": "KARU",
        "state": "NASARAWA"
      }
    },
    {
      "type": "Feature",
      "geometry": {
        "type": "Point",
        "coordinates": [
          7.6765157,
          9.1748475
        ]
      },
      "properties": {
        "name": "GURKU  GWANDARA II",
        "ward": "GURKU/KABUSU",
        "lga": "KARU",
        "state": "NASARAWA"
      }
    },
    {
      "type": "Feature",
      "geometry": {
        "type": "Point",
        "coordinates": [
          7.6765157,
          9.1748475
        ]
      },
      "properties": {
        "name": "GURKU  GWANDARA III",
        "ward": "GURKU/KABUSU",
        "lga": "KARU",
        "state": "NASARAWA"
      }
    },
    {
      "type": "Feature",
      "geometry": {
        "type": "Point",
        "coordinates": [
          7.6130682,
          9.0950997
        ]
      },
      "properties": {
        "name": "GURKU GWARI PRI.SCHOOL - PB",
        "ward": "GURKU/KABUSU",
        "lga": "KARU",
        "state": "NASARAWA"
      }
    },
    {
      "type": "Feature",
      "geometry": {
        "type": "Point",
        "coordinates": [
          7.600545299999999,
          9.0338931
        ]
      },
      "properties": {
        "name": "CHAKUWA PRI.SCHOOL - PB",
        "ward": "GURKU/KABUSU",
        "lga": "KARU",
        "state": "NASARAWA"
      }
    },
    {
      "type": "Feature",
      "geometry": {
        "type": "Point",
        "coordinates": [
          7.6765157,
          9.1748475
        ]
      },
      "properties": {
        "name": "KABUSU PRI.SCHOOL - PB",
        "ward": "GURKU/KABUSU",
        "lga": "KARU",
        "state": "NASARAWA"
      }
    },
    {
      "type": "Feature",
      "geometry": {
        "type": "Point",
        "coordinates": [
          7.6765157,
          9.1748475
        ]
      },
      "properties": {
        "name": "KPANDA - OP",
        "ward": "GURKU/KABUSU",
        "lga": "KARU",
        "state": "NASARAWA"
      }
    },
    {
      "type": "Feature",
      "geometry": {
        "type": "Point",
        "coordinates": [
          7.6765157,
          9.1748475
        ]
      },
      "properties": {
        "name": "MAKURDI -OP",
        "ward": "GURKU/KABUSU",
        "lga": "KARU",
        "state": "NASARAWA"
      }
    },
    {
      "type": "Feature",
      "geometry": {
        "type": "Point",
        "coordinates": [
          7.6765157,
          9.1748475
        ]
      },
      "properties": {
        "name": "BAGOJE - OP",
        "ward": "GURKU/KABUSU",
        "lga": "KARU",
        "state": "NASARAWA"
      }
    },
    {
      "type": "Feature",
      "geometry": {
        "type": "Point",
        "coordinates": [
          7.6318461,
          8.999914799999999
        ]
      },
      "properties": {
        "name": "KUGWARU PRI.SCHOOL - PB",
        "ward": "GURKU/KABUSU",
        "lga": "KARU",
        "state": "NASARAWA"
      }
    },
    {
      "type": "Feature",
      "geometry": {
        "type": "Point",
        "coordinates": [
          7.6318461,
          8.999914799999999
        ]
      },
      "properties": {
        "name": "KATANYI PRI.SCHOOL - PB",
        "ward": "GURKU/KABUSU",
        "lga": "KARU",
        "state": "NASARAWA"
      }
    },
    {
      "type": "Feature",
      "geometry": {
        "type": "Point",
        "coordinates": [
          7.572351899999998,
          8.992685
        ]
      },
      "properties": {
        "name": "GBARANDA PRI.SCHOOL - PB",
        "ward": "GURKU/KABUSU",
        "lga": "KARU",
        "state": "NASARAWA"
      }
    },
    {
      "type": "Feature",
      "geometry": {
        "type": "Point",
        "coordinates": [
          7.6130682,
          9.0950997
        ]
      },
      "properties": {
        "name": "GURKU GWANDARA PRIMARY SCHOOL",
        "ward": "GURKU/KABUSU",
        "lga": "KARU",
        "state": "NASARAWA"
      }
    },
    {
      "type": "Feature",
      "geometry": {
        "type": "Point",
        "coordinates": [
          7.6765157,
          9.1748475
        ]
      },
      "properties": {
        "name": "GURKU GWANDARA OPEN PLACE (OP)",
        "ward": "GURKU/KABUSU",
        "lga": "KARU",
        "state": "NASARAWA"
      }
    },
    {
      "type": "Feature",
      "geometry": {
        "type": "Point",
        "coordinates": [
          7.6765157,
          9.1748475
        ]
      },
      "properties": {
        "name": "GURKU GWANDARA OPEN PLACE (OP)",
        "ward": "GURKU/KABUSU",
        "lga": "KARU",
        "state": "NASARAWA"
      }
    },
    {
      "type": "Feature",
      "geometry": {
        "type": "Point",
        "coordinates": [
          7.600070100000001,
          9.0259763
        ]
      },
      "properties": {
        "name": "PRIMARY HEALTH CARE",
        "ward": "GURKU/KABUSU",
        "lga": "KARU",
        "state": "NASARAWA"
      }
    },
    {
      "type": "Feature",
      "geometry": {
        "type": "Point",
        "coordinates": [
          7.6765157,
          9.1748475
        ]
      },
      "properties": {
        "name": "KALADA-OP",
        "ward": "GURKU/KABUSU",
        "lga": "KARU",
        "state": "NASARAWA"
      }
    },
    {
      "type": "Feature",
      "geometry": {
        "type": "Point",
        "coordinates": [
          7.6765157,
          9.1748475
        ]
      },
      "properties": {
        "name": "ZHEWU YELWA",
        "ward": "GURKU/KABUSU",
        "lga": "KARU",
        "state": "NASARAWA"
      }
    },
    {
      "type": "Feature",
      "geometry": {
        "type": "Point",
        "coordinates": [
          7.6765157,
          9.1748475
        ]
      },
      "properties": {
        "name": "JIDNA-OP",
        "ward": "GURKU/KABUSU",
        "lga": "KARU",
        "state": "NASARAWA"
      }
    },
    {
      "type": "Feature",
      "geometry": {
        "type": "Point",
        "coordinates": [
          7.6130682,
          9.0950997
        ]
      },
      "properties": {
        "name": "GSS GURKU GWARI",
        "ward": "GURKU/KABUSU",
        "lga": "KARU",
        "state": "NASARAWA"
      }
    },
    {
      "type": "Feature",
      "geometry": {
        "type": "Point",
        "coordinates": [
          7.6765157,
          9.1748475
        ]
      },
      "properties": {
        "name": "ZHAYI-OP",
        "ward": "GURKU/KABUSU",
        "lga": "KARU",
        "state": "NASARAWA"
      }
    },
    {
      "type": "Feature",
      "geometry": {
        "type": "Point",
        "coordinates": [
          7.6765157,
          9.1748475
        ]
      },
      "properties": {
        "name": "VINGOPIE PRI. SCH.",
        "ward": "GURKU/KABUSU",
        "lga": "KARU",
        "state": "NASARAWA"
      }
    },
    {
      "type": "Feature",
      "geometry": {
        "type": "Point",
        "coordinates": [
          7.6765157,
          9.1748475
        ]
      },
      "properties": {
        "name": "AKAYIPE-OP",
        "ward": "GURKU/KABUSU",
        "lga": "KARU",
        "state": "NASARAWA"
      }
    },
    {
      "type": "Feature",
      "geometry": {
        "type": "Point",
        "coordinates": [
          7.6765157,
          9.1748475
        ]
      },
      "properties": {
        "name": "KUPE-OP",
        "ward": "GURKU/KABUSU",
        "lga": "KARU",
        "state": "NASARAWA"
      }
    },
    {
      "type": "Feature",
      "geometry": {
        "type": "Point",
        "coordinates": [
          7.6765157,
          9.1748475
        ]
      },
      "properties": {
        "name": "KAPA-OP",
        "ward": "GURKU/KABUSU",
        "lga": "KARU",
        "state": "NASARAWA"
      }
    },
    {
      "type": "Feature",
      "geometry": {
        "type": "Point",
        "coordinates": [
          7.6765157,
          9.1748475
        ]
      },
      "properties": {
        "name": "KUGWARU PHC",
        "ward": "GURKU/KABUSU",
        "lga": "KARU",
        "state": "NASARAWA"
      }
    },
    {
      "type": "Feature",
      "geometry": {
        "type": "Point",
        "coordinates": [
          7.6765157,
          9.1748475
        ]
      },
      "properties": {
        "name": "DUNKURU NOMADIC",
        "ward": "GURKU/KABUSU",
        "lga": "KARU",
        "state": "NASARAWA"
      }
    },
    {
      "type": "Feature",
      "geometry": {
        "type": "Point",
        "coordinates": [
          7.6765157,
          9.1748475
        ]
      },
      "properties": {
        "name": "ZHAYIP-OP",
        "ward": "GURKU/KABUSU",
        "lga": "KARU",
        "state": "NASARAWA"
      }
    },
    {
      "type": "Feature",
      "geometry": {
        "type": "Point",
        "coordinates": [
          7.6765157,
          9.1748475
        ]
      },
      "properties": {
        "name": "PANKAWUGURKU",
        "ward": "GURKU/KABUSU",
        "lga": "KARU",
        "state": "NASARAWA"
      }
    },
    {
      "type": "Feature",
      "geometry": {
        "type": "Point",
        "coordinates": [
          7.828636800000001,
          8.7115022
        ]
      },
      "properties": {
        "name": "TAKALAFIYA FULANI",
        "ward": "KAFIN SHANU/BETTI",
        "lga": "KARU",
        "state": "NASARAWA"
      }
    },
    {
      "type": "Feature",
      "geometry": {
        "type": "Point",
        "coordinates": [
          7.7684962,
          8.807349499999999
        ]
      },
      "properties": {
        "name": "ANG. GWANDARA",
        "ward": "KAFIN SHANU/BETTI",
        "lga": "KARU",
        "state": "NASARAWA"
      }
    },
    {
      "type": "Feature",
      "geometry": {
        "type": "Point",
        "coordinates": [
          7.828636800000001,
          8.7115022
        ]
      },
      "properties": {
        "name": "ANG. CHEDIYA",
        "ward": "KAFIN SHANU/BETTI",
        "lga": "KARU",
        "state": "NASARAWA"
      }
    },
    {
      "type": "Feature",
      "geometry": {
        "type": "Point",
        "coordinates": [
          7.1860402,
          8.8940691
        ]
      },
      "properties": {
        "name": "TSAKANI",
        "ward": "KAFIN SHANU/BETTI",
        "lga": "KARU",
        "state": "NASARAWA"
      }
    },
    {
      "type": "Feature",
      "geometry": {
        "type": "Point",
        "coordinates": [
          7.8885165,
          8.7148105
        ]
      },
      "properties": {
        "name": "NIKE PRIMARY SCH.",
        "ward": "KAFIN SHANU/BETTI",
        "lga": "KARU",
        "state": "NASARAWA"
      }
    },
    {
      "type": "Feature",
      "geometry": {
        "type": "Point",
        "coordinates": [
          8.3705576,
          11.1704489
        ]
      },
      "properties": {
        "name": "AGWAN MADUGU PRIMARY SCHOOL",
        "ward": "KAFIN SHANU/BETTI",
        "lga": "KARU",
        "state": "NASARAWA"
      }
    },
    {
      "type": "Feature",
      "geometry": {
        "type": "Point",
        "coordinates": [
          7.1860402,
          8.8940691
        ]
      },
      "properties": {
        "name": "GWAYA OPEN SPACE",
        "ward": "KAFIN SHANU/BETTI",
        "lga": "KARU",
        "state": "NASARAWA"
      }
    },
    {
      "type": "Feature",
      "geometry": {
        "type": "Point",
        "coordinates": [
          7.828636800000001,
          8.7115022
        ]
      },
      "properties": {
        "name": "TAKALAFIYA  II",
        "ward": "KAFIN SHANU/BETTI",
        "lga": "KARU",
        "state": "NASARAWA"
      }
    },
    {
      "type": "Feature",
      "geometry": {
        "type": "Point",
        "coordinates": [
          7.828636800000001,
          8.7115022
        ]
      },
      "properties": {
        "name": "AGWAN HABU",
        "ward": "KAFIN SHANU/BETTI",
        "lga": "KARU",
        "state": "NASARAWA"
      }
    },
    {
      "type": "Feature",
      "geometry": {
        "type": "Point",
        "coordinates": [
          7.877618799999999,
          8.8470861
        ]
      },
      "properties": {
        "name": "AGWAN TONI II",
        "ward": "KAFIN SHANU/BETTI",
        "lga": "KARU",
        "state": "NASARAWA"
      }
    },
    {
      "type": "Feature",
      "geometry": {
        "type": "Point",
        "coordinates": [
          7.828636800000001,
          8.7115022
        ]
      },
      "properties": {
        "name": "SARKIN DOROWA",
        "ward": "KAFIN SHANU/BETTI",
        "lga": "KARU",
        "state": "NASARAWA"
      }
    },
    {
      "type": "Feature",
      "geometry": {
        "type": "Point",
        "coordinates": [
          7.5732485,
          9.008238
        ]
      },
      "properties": {
        "name": "KARU CENTRAL PRI.SCHOOL",
        "ward": "KARU",
        "lga": "KARU",
        "state": "NASARAWA"
      }
    },
    {
      "type": "Feature",
      "geometry": {
        "type": "Point",
        "coordinates": [
          7.5647286,
          9.0133033
        ]
      },
      "properties": {
        "name": "KARU POLICE STATION JUNCTION - OP",
        "ward": "KARU",
        "lga": "KARU",
        "state": "NASARAWA"
      }
    },
    {
      "type": "Feature",
      "geometry": {
        "type": "Point",
        "coordinates": [
          7.572462199999999,
          8.992779600000002
        ]
      },
      "properties": {
        "name": "DAGBADNA - OP",
        "ward": "KARU",
        "lga": "KARU",
        "state": "NASARAWA"
      }
    },
    {
      "type": "Feature",
      "geometry": {
        "type": "Point",
        "coordinates": [
          7.572462199999999,
          8.992779600000002
        ]
      },
      "properties": {
        "name": "KARU PADA - OP",
        "ward": "KARU",
        "lga": "KARU",
        "state": "NASARAWA"
      }
    },
    {
      "type": "Feature",
      "geometry": {
        "type": "Point",
        "coordinates": [
          7.6737883,
          8.9526677
        ]
      },
      "properties": {
        "name": "NYANYAN GBAGYI PRI.SCHOOL",
        "ward": "KARU",
        "lga": "KARU",
        "state": "NASARAWA"
      }
    },
    {
      "type": "Feature",
      "geometry": {
        "type": "Point",
        "coordinates": [
          7.631592699999999,
          9.0134993
        ]
      },
      "properties": {
        "name": "BAKIN ADO PRI.SCHOOL",
        "ward": "KARU",
        "lga": "KARU",
        "state": "NASARAWA"
      }
    },
    {
      "type": "Feature",
      "geometry": {
        "type": "Point",
        "coordinates": [
          7.607594499999999,
          9.0278916
        ]
      },
      "properties": {
        "name": "MARARABA GARAGE I",
        "ward": "KARU",
        "lga": "KARU",
        "state": "NASARAWA"
      }
    },
    {
      "type": "Feature",
      "geometry": {
        "type": "Point",
        "coordinates": [
          7.607557499999999,
          9.0233862
        ]
      },
      "properties": {
        "name": "MARARABA GARAGE II",
        "ward": "KARU",
        "lga": "KARU",
        "state": "NASARAWA"
      }
    },
    {
      "type": "Feature",
      "geometry": {
        "type": "Point",
        "coordinates": [
          7.588438600000001,
          9.0305223
        ]
      },
      "properties": {
        "name": "MARARABA SHARP CORNER - OP",
        "ward": "KARU",
        "lga": "KARU",
        "state": "NASARAWA"
      }
    },
    {
      "type": "Feature",
      "geometry": {
        "type": "Point",
        "coordinates": [
          7.611448299999999,
          9.029709
        ]
      },
      "properties": {
        "name": "MARARABA WHITE HOUSE - OP",
        "ward": "KARU",
        "lga": "KARU",
        "state": "NASARAWA"
      }
    },
    {
      "type": "Feature",
      "geometry": {
        "type": "Point",
        "coordinates": [
          7.686391999999999,
          8.9991224
        ]
      },
      "properties": {
        "name": "MASAKA PRI.SCHOOL",
        "ward": "KARU",
        "lga": "KARU",
        "state": "NASARAWA"
      }
    },
    {
      "type": "Feature",
      "geometry": {
        "type": "Point",
        "coordinates": [
          7.582283399999999,
          9.0097453
        ]
      },
      "properties": {
        "name": "MASAKA GARAGE",
        "ward": "KARU",
        "lga": "KARU",
        "state": "NASARAWA"
      }
    },
    {
      "type": "Feature",
      "geometry": {
        "type": "Point",
        "coordinates": [
          7.658071199999999,
          9.0227369
        ]
      },
      "properties": {
        "name": "NYANYA GWANDARA PRIMARY SCH.",
        "ward": "KARU",
        "lga": "KARU",
        "state": "NASARAWA"
      }
    },
    {
      "type": "Feature",
      "geometry": {
        "type": "Point",
        "coordinates": [
          7.6348838,
          8.9935906
        ]
      },
      "properties": {
        "name": "GOVT. SEC. SCI. SCHOOL, KARU",
        "ward": "KARU",
        "lga": "KARU",
        "state": "NASARAWA"
      }
    },
    {
      "type": "Feature",
      "geometry": {
        "type": "Point",
        "coordinates": [
          7.6385935,
          9.0017459
        ]
      },
      "properties": {
        "name": "ALUBWO I-OP",
        "ward": "KARU",
        "lga": "KARU",
        "state": "NASARAWA"
      }
    },
    {
      "type": "Feature",
      "geometry": {
        "type": "Point",
        "coordinates": [
          7.6385935,
          9.0017459
        ]
      },
      "properties": {
        "name": "AKODNAPA I-OP",
        "ward": "KARU",
        "lga": "KARU",
        "state": "NASARAWA"
      }
    },
    {
      "type": "Feature",
      "geometry": {
        "type": "Point",
        "coordinates": [
          7.6004644,
          9.0268067
        ]
      },
      "properties": {
        "name": "ANGWAN JABA-OP NEW KARU",
        "ward": "KARU",
        "lga": "KARU",
        "state": "NASARAWA"
      }
    },
    {
      "type": "Feature",
      "geometry": {
        "type": "Point",
        "coordinates": [
          7.572462199999999,
          8.992779600000002
        ]
      },
      "properties": {
        "name": "TURAKIDNA  PADA-OP",
        "ward": "KARU",
        "lga": "KARU",
        "state": "NASARAWA"
      }
    },
    {
      "type": "Feature",
      "geometry": {
        "type": "Point",
        "coordinates": [
          7.607355399999999,
          9.0266823
        ]
      },
      "properties": {
        "name": "CENTRAL PRI. SCHOOL II",
        "ward": "KARU",
        "lga": "KARU",
        "state": "NASARAWA"
      }
    },
    {
      "type": "Feature",
      "geometry": {
        "type": "Point",
        "coordinates": [
          7.6004644,
          9.0268067
        ]
      },
      "properties": {
        "name": "ANGWAN HAUSAWA-OP",
        "ward": "KARU",
        "lga": "KARU",
        "state": "NASARAWA"
      }
    },
    {
      "type": "Feature",
      "geometry": {
        "type": "Point",
        "coordinates": [
          7.572351899999998,
          8.992685
        ]
      },
      "properties": {
        "name": "AGWAN JIKWOYI-OP",
        "ward": "KARU",
        "lga": "KARU",
        "state": "NASARAWA"
      }
    },
    {
      "type": "Feature",
      "geometry": {
        "type": "Point",
        "coordinates": [
          7.611448299999999,
          9.029709
        ]
      },
      "properties": {
        "name": "WHITE HOUSE-OP",
        "ward": "KARU",
        "lga": "KARU",
        "state": "NASARAWA"
      }
    },
    {
      "type": "Feature",
      "geometry": {
        "type": "Point",
        "coordinates": [
          7.7600674,
          8.9439169
        ]
      },
      "properties": {
        "name": "ANGWAN MUAZU-OP",
        "ward": "KARU",
        "lga": "KARU",
        "state": "NASARAWA"
      }
    },
    {
      "type": "Feature",
      "geometry": {
        "type": "Point",
        "coordinates": [
          7.572462199999999,
          8.992779600000002
        ]
      },
      "properties": {
        "name": "GWITUKODNA-OP",
        "ward": "KARU",
        "lga": "KARU",
        "state": "NASARAWA"
      }
    },
    {
      "type": "Feature",
      "geometry": {
        "type": "Point",
        "coordinates": [
          7.631592699999999,
          9.0134993
        ]
      },
      "properties": {
        "name": "ADO PRI. SCH. MAICHIBI",
        "ward": "KARU",
        "lga": "KARU",
        "state": "NASARAWA"
      }
    },
    {
      "type": "Feature",
      "geometry": {
        "type": "Point",
        "coordinates": [
          7.6385935,
          9.0017459
        ]
      },
      "properties": {
        "name": "BADNA PADO-OP",
        "ward": "KARU",
        "lga": "KARU",
        "state": "NASARAWA"
      }
    },
    {
      "type": "Feature",
      "geometry": {
        "type": "Point",
        "coordinates": [
          7.572462199999999,
          8.992779600000002
        ]
      },
      "properties": {
        "name": "PADA II-OP",
        "ward": "KARU",
        "lga": "KARU",
        "state": "NASARAWA"
      }
    },
    {
      "type": "Feature",
      "geometry": {
        "type": "Point",
        "coordinates": [
          7.6354324,
          9.0040404
        ]
      },
      "properties": {
        "name": "E-LIBRARY-PB",
        "ward": "KARU",
        "lga": "KARU",
        "state": "NASARAWA"
      }
    },
    {
      "type": "Feature",
      "geometry": {
        "type": "Point",
        "coordinates": [
          7.575671099999999,
          9.0110888
        ]
      },
      "properties": {
        "name": "FERTILIZER-OP",
        "ward": "KARU",
        "lga": "KARU",
        "state": "NASARAWA"
      }
    },
    {
      "type": "Feature",
      "geometry": {
        "type": "Point",
        "coordinates": [
          7.7600674,
          8.9439169
        ]
      },
      "properties": {
        "name": "ANGWAN MAGAJI-OP",
        "ward": "KARU",
        "lga": "KARU",
        "state": "NASARAWA"
      }
    },
    {
      "type": "Feature",
      "geometry": {
        "type": "Point",
        "coordinates": [
          7.572462199999999,
          8.992779600000002
        ]
      },
      "properties": {
        "name": "KANTAPE-OP",
        "ward": "KARU",
        "lga": "KARU",
        "state": "NASARAWA"
      }
    },
    {
      "type": "Feature",
      "geometry": {
        "type": "Point",
        "coordinates": [
          7.6385935,
          9.0017459
        ]
      },
      "properties": {
        "name": "ANGWAN TIV-OP",
        "ward": "KARU",
        "lga": "KARU",
        "state": "NASARAWA"
      }
    },
    {
      "type": "Feature",
      "geometry": {
        "type": "Point",
        "coordinates": [
          7.572462199999999,
          8.992779600000002
        ]
      },
      "properties": {
        "name": "PADA III",
        "ward": "KARU",
        "lga": "KARU",
        "state": "NASARAWA"
      }
    },
    {
      "type": "Feature",
      "geometry": {
        "type": "Point",
        "coordinates": [
          7.6454198,
          9.0263633
        ]
      },
      "properties": {
        "name": "ANG. DOKA",
        "ward": "KARU",
        "lga": "KARU",
        "state": "NASARAWA"
      }
    },
    {
      "type": "Feature",
      "geometry": {
        "type": "Point",
        "coordinates": [
          7.572462199999999,
          8.992779600000002
        ]
      },
      "properties": {
        "name": "ANG. VUDABO",
        "ward": "KARU",
        "lga": "KARU",
        "state": "NASARAWA"
      }
    },
    {
      "type": "Feature",
      "geometry": {
        "type": "Point",
        "coordinates": [
          7.6385935,
          9.0017459
        ]
      },
      "properties": {
        "name": "ANG. DANLAMI",
        "ward": "KARU",
        "lga": "KARU",
        "state": "NASARAWA"
      }
    },
    {
      "type": "Feature",
      "geometry": {
        "type": "Point",
        "coordinates": [
          7.6063412,
          9.0207444
        ]
      },
      "properties": {
        "name": "AL-HIKIMA  INT. SCH",
        "ward": "KARU",
        "lga": "KARU",
        "state": "NASARAWA"
      }
    },
    {
      "type": "Feature",
      "geometry": {
        "type": "Point",
        "coordinates": [
          7.5828968,
          9.0097612
        ]
      },
      "properties": {
        "name": "TIPPER ROAD",
        "ward": "KARU",
        "lga": "KARU",
        "state": "NASARAWA"
      }
    },
    {
      "type": "Feature",
      "geometry": {
        "type": "Point",
        "coordinates": [
          7.696297899999999,
          8.9992133
        ]
      },
      "properties": {
        "name": "ZHISHIYA ACADEMY SCHOOL KORODUMA",
        "ward": "KARU",
        "lga": "KARU",
        "state": "NASARAWA"
      }
    },
    {
      "type": "Feature",
      "geometry": {
        "type": "Point",
        "coordinates": [
          7.721090999999999,
          8.904938999999999
        ]
      },
      "properties": {
        "name": "NEW NYANYAN GBAGI POLICE STATION",
        "ward": "KARU",
        "lga": "KARU",
        "state": "NASARAWA"
      }
    },
    {
      "type": "Feature",
      "geometry": {
        "type": "Point",
        "coordinates": [
          7.643695199999999,
          9.013272
        ]
      },
      "properties": {
        "name": "NYANYA GJSS",
        "ward": "KARU",
        "lga": "KARU",
        "state": "NASARAWA"
      }
    },
    {
      "type": "Feature",
      "geometry": {
        "type": "Point",
        "coordinates": [
          7.570881300000001,
          8.993646199999999
        ]
      },
      "properties": {
        "name": "GSS",
        "ward": "KARU",
        "lga": "KARU",
        "state": "NASARAWA"
      }
    },
    {
      "type": "Feature",
      "geometry": {
        "type": "Point",
        "coordinates": [
          7.572462199999999,
          8.992779600000002
        ]
      },
      "properties": {
        "name": "ANG. BANGYI",
        "ward": "KARU",
        "lga": "KARU",
        "state": "NASARAWA"
      }
    },
    {
      "type": "Feature",
      "geometry": {
        "type": "Point",
        "coordinates": [
          7.572462199999999,
          8.992779600000002
        ]
      },
      "properties": {
        "name": "ANG. SANWOLO",
        "ward": "KARU",
        "lga": "KARU",
        "state": "NASARAWA"
      }
    },
    {
      "type": "Feature",
      "geometry": {
        "type": "Point",
        "coordinates": [
          7.579423999999999,
          9.0029927
        ]
      },
      "properties": {
        "name": "PICOLO GUEST HOUSE",
        "ward": "KARU",
        "lga": "KARU",
        "state": "NASARAWA"
      }
    },
    {
      "type": "Feature",
      "geometry": {
        "type": "Point",
        "coordinates": [
          7.5785182,
          9.0083034
        ]
      },
      "properties": {
        "name": "YOUTH CENTER",
        "ward": "KARU",
        "lga": "KARU",
        "state": "NASARAWA"
      }
    },
    {
      "type": "Feature",
      "geometry": {
        "type": "Point",
        "coordinates": [
          7.572462199999999,
          8.992779600000002
        ]
      },
      "properties": {
        "name": "ANG. SARKIN GWANDARA",
        "ward": "KARU",
        "lga": "KARU",
        "state": "NASARAWA"
      }
    },
    {
      "type": "Feature",
      "geometry": {
        "type": "Point",
        "coordinates": [
          7.570881300000001,
          8.993646199999999
        ]
      },
      "properties": {
        "name": "GOVT. SECONDARY SCHOOL",
        "ward": "KARU",
        "lga": "KARU",
        "state": "NASARAWA"
      }
    },
    {
      "type": "Feature",
      "geometry": {
        "type": "Point",
        "coordinates": [
          7.6343199,
          9.0169362
        ]
      },
      "properties": {
        "name": "ANG. DANTATA KORODUMA OPP. POLICE STATION",
        "ward": "KARU",
        "lga": "KARU",
        "state": "NASARAWA"
      }
    },
    {
      "type": "Feature",
      "geometry": {
        "type": "Point",
        "coordinates": [
          7.572462199999999,
          8.992779600000002
        ]
      },
      "properties": {
        "name": "DUGBADNA",
        "ward": "KARU",
        "lga": "KARU",
        "state": "NASARAWA"
      }
    },
    {
      "type": "Feature",
      "geometry": {
        "type": "Point",
        "coordinates": [
          7.572462199999999,
          8.992779600000002
        ]
      },
      "properties": {
        "name": "KUBGO PADA",
        "ward": "KARU",
        "lga": "KARU",
        "state": "NASARAWA"
      }
    },
    {
      "type": "Feature",
      "geometry": {
        "type": "Point",
        "coordinates": [
          7.583246000000001,
          9.028509
        ]
      },
      "properties": {
        "name": "ADO GBAYI",
        "ward": "KARU",
        "lga": "KARU",
        "state": "NASARAWA"
      }
    },
    {
      "type": "Feature",
      "geometry": {
        "type": "Point",
        "coordinates": [
          7.6003199,
          9.0249389
        ]
      },
      "properties": {
        "name": "KORODUMA PHC",
        "ward": "KARU",
        "lga": "KARU",
        "state": "NASARAWA"
      }
    },
    {
      "type": "Feature",
      "geometry": {
        "type": "Point",
        "coordinates": [
          7.6003199,
          9.0249389
        ]
      },
      "properties": {
        "name": "ADO PHC",
        "ward": "KARU",
        "lga": "KARU",
        "state": "NASARAWA"
      }
    },
    {
      "type": "Feature",
      "geometry": {
        "type": "Point",
        "coordinates": [
          7.7230849,
          8.895068
        ]
      },
      "properties": {
        "name": "ANG. MAGAJI",
        "ward": "KARU",
        "lga": "KARU",
        "state": "NASARAWA"
      }
    },
    {
      "type": "Feature",
      "geometry": {
        "type": "Point",
        "coordinates": [
          7.6014224,
          9.0169636
        ]
      },
      "properties": {
        "name": "AUNTY ALICE SECONDARY SCHOOL",
        "ward": "KARU",
        "lga": "KARU",
        "state": "NASARAWA"
      }
    },
    {
      "type": "Feature",
      "geometry": {
        "type": "Point",
        "coordinates": [
          7.588438600000001,
          9.0305223
        ]
      },
      "properties": {
        "name": "BOUNDARY UNIT MARABA",
        "ward": "KARU",
        "lga": "KARU",
        "state": "NASARAWA"
      }
    },
    {
      "type": "Feature",
      "geometry": {
        "type": "Point",
        "coordinates": [
          7.591969,
          9.0094248
        ]
      },
      "properties": {
        "name": "ANGWAN ALBARKA",
        "ward": "KARU",
        "lga": "KARU",
        "state": "NASARAWA"
      }
    },
    {
      "type": "Feature",
      "geometry": {
        "type": "Point",
        "coordinates": [
          7.568617199999999,
          9.0100814
        ]
      },
      "properties": {
        "name": "RUGA PRIMARY SCHOOL",
        "ward": "KARU",
        "lga": "KARU",
        "state": "NASARAWA"
      }
    },
    {
      "type": "Feature",
      "geometry": {
        "type": "Point",
        "coordinates": [
          7.6385935,
          9.0017459
        ]
      },
      "properties": {
        "name": "AGWAN HASHIMU",
        "ward": "KARU",
        "lga": "KARU",
        "state": "NASARAWA"
      }
    },
    {
      "type": "Feature",
      "geometry": {
        "type": "Point",
        "coordinates": [
          7.5921599,
          9.0136058
        ]
      },
      "properties": {
        "name": "EPITOME SCHOOL",
        "ward": "KARU",
        "lga": "KARU",
        "state": "NASARAWA"
      }
    },
    {
      "type": "Feature",
      "geometry": {
        "type": "Point",
        "coordinates": [
          7.584134199999999,
          8.9947444
        ]
      },
      "properties": {
        "name": "NURSING ESTATE",
        "ward": "KARU",
        "lga": "KARU",
        "state": "NASARAWA"
      }
    },
    {
      "type": "Feature",
      "geometry": {
        "type": "Point",
        "coordinates": [
          7.598080699999999,
          9.0152352
        ]
      },
      "properties": {
        "name": "RUGA MARKET",
        "ward": "KARU",
        "lga": "KARU",
        "state": "NASARAWA"
      }
    },
    {
      "type": "Feature",
      "geometry": {
        "type": "Point",
        "coordinates": [
          7.6004644,
          9.0268067
        ]
      },
      "properties": {
        "name": "ANGWAN BABURAWA",
        "ward": "KARU",
        "lga": "KARU",
        "state": "NASARAWA"
      }
    },
    {
      "type": "Feature",
      "geometry": {
        "type": "Point",
        "coordinates": [
          7.5651423,
          8.997285900000001
        ]
      },
      "properties": {
        "name": "DANATATA QUARTERS",
        "ward": "KARU",
        "lga": "KARU",
        "state": "NASARAWA"
      }
    },
    {
      "type": "Feature",
      "geometry": {
        "type": "Point",
        "coordinates": [
          7.6073553,
          9.0266822
        ]
      },
      "properties": {
        "name": "IMMANI ESTATE",
        "ward": "KARU",
        "lga": "KARU",
        "state": "NASARAWA"
      }
    },
    {
      "type": "Feature",
      "geometry": {
        "type": "Point",
        "coordinates": [
          7.5864171,
          9.0166568
        ]
      },
      "properties": {
        "name": "KAPDA OFFICE",
        "ward": "KARU",
        "lga": "KARU",
        "state": "NASARAWA"
      }
    },
    {
      "type": "Feature",
      "geometry": {
        "type": "Point",
        "coordinates": [
          7.584134199999999,
          8.9947444
        ]
      },
      "properties": {
        "name": "NURSING ESTATE",
        "ward": "KARU",
        "lga": "KARU",
        "state": "NASARAWA"
      }
    },
    {
      "type": "Feature",
      "geometry": {
        "type": "Point",
        "coordinates": [
          7.658071199999999,
          9.0227369
        ]
      },
      "properties": {
        "name": "NYANYA GWANDARA",
        "ward": "KARU",
        "lga": "KARU",
        "state": "NASARAWA"
      }
    },
    {
      "type": "Feature",
      "geometry": {
        "type": "Point",
        "coordinates": [
          7.6003199,
          9.0249389
        ]
      },
      "properties": {
        "name": "NYANYA GWANDARA PHC",
        "ward": "KARU",
        "lga": "KARU",
        "state": "NASARAWA"
      }
    },
    {
      "type": "Feature",
      "geometry": {
        "type": "Point",
        "coordinates": [
          7.572462199999999,
          8.992779600000002
        ]
      },
      "properties": {
        "name": "ANG. M. POTOCHI",
        "ward": "KARU",
        "lga": "KARU",
        "state": "NASARAWA"
      }
    },
    {
      "type": "Feature",
      "geometry": {
        "type": "Point",
        "coordinates": [
          7.598080699999999,
          9.0152352
        ]
      },
      "properties": {
        "name": "RUGA ALH. GAMBO",
        "ward": "KARU",
        "lga": "KARU",
        "state": "NASARAWA"
      }
    },
    {
      "type": "Feature",
      "geometry": {
        "type": "Point",
        "coordinates": [
          7.6004644,
          9.0268067
        ]
      },
      "properties": {
        "name": "TRANSFORMER NYANYA GWANDARA",
        "ward": "KARU",
        "lga": "KARU",
        "state": "NASARAWA"
      }
    },
    {
      "type": "Feature",
      "geometry": {
        "type": "Point",
        "coordinates": [
          7.638122599999999,
          9.0234495
        ]
      },
      "properties": {
        "name": "ANG. SAMA",
        "ward": "KARU",
        "lga": "KARU",
        "state": "NASARAWA"
      }
    },
    {
      "type": "Feature",
      "geometry": {
        "type": "Point",
        "coordinates": [
          7.572462199999999,
          8.992779600000002
        ]
      },
      "properties": {
        "name": "ANG. ABANDE",
        "ward": "KARU",
        "lga": "KARU",
        "state": "NASARAWA"
      }
    },
    {
      "type": "Feature",
      "geometry": {
        "type": "Point",
        "coordinates": [
          7.638122599999999,
          9.0234495
        ]
      },
      "properties": {
        "name": "ANG. SAMA",
        "ward": "KARU",
        "lga": "KARU",
        "state": "NASARAWA"
      }
    },
    {
      "type": "Feature",
      "geometry": {
        "type": "Point",
        "coordinates": [
          7.572462199999999,
          8.992779600000002
        ]
      },
      "properties": {
        "name": "ANG. NUNGU",
        "ward": "KARU",
        "lga": "KARU",
        "state": "NASARAWA"
      }
    },
    {
      "type": "Feature",
      "geometry": {
        "type": "Point",
        "coordinates": [
          7.572462199999999,
          8.992779600000002
        ]
      },
      "properties": {
        "name": "NEW EXTENSION",
        "ward": "KARU",
        "lga": "KARU",
        "state": "NASARAWA"
      }
    },
    {
      "type": "Feature",
      "geometry": {
        "type": "Point",
        "coordinates": [
          7.585475799999999,
          9.0325123
        ]
      },
      "properties": {
        "name": "POWER HOUSE",
        "ward": "KARU",
        "lga": "KARU",
        "state": "NASARAWA"
      }
    },
    {
      "type": "Feature",
      "geometry": {
        "type": "Point",
        "coordinates": [
          7.5699029,
          9.005170399999999
        ]
      },
      "properties": {
        "name": "CHIEF PALACE-OP",
        "ward": "KARU",
        "lga": "KARU",
        "state": "NASARAWA"
      }
    },
    {
      "type": "Feature",
      "geometry": {
        "type": "Point",
        "coordinates": [
          7.620663299999999,
          9.019482
        ]
      },
      "properties": {
        "name": "ANGWAN OSAMA-OP",
        "ward": "KARU",
        "lga": "KARU",
        "state": "NASARAWA"
      }
    },
    {
      "type": "Feature",
      "geometry": {
        "type": "Point",
        "coordinates": [
          7.6385935,
          9.0017459
        ]
      },
      "properties": {
        "name": "COCA-COLA JUNCTION-OP",
        "ward": "KARU",
        "lga": "KARU",
        "state": "NASARAWA"
      }
    },
    {
      "type": "Feature",
      "geometry": {
        "type": "Point",
        "coordinates": [
          7.7600674,
          8.9439169
        ]
      },
      "properties": {
        "name": "ANGWAN MISSION",
        "ward": "KARU",
        "lga": "KARU",
        "state": "NASARAWA"
      }
    },
    {
      "type": "Feature",
      "geometry": {
        "type": "Point",
        "coordinates": [
          7.674065999999999,
          9.0030924
        ]
      },
      "properties": {
        "name": "RIVERSIDE MASAKA-OP",
        "ward": "KARU",
        "lga": "KARU",
        "state": "NASARAWA"
      }
    },
    {
      "type": "Feature",
      "geometry": {
        "type": "Point",
        "coordinates": [
          7.6716017,
          9.0087883
        ]
      },
      "properties": {
        "name": "GOVT. SEC. SCH. MASAKA",
        "ward": "KARU",
        "lga": "KARU",
        "state": "NASARAWA"
      }
    },
    {
      "type": "Feature",
      "geometry": {
        "type": "Point",
        "coordinates": [
          7.6818898,
          9.0045767
        ]
      },
      "properties": {
        "name": "ANGWAN POLICE PRIMARY SCH. MASAKA",
        "ward": "KARU",
        "lga": "KARU",
        "state": "NASARAWA"
      }
    },
    {
      "type": "Feature",
      "geometry": {
        "type": "Point",
        "coordinates": [
          7.692029,
          8.923065099999999
        ]
      },
      "properties": {
        "name": "MAI ANGWA TUDUN WADA MASAKA-OP",
        "ward": "KARU",
        "lga": "KARU",
        "state": "NASARAWA"
      }
    },
    {
      "type": "Feature",
      "geometry": {
        "type": "Point",
        "coordinates": [
          7.6390124,
          8.8923535
        ]
      },
      "properties": {
        "name": "RAFIN  KWARA FOOTBALL FIELD-OP",
        "ward": "KARU",
        "lga": "KARU",
        "state": "NASARAWA"
      }
    },
    {
      "type": "Feature",
      "geometry": {
        "type": "Point",
        "coordinates": [
          7.611184499999999,
          9.0211487
        ]
      },
      "properties": {
        "name": "KOFAR SARKIN HAUSAWA-OP",
        "ward": "KARU",
        "lga": "KARU",
        "state": "NASARAWA"
      }
    },
    {
      "type": "Feature",
      "geometry": {
        "type": "Point",
        "coordinates": [
          7.5771996,
          9.0274776
        ]
      },
      "properties": {
        "name": "APJ FOOTBALL FIELD TUDUNWADA MASAKA-OP",
        "ward": "KARU",
        "lga": "KARU",
        "state": "NASARAWA"
      }
    },
    {
      "type": "Feature",
      "geometry": {
        "type": "Point",
        "coordinates": [
          7.6764912,
          8.9781599
        ]
      },
      "properties": {
        "name": "CATTLE MARKET MASAKA U-TURN",
        "ward": "KARU",
        "lga": "KARU",
        "state": "NASARAWA"
      }
    },
    {
      "type": "Feature",
      "geometry": {
        "type": "Point",
        "coordinates": [
          7.6004644,
          9.0268067
        ]
      },
      "properties": {
        "name": "ANGWAN GWANDARA MASAKA-OP",
        "ward": "KARU",
        "lga": "KARU",
        "state": "NASARAWA"
      }
    },
    {
      "type": "Feature",
      "geometry": {
        "type": "Point",
        "coordinates": [
          7.7600674,
          8.9439169
        ]
      },
      "properties": {
        "name": "ANGWAN MAKAMA-OP",
        "ward": "KARU",
        "lga": "KARU",
        "state": "NASARAWA"
      }
    },
    {
      "type": "Feature",
      "geometry": {
        "type": "Point",
        "coordinates": [
          7.598080699999999,
          9.0152352
        ]
      },
      "properties": {
        "name": "RUGA JULI",
        "ward": "KARU",
        "lga": "KARU",
        "state": "NASARAWA"
      }
    },
    {
      "type": "Feature",
      "geometry": {
        "type": "Point",
        "coordinates": [
          7.607355399999999,
          9.0266823
        ]
      },
      "properties": {
        "name": "ANG. JUMMA MARARABA",
        "ward": "KARU",
        "lga": "KARU",
        "state": "NASARAWA"
      }
    },
    {
      "type": "Feature",
      "geometry": {
        "type": "Point",
        "coordinates": [
          7.602942100000001,
          9.0212852
        ]
      },
      "properties": {
        "name": "GSS MARARABA",
        "ward": "KARU",
        "lga": "KARU",
        "state": "NASARAWA"
      }
    },
    {
      "type": "Feature",
      "geometry": {
        "type": "Point",
        "coordinates": [
          7.6056701,
          9.024585
        ]
      },
      "properties": {
        "name": "ABUJA KEFFI ROAD MARARABA",
        "ward": "KARU",
        "lga": "KARU",
        "state": "NASARAWA"
      }
    },
    {
      "type": "Feature",
      "geometry": {
        "type": "Point",
        "coordinates": [
          7.598948099999999,
          9.0253776
        ]
      },
      "properties": {
        "name": "17 OLD KARU RD MARARABA",
        "ward": "KARU",
        "lga": "KARU",
        "state": "NASARAWA"
      }
    },
    {
      "type": "Feature",
      "geometry": {
        "type": "Point",
        "coordinates": [
          7.7209014,
          8.915748899999999
        ]
      },
      "properties": {
        "name": "ALH-HIKIMA POLYTECHNIC",
        "ward": "KARU",
        "lga": "KARU",
        "state": "NASARAWA"
      }
    },
    {
      "type": "Feature",
      "geometry": {
        "type": "Point",
        "coordinates": [
          7.610303399999998,
          9.0190445
        ]
      },
      "properties": {
        "name": "BEHIND INTERNTATIONAL MARKET",
        "ward": "KARU",
        "lga": "KARU",
        "state": "NASARAWA"
      }
    },
    {
      "type": "Feature",
      "geometry": {
        "type": "Point",
        "coordinates": [
          7.607355399999999,
          9.0266823
        ]
      },
      "properties": {
        "name": "MARARABA",
        "ward": "KARU",
        "lga": "KARU",
        "state": "NASARAWA"
      }
    },
    {
      "type": "Feature",
      "geometry": {
        "type": "Point",
        "coordinates": [
          7.5789525,
          9.0275675
        ]
      },
      "properties": {
        "name": "HEART PLAZA",
        "ward": "KARU",
        "lga": "KARU",
        "state": "NASARAWA"
      }
    },
    {
      "type": "Feature",
      "geometry": {
        "type": "Point",
        "coordinates": [
          7.561381399999999,
          9.0053751
        ]
      },
      "properties": {
        "name": "ANG. GWARI",
        "ward": "KARU",
        "lga": "KARU",
        "state": "NASARAWA"
      }
    },
    {
      "type": "Feature",
      "geometry": {
        "type": "Point",
        "coordinates": [
          7.5734619,
          9.0097668
        ]
      },
      "properties": {
        "name": "MEDICAL CENTER",
        "ward": "KARU",
        "lga": "KARU",
        "state": "NASARAWA"
      }
    },
    {
      "type": "Feature",
      "geometry": {
        "type": "Point",
        "coordinates": [
          7.604138300000001,
          9.0247576
        ]
      },
      "properties": {
        "name": "SKY LIMIT",
        "ward": "KARU",
        "lga": "KARU",
        "state": "NASARAWA"
      }
    },
    {
      "type": "Feature",
      "geometry": {
        "type": "Point",
        "coordinates": [
          7.604186899999999,
          9.0256375
        ]
      },
      "properties": {
        "name": "ZINARIA INTERNATIONAL SCH.",
        "ward": "KARU",
        "lga": "KARU",
        "state": "NASARAWA"
      }
    },
    {
      "type": "Feature",
      "geometry": {
        "type": "Point",
        "coordinates": [
          7.6764047,
          8.979827199999999
        ]
      },
      "properties": {
        "name": "ROYAL DREAM HOTEL",
        "ward": "KARU",
        "lga": "KARU",
        "state": "NASARAWA"
      }
    },
    {
      "type": "Feature",
      "geometry": {
        "type": "Point",
        "coordinates": [
          7.6078619,
          9.0238262
        ]
      },
      "properties": {
        "name": "ORANGE MARKET",
        "ward": "KARU",
        "lga": "KARU",
        "state": "NASARAWA"
      }
    },
    {
      "type": "Feature",
      "geometry": {
        "type": "Point",
        "coordinates": [
          7.6353417,
          9.0025591
        ]
      },
      "properties": {
        "name": "MAI ANG. SAIDU USMAN AREA",
        "ward": "KARU",
        "lga": "KARU",
        "state": "NASARAWA"
      }
    },
    {
      "type": "Feature",
      "geometry": {
        "type": "Point",
        "coordinates": [
          7.607355399999999,
          9.0266823
        ]
      },
      "properties": {
        "name": "ABBA GANA STREET MARARABA",
        "ward": "KARU",
        "lga": "KARU",
        "state": "NASARAWA"
      }
    },
    {
      "type": "Feature",
      "geometry": {
        "type": "Point",
        "coordinates": [
          7.5699029,
          9.005170399999999
        ]
      },
      "properties": {
        "name": "CHIEF PALACE SHARP CORNER",
        "ward": "KARU",
        "lga": "KARU",
        "state": "NASARAWA"
      }
    },
    {
      "type": "Feature",
      "geometry": {
        "type": "Point",
        "coordinates": [
          7.5894884,
          9.0296806
        ]
      },
      "properties": {
        "name": "BUILDING MATERIALS I",
        "ward": "KARU",
        "lga": "KARU",
        "state": "NASARAWA"
      }
    },
    {
      "type": "Feature",
      "geometry": {
        "type": "Point",
        "coordinates": [
          7.6343199,
          9.0169362
        ]
      },
      "properties": {
        "name": "DIVISIONAL POLICE STATION",
        "ward": "KARU",
        "lga": "KARU",
        "state": "NASARAWA"
      }
    },
    {
      "type": "Feature",
      "geometry": {
        "type": "Point",
        "coordinates": [
          7.5872709,
          9.0255675
        ]
      },
      "properties": {
        "name": "KARU COURT ESTATE",
        "ward": "KARU",
        "lga": "KARU",
        "state": "NASARAWA"
      }
    },
    {
      "type": "Feature",
      "geometry": {
        "type": "Point",
        "coordinates": [
          7.5894884,
          9.0296806
        ]
      },
      "properties": {
        "name": "BUILDING MATERIALS II",
        "ward": "KARU",
        "lga": "KARU",
        "state": "NASARAWA"
      }
    },
    {
      "type": "Feature",
      "geometry": {
        "type": "Point",
        "coordinates": [
          7.591531700000001,
          9.028208
        ]
      },
      "properties": {
        "name": "NAGIS",
        "ward": "KARU",
        "lga": "KARU",
        "state": "NASARAWA"
      }
    },
    {
      "type": "Feature",
      "geometry": {
        "type": "Point",
        "coordinates": [
          7.579981999999999,
          9.0278822
        ]
      },
      "properties": {
        "name": "CHECKING POINT BOUNDARY",
        "ward": "KARU",
        "lga": "KARU",
        "state": "NASARAWA"
      }
    },
    {
      "type": "Feature",
      "geometry": {
        "type": "Point",
        "coordinates": [
          7.5640572,
          9.0013732
        ]
      },
      "properties": {
        "name": "LEMON GUEST  INN",
        "ward": "KARU",
        "lga": "KARU",
        "state": "NASARAWA"
      }
    },
    {
      "type": "Feature",
      "geometry": {
        "type": "Point",
        "coordinates": [
          7.6078619,
          9.0238262
        ]
      },
      "properties": {
        "name": "AMEBO MARKET",
        "ward": "KARU",
        "lga": "KARU",
        "state": "NASARAWA"
      }
    },
    {
      "type": "Feature",
      "geometry": {
        "type": "Point",
        "coordinates": [
          7.5852403,
          9.0315437
        ]
      },
      "properties": {
        "name": "ANG. BABA STREET",
        "ward": "KARU",
        "lga": "KARU",
        "state": "NASARAWA"
      }
    },
    {
      "type": "Feature",
      "geometry": {
        "type": "Point",
        "coordinates": [
          7.5652949,
          9.004838699999999
        ]
      },
      "properties": {
        "name": "CUSTOM QUARTERS",
        "ward": "KARU",
        "lga": "KARU",
        "state": "NASARAWA"
      }
    },
    {
      "type": "Feature",
      "geometry": {
        "type": "Point",
        "coordinates": [
          7.6020166,
          9.0304291
        ]
      },
      "properties": {
        "name": "MARARABA GUEST HOTEL",
        "ward": "KARU",
        "lga": "KARU",
        "state": "NASARAWA"
      }
    },
    {
      "type": "Feature",
      "geometry": {
        "type": "Point",
        "coordinates": [
          7.6343199,
          9.0169362
        ]
      },
      "properties": {
        "name": "A DIVISION POLICE STATION",
        "ward": "KARU",
        "lga": "KARU",
        "state": "NASARAWA"
      }
    },
    {
      "type": "Feature",
      "geometry": {
        "type": "Point",
        "coordinates": [
          7.600544799999999,
          9.0338931
        ]
      },
      "properties": {
        "name": "SHOPPING CENTER",
        "ward": "KARU",
        "lga": "KARU",
        "state": "NASARAWA"
      }
    },
    {
      "type": "Feature",
      "geometry": {
        "type": "Point",
        "coordinates": [
          7.606491600000001,
          9.0236026
        ]
      },
      "properties": {
        "name": "ANGWAN ARDO",
        "ward": "KARU",
        "lga": "KARU",
        "state": "NASARAWA"
      }
    },
    {
      "type": "Feature",
      "geometry": {
        "type": "Point",
        "coordinates": [
          7.602002299999999,
          9.0299736
        ]
      },
      "properties": {
        "name": "KAPDA MARKET",
        "ward": "KARU",
        "lga": "KARU",
        "state": "NASARAWA"
      }
    },
    {
      "type": "Feature",
      "geometry": {
        "type": "Point",
        "coordinates": [
          7.595638999999999,
          9.042393
        ]
      },
      "properties": {
        "name": "CALVARY ROAD",
        "ward": "KARU",
        "lga": "KARU",
        "state": "NASARAWA"
      }
    },
    {
      "type": "Feature",
      "geometry": {
        "type": "Point",
        "coordinates": [
          7.620663299999999,
          9.019482
        ]
      },
      "properties": {
        "name": "ANG HAMZA ZANFARA MARARABA",
        "ward": "KARU",
        "lga": "KARU",
        "state": "NASARAWA"
      }
    },
    {
      "type": "Feature",
      "geometry": {
        "type": "Point",
        "coordinates": [
          7.5635736,
          9.0164701
        ]
      },
      "properties": {
        "name": "NEPA OFFICE",
        "ward": "KARU",
        "lga": "KARU",
        "state": "NASARAWA"
      }
    },
    {
      "type": "Feature",
      "geometry": {
        "type": "Point",
        "coordinates": [
          7.7600674,
          8.9439169
        ]
      },
      "properties": {
        "name": "ANGWAN GBAGYI",
        "ward": "KARU",
        "lga": "KARU",
        "state": "NASARAWA"
      }
    },
    {
      "type": "Feature",
      "geometry": {
        "type": "Point",
        "coordinates": [
          7.6921855,
          9.0165765
        ]
      },
      "properties": {
        "name": "PRIMARY HEALTH CARE MASAKA",
        "ward": "KARU",
        "lga": "KARU",
        "state": "NASARAWA"
      }
    },
    {
      "type": "Feature",
      "geometry": {
        "type": "Point",
        "coordinates": [
          7.658071199999999,
          9.0227369
        ]
      },
      "properties": {
        "name": "ANG GWANDARA MASAKA",
        "ward": "KARU",
        "lga": "KARU",
        "state": "NASARAWA"
      }
    },
    {
      "type": "Feature",
      "geometry": {
        "type": "Point",
        "coordinates": [
          7.572351899999998,
          8.992685
        ]
      },
      "properties": {
        "name": "PRIMARY SCHOOL  ANG. SOJA",
        "ward": "KARU",
        "lga": "KARU",
        "state": "NASARAWA"
      }
    },
    {
      "type": "Feature",
      "geometry": {
        "type": "Point",
        "coordinates": [
          7.5809604,
          8.9697128
        ]
      },
      "properties": {
        "name": "ALHAJI ESTATE AREA-OP",
        "ward": "KARU",
        "lga": "KARU",
        "state": "NASARAWA"
      }
    },
    {
      "type": "Feature",
      "geometry": {
        "type": "Point",
        "coordinates": [
          7.570881300000001,
          8.993646199999999
        ]
      },
      "properties": {
        "name": "GOVT. JUNIOR SEC. SCHOOL MASAKA",
        "ward": "KARU",
        "lga": "KARU",
        "state": "NASARAWA"
      }
    },
    {
      "type": "Feature",
      "geometry": {
        "type": "Point",
        "coordinates": [
          7.6723181,
          8.9914708
        ]
      },
      "properties": {
        "name": "ANG. GEDE MASAKA",
        "ward": "KARU",
        "lga": "KARU",
        "state": "NASARAWA"
      }
    },
    {
      "type": "Feature",
      "geometry": {
        "type": "Point",
        "coordinates": [
          7.7230849,
          8.895068
        ]
      },
      "properties": {
        "name": "ANG. MAGAJI",
        "ward": "KARU",
        "lga": "KARU",
        "state": "NASARAWA"
      }
    },
    {
      "type": "Feature",
      "geometry": {
        "type": "Point",
        "coordinates": [
          8.407457299999999,
          8.9066616
        ]
      },
      "properties": {
        "name": "AKWANGA MASAKA-OP",
        "ward": "KARU",
        "lga": "KARU",
        "state": "NASARAWA"
      }
    },
    {
      "type": "Feature",
      "geometry": {
        "type": "Point",
        "coordinates": [
          7.633112999999999,
          9.0000973
        ]
      },
      "properties": {
        "name": "ANG. KUTASHI",
        "ward": "KARU",
        "lga": "KARU",
        "state": "NASARAWA"
      }
    },
    {
      "type": "Feature",
      "geometry": {
        "type": "Point",
        "coordinates": [
          7.6677016,
          9.0031133
        ]
      },
      "properties": {
        "name": "GOD'S OWN JUCTION",
        "ward": "KARU",
        "lga": "KARU",
        "state": "NASARAWA"
      }
    },
    {
      "type": "Feature",
      "geometry": {
        "type": "Point",
        "coordinates": [
          7.610303399999998,
          9.0190445
        ]
      },
      "properties": {
        "name": "INT. MARKET 11",
        "ward": "KARU",
        "lga": "KARU",
        "state": "NASARAWA"
      }
    },
    {
      "type": "Feature",
      "geometry": {
        "type": "Point",
        "coordinates": [
          7.608116399999999,
          9.021316
        ]
      },
      "properties": {
        "name": "JAIZ BANK MARARABA-OP",
        "ward": "KARU",
        "lga": "KARU",
        "state": "NASARAWA"
      }
    },
    {
      "type": "Feature",
      "geometry": {
        "type": "Point",
        "coordinates": [
          7.5830198,
          9.0208416
        ]
      },
      "properties": {
        "name": "NURUDEEN ISLAMIC ACADEMY",
        "ward": "KARU",
        "lga": "KARU",
        "state": "NASARAWA"
      }
    },
    {
      "type": "Feature",
      "geometry": {
        "type": "Point",
        "coordinates": [
          7.602024500000001,
          9.0249223
        ]
      },
      "properties": {
        "name": "HIGH COURT II MARARABA",
        "ward": "KARU",
        "lga": "KARU",
        "state": "NASARAWA"
      }
    },
    {
      "type": "Feature",
      "geometry": {
        "type": "Point",
        "coordinates": [
          7.7600674,
          8.9439169
        ]
      },
      "properties": {
        "name": "ANGWAN NASARA MAR'AB -OP",
        "ward": "KARU",
        "lga": "KARU",
        "state": "NASARAWA"
      }
    },
    {
      "type": "Feature",
      "geometry": {
        "type": "Point",
        "coordinates": [
          7.611184499999999,
          9.0211487
        ]
      },
      "properties": {
        "name": "KOFAR SARKIN HAUSAWA",
        "ward": "KARU",
        "lga": "KARU",
        "state": "NASARAWA"
      }
    },
    {
      "type": "Feature",
      "geometry": {
        "type": "Point",
        "coordinates": [
          7.599993299999999,
          9.0274769
        ]
      },
      "properties": {
        "name": "JWAFE SARKI HAUSAWA MARARABA",
        "ward": "KARU",
        "lga": "KARU",
        "state": "NASARAWA"
      }
    },
    {
      "type": "Feature",
      "geometry": {
        "type": "Point",
        "coordinates": [
          7.629724500000001,
          8.9897261
        ]
      },
      "properties": {
        "name": "NEW KARU GOVERNOR'S LODGE-OP",
        "ward": "KARU",
        "lga": "KARU",
        "state": "NASARAWA"
      }
    },
    {
      "type": "Feature",
      "geometry": {
        "type": "Point",
        "coordinates": [
          7.572462199999999,
          8.992779600000002
        ]
      },
      "properties": {
        "name": "AKODNAPA-OP",
        "ward": "KARU",
        "lga": "KARU",
        "state": "NASARAWA"
      }
    },
    {
      "type": "Feature",
      "geometry": {
        "type": "Point",
        "coordinates": [
          7.7110119,
          8.5466389
        ]
      },
      "properties": {
        "name": "ONYAYI BWUYI PEACE-OP",
        "ward": "KARU",
        "lga": "KARU",
        "state": "NASARAWA"
      }
    },
    {
      "type": "Feature",
      "geometry": {
        "type": "Point",
        "coordinates": [
          7.620663299999999,
          9.019482
        ]
      },
      "properties": {
        "name": "ANG AL-FULLATI  YARKASUWA  MARARABA",
        "ward": "KARU",
        "lga": "KARU",
        "state": "NASARAWA"
      }
    },
    {
      "type": "Feature",
      "geometry": {
        "type": "Point",
        "coordinates": [
          7.5809604,
          8.9697128
        ]
      },
      "properties": {
        "name": "JWAFE PHASE I",
        "ward": "KARU",
        "lga": "KARU",
        "state": "NASARAWA"
      }
    },
    {
      "type": "Feature",
      "geometry": {
        "type": "Point",
        "coordinates": [
          7.6215318,
          9.0181885
        ]
      },
      "properties": {
        "name": "KORODUMA I-OP",
        "ward": "KARU",
        "lga": "KARU",
        "state": "NASARAWA"
      }
    },
    {
      "type": "Feature",
      "geometry": {
        "type": "Point",
        "coordinates": [
          7.6299438,
          9.0205217
        ]
      },
      "properties": {
        "name": "KORODUMA ISLAND",
        "ward": "KARU",
        "lga": "KARU",
        "state": "NASARAWA"
      }
    },
    {
      "type": "Feature",
      "geometry": {
        "type": "Point",
        "coordinates": [
          7.8391477,
          9.260331
        ]
      },
      "properties": {
        "name": "ANGWAN PA ICHE  - OP",
        "ward": "PANDA / KARE",
        "lga": "KARU",
        "state": "NASARAWA"
      }
    },
    {
      "type": "Feature",
      "geometry": {
        "type": "Point",
        "coordinates": [
          7.8391477,
          9.260331
        ]
      },
      "properties": {
        "name": "KUBANG - OP",
        "ward": "PANDA / KARE",
        "lga": "KARU",
        "state": "NASARAWA"
      }
    },
    {
      "type": "Feature",
      "geometry": {
        "type": "Point",
        "coordinates": [
          7.763401900000001,
          9.3049619
        ]
      },
      "properties": {
        "name": "CHANDAP",
        "ward": "PANDA / KARE",
        "lga": "KARU",
        "state": "NASARAWA"
      }
    },
    {
      "type": "Feature",
      "geometry": {
        "type": "Point",
        "coordinates": [
          7.8391477,
          9.260331
        ]
      },
      "properties": {
        "name": "AGO - OP",
        "ward": "PANDA / KARE",
        "lga": "KARU",
        "state": "NASARAWA"
      }
    },
    {
      "type": "Feature",
      "geometry": {
        "type": "Point",
        "coordinates": [
          7.8391477,
          9.260331
        ]
      },
      "properties": {
        "name": "KUKAN - OP",
        "ward": "PANDA / KARE",
        "lga": "KARU",
        "state": "NASARAWA"
      }
    },
    {
      "type": "Feature",
      "geometry": {
        "type": "Point",
        "coordinates": [
          7.881084899999999,
          8.8444175
        ]
      },
      "properties": {
        "name": "SHINKAFA - PRIMARY SCHOOL",
        "ward": "PANDA / KARE",
        "lga": "KARU",
        "state": "NASARAWA"
      }
    },
    {
      "type": "Feature",
      "geometry": {
        "type": "Point",
        "coordinates": [
          7.6353368,
          9.002435499999999
        ]
      },
      "properties": {
        "name": "KARE PRIMARY SCH.",
        "ward": "PANDA / KARE",
        "lga": "KARU",
        "state": "NASARAWA"
      }
    },
    {
      "type": "Feature",
      "geometry": {
        "type": "Point",
        "coordinates": [
          7.8391477,
          9.260331
        ]
      },
      "properties": {
        "name": "GWALLAJI - OP",
        "ward": "PANDA / KARE",
        "lga": "KARU",
        "state": "NASARAWA"
      }
    },
    {
      "type": "Feature",
      "geometry": {
        "type": "Point",
        "coordinates": [
          7.763401900000001,
          9.3049619
        ]
      },
      "properties": {
        "name": "ANG.PA.KORO",
        "ward": "PANDA / KARE",
        "lga": "KARU",
        "state": "NASARAWA"
      }
    },
    {
      "type": "Feature",
      "geometry": {
        "type": "Point",
        "coordinates": [
          7.8391477,
          9.260331
        ]
      },
      "properties": {
        "name": "PANDA PRI.SCHOOL - PB",
        "ward": "PANDA / KARE",
        "lga": "KARU",
        "state": "NASARAWA"
      }
    },
    {
      "type": "Feature",
      "geometry": {
        "type": "Point",
        "coordinates": [
          7.631592699999999,
          9.0134993
        ]
      },
      "properties": {
        "name": "ANKOMA PRI.SCHOOL  -  PB",
        "ward": "PANDA / KARE",
        "lga": "KARU",
        "state": "NASARAWA"
      }
    },
    {
      "type": "Feature",
      "geometry": {
        "type": "Point",
        "coordinates": [
          7.631592699999999,
          9.0134993
        ]
      },
      "properties": {
        "name": "KUBE PRIMARY SCH.",
        "ward": "PANDA / KARE",
        "lga": "KARU",
        "state": "NASARAWA"
      }
    },
    {
      "type": "Feature",
      "geometry": {
        "type": "Point",
        "coordinates": [
          7.8391477,
          9.260331
        ]
      },
      "properties": {
        "name": "KOSO - OP",
        "ward": "PANDA / KARE",
        "lga": "KARU",
        "state": "NASARAWA"
      }
    },
    {
      "type": "Feature",
      "geometry": {
        "type": "Point",
        "coordinates": [
          7.8391477,
          9.260331
        ]
      },
      "properties": {
        "name": "KUKURI - OP",
        "ward": "PANDA / KARE",
        "lga": "KARU",
        "state": "NASARAWA"
      }
    },
    {
      "type": "Feature",
      "geometry": {
        "type": "Point",
        "coordinates": [
          7.8391477,
          9.260331
        ]
      },
      "properties": {
        "name": "JABAN PANDA - OP",
        "ward": "PANDA / KARE",
        "lga": "KARU",
        "state": "NASARAWA"
      }
    },
    {
      "type": "Feature",
      "geometry": {
        "type": "Point",
        "coordinates": [
          7.2415198,
          9.3123192
        ]
      },
      "properties": {
        "name": "SABON GIDA PRIMARY SCHOOL",
        "ward": "PANDA / KARE",
        "lga": "KARU",
        "state": "NASARAWA"
      }
    },
    {
      "type": "Feature",
      "geometry": {
        "type": "Point",
        "coordinates": [
          7.5912298,
          8.9916488
        ]
      },
      "properties": {
        "name": "GARDI PRIMARY SCHOOL",
        "ward": "PANDA / KARE",
        "lga": "KARU",
        "state": "NASARAWA"
      }
    },
    {
      "type": "Feature",
      "geometry": {
        "type": "Point",
        "coordinates": [
          7.579586699999999,
          9.0375429
        ]
      },
      "properties": {
        "name": "KARE PRIMARY HEALTH CARE",
        "ward": "PANDA / KARE",
        "lga": "KARU",
        "state": "NASARAWA"
      }
    },
    {
      "type": "Feature",
      "geometry": {
        "type": "Point",
        "coordinates": [
          7.8391477,
          9.260331
        ]
      },
      "properties": {
        "name": "MAKURDI PRI. SCH.",
        "ward": "PANDA / KARE",
        "lga": "KARU",
        "state": "NASARAWA"
      }
    },
    {
      "type": "Feature",
      "geometry": {
        "type": "Point",
        "coordinates": [
          7.7118003,
          8.5474692
        ]
      },
      "properties": {
        "name": "PADA GWARI PRIMARY SCH.",
        "ward": "PANDA / KARE",
        "lga": "KARU",
        "state": "NASARAWA"
      }
    },
    {
      "type": "Feature",
      "geometry": {
        "type": "Point",
        "coordinates": [
          7.8391477,
          9.260331
        ]
      },
      "properties": {
        "name": "GIDAN CHISO-OP",
        "ward": "PANDA / KARE",
        "lga": "KARU",
        "state": "NASARAWA"
      }
    },
    {
      "type": "Feature",
      "geometry": {
        "type": "Point",
        "coordinates": [
          7.572351899999998,
          8.992685
        ]
      },
      "properties": {
        "name": "ANGWAN MAJE PRIMARY SCHOOL",
        "ward": "PANDA / KARE",
        "lga": "KARU",
        "state": "NASARAWA"
      }
    },
    {
      "type": "Feature",
      "geometry": {
        "type": "Point",
        "coordinates": [
          7.840374199999999,
          9.2613578
        ]
      },
      "properties": {
        "name": "PANDA PRIMARY SCHOOL II",
        "ward": "PANDA / KARE",
        "lga": "KARU",
        "state": "NASARAWA"
      }
    },
    {
      "type": "Feature",
      "geometry": {
        "type": "Point",
        "coordinates": [
          7.8391477,
          9.260331
        ]
      },
      "properties": {
        "name": "PANDA PALACE-OP",
        "ward": "PANDA / KARE",
        "lga": "KARU",
        "state": "NASARAWA"
      }
    },
    {
      "type": "Feature",
      "geometry": {
        "type": "Point",
        "coordinates": [
          7.631592699999999,
          9.0134993
        ]
      },
      "properties": {
        "name": "PANUGBE PRIMARY SCHOOL",
        "ward": "PANDA / KARE",
        "lga": "KARU",
        "state": "NASARAWA"
      }
    },
    {
      "type": "Feature",
      "geometry": {
        "type": "Point",
        "coordinates": [
          7.763401900000001,
          9.3049619
        ]
      },
      "properties": {
        "name": "GANKOTO AGO-OP",
        "ward": "PANDA / KARE",
        "lga": "KARU",
        "state": "NASARAWA"
      }
    },
    {
      "type": "Feature",
      "geometry": {
        "type": "Point",
        "coordinates": [
          7.8391477,
          9.260331
        ]
      },
      "properties": {
        "name": "JABA PANDA-OP",
        "ward": "PANDA / KARE",
        "lga": "KARU",
        "state": "NASARAWA"
      }
    },
    {
      "type": "Feature",
      "geometry": {
        "type": "Point",
        "coordinates": [
          7.763401900000001,
          9.3049619
        ]
      },
      "properties": {
        "name": "TAKPA-OP",
        "ward": "PANDA / KARE",
        "lga": "KARU",
        "state": "NASARAWA"
      }
    },
    {
      "type": "Feature",
      "geometry": {
        "type": "Point",
        "coordinates": [
          7.6182793,
          9.0606175
        ]
      },
      "properties": {
        "name": "KODAPE PRI.SCHOOL - PB",
        "ward": "ASO / KODAPE",
        "lga": "KARU",
        "state": "NASARAWA"
      }
    },
    {
      "type": "Feature",
      "geometry": {
        "type": "Point",
        "coordinates": [
          7.692029,
          8.923065099999999
        ]
      },
      "properties": {
        "name": "TUDUN WADA PRI.SCHOOL - PB",
        "ward": "ASO / KODAPE",
        "lga": "KARU",
        "state": "NASARAWA"
      }
    },
    {
      "type": "Feature",
      "geometry": {
        "type": "Point",
        "coordinates": [
          7.6089465,
          9.0114449
        ]
      },
      "properties": {
        "name": "KOYA - OP",
        "ward": "ASO / KODAPE",
        "lga": "KARU",
        "state": "NASARAWA"
      }
    },
    {
      "type": "Feature",
      "geometry": {
        "type": "Point",
        "coordinates": [
          7.607857699999999,
          9.0532765
        ]
      },
      "properties": {
        "name": "JEN KOKORO - OP",
        "ward": "ASO / KODAPE",
        "lga": "KARU",
        "state": "NASARAWA"
      }
    },
    {
      "type": "Feature",
      "geometry": {
        "type": "Point",
        "coordinates": [
          7.599945699999999,
          9.048404
        ]
      },
      "properties": {
        "name": "EBBA - OP",
        "ward": "ASO / KODAPE",
        "lga": "KARU",
        "state": "NASARAWA"
      }
    },
    {
      "type": "Feature",
      "geometry": {
        "type": "Point",
        "coordinates": [
          7.599945699999999,
          9.048404
        ]
      },
      "properties": {
        "name": "ASO - OP",
        "ward": "ASO / KODAPE",
        "lga": "KARU",
        "state": "NASARAWA"
      }
    },
    {
      "type": "Feature",
      "geometry": {
        "type": "Point",
        "coordinates": [
          7.6353417,
          9.0025591
        ]
      },
      "properties": {
        "name": "KODAPE PALACE-OP",
        "ward": "ASO / KODAPE",
        "lga": "KARU",
        "state": "NASARAWA"
      }
    },
    {
      "type": "Feature",
      "geometry": {
        "type": "Point",
        "coordinates": [
          7.599945699999999,
          9.048404
        ]
      },
      "properties": {
        "name": "SAI DNA PRI. SCH.",
        "ward": "ASO / KODAPE",
        "lga": "KARU",
        "state": "NASARAWA"
      }
    },
    {
      "type": "Feature",
      "geometry": {
        "type": "Point",
        "coordinates": [
          7.599945699999999,
          9.048404
        ]
      },
      "properties": {
        "name": "NEW JERUSALEM-OP",
        "ward": "ASO / KODAPE",
        "lga": "KARU",
        "state": "NASARAWA"
      }
    },
    {
      "type": "Feature",
      "geometry": {
        "type": "Point",
        "coordinates": [
          7.599945699999999,
          9.048404
        ]
      },
      "properties": {
        "name": "ANGWAN GAIDE-OP",
        "ward": "ASO / KODAPE",
        "lga": "KARU",
        "state": "NASARAWA"
      }
    },
    {
      "type": "Feature",
      "geometry": {
        "type": "Point",
        "coordinates": [
          7.5847283,
          9.0567367
        ]
      },
      "properties": {
        "name": "KODAPE CENTRAL MOSQUS-OP",
        "ward": "ASO / KODAPE",
        "lga": "KARU",
        "state": "NASARAWA"
      }
    },
    {
      "type": "Feature",
      "geometry": {
        "type": "Point",
        "coordinates": [
          7.678950099999999,
          8.9527892
        ]
      },
      "properties": {
        "name": "MURO KODAPE-OP",
        "ward": "ASO / KODAPE",
        "lga": "KARU",
        "state": "NASARAWA"
      }
    },
    {
      "type": "Feature",
      "geometry": {
        "type": "Point",
        "coordinates": [
          7.861276699999999,
          8.8091818
        ]
      },
      "properties": {
        "name": "SABON GARI-OP",
        "ward": "ASO / KODAPE",
        "lga": "KARU",
        "state": "NASARAWA"
      }
    },
    {
      "type": "Feature",
      "geometry": {
        "type": "Point",
        "coordinates": [
          7.599945699999999,
          9.048404
        ]
      },
      "properties": {
        "name": "MISSION CITY",
        "ward": "ASO / KODAPE",
        "lga": "KARU",
        "state": "NASARAWA"
      }
    },
    {
      "type": "Feature",
      "geometry": {
        "type": "Point",
        "coordinates": [
          7.607355399999999,
          9.0266823
        ]
      },
      "properties": {
        "name": "KUCHIKAU PRI. SCH",
        "ward": "ASO / KODAPE",
        "lga": "KARU",
        "state": "NASARAWA"
      }
    },
    {
      "type": "Feature",
      "geometry": {
        "type": "Point",
        "coordinates": [
          7.599945699999999,
          9.048404
        ]
      },
      "properties": {
        "name": "AGBAKUKU-OP",
        "ward": "ASO / KODAPE",
        "lga": "KARU",
        "state": "NASARAWA"
      }
    },
    {
      "type": "Feature",
      "geometry": {
        "type": "Point",
        "coordinates": [
          7.599945699999999,
          9.048404
        ]
      },
      "properties": {
        "name": "TUMDNA-OP",
        "ward": "ASO / KODAPE",
        "lga": "KARU",
        "state": "NASARAWA"
      }
    },
    {
      "type": "Feature",
      "geometry": {
        "type": "Point",
        "coordinates": [
          7.599945699999999,
          9.048404
        ]
      },
      "properties": {
        "name": "SHADNAYI-OP",
        "ward": "ASO / KODAPE",
        "lga": "KARU",
        "state": "NASARAWA"
      }
    },
    {
      "type": "Feature",
      "geometry": {
        "type": "Point",
        "coordinates": [
          7.6353417,
          9.0025591
        ]
      },
      "properties": {
        "name": "KUCHIKAU PALACE-OP",
        "ward": "ASO / KODAPE",
        "lga": "KARU",
        "state": "NASARAWA"
      }
    },
    {
      "type": "Feature",
      "geometry": {
        "type": "Point",
        "coordinates": [
          7.599945699999999,
          9.048404
        ]
      },
      "properties": {
        "name": "KODAPE GSS",
        "ward": "ASO / KODAPE",
        "lga": "KARU",
        "state": "NASARAWA"
      }
    },
    {
      "type": "Feature",
      "geometry": {
        "type": "Point",
        "coordinates": [
          7.6353417,
          9.0025591
        ]
      },
      "properties": {
        "name": "AKWUYITA PALACE-OP",
        "ward": "ASO / KODAPE",
        "lga": "KARU",
        "state": "NASARAWA"
      }
    },
    {
      "type": "Feature",
      "geometry": {
        "type": "Point",
        "coordinates": [
          7.599945699999999,
          9.048404
        ]
      },
      "properties": {
        "name": "KODAPE PRI. SCH.",
        "ward": "ASO / KODAPE",
        "lga": "KARU",
        "state": "NASARAWA"
      }
    },
    {
      "type": "Feature",
      "geometry": {
        "type": "Point",
        "coordinates": [
          7.599945699999999,
          9.048404
        ]
      },
      "properties": {
        "name": "FUENEDNA-OP",
        "ward": "ASO / KODAPE",
        "lga": "KARU",
        "state": "NASARAWA"
      }
    },
    {
      "type": "Feature",
      "geometry": {
        "type": "Point",
        "coordinates": [
          7.599945699999999,
          9.048404
        ]
      },
      "properties": {
        "name": "ANGWAN GAIDE-OP",
        "ward": "ASO / KODAPE",
        "lga": "KARU",
        "state": "NASARAWA"
      }
    },
    {
      "type": "Feature",
      "geometry": {
        "type": "Point",
        "coordinates": [
          7.599945699999999,
          9.048404
        ]
      },
      "properties": {
        "name": "ANGWAN GONGOLA CITY",
        "ward": "ASO / KODAPE",
        "lga": "KARU",
        "state": "NASARAWA"
      }
    },
    {
      "type": "Feature",
      "geometry": {
        "type": "Point",
        "coordinates": [
          7.7600674,
          8.9439169
        ]
      },
      "properties": {
        "name": "ANGWAN HUSHA OPEN SPACE",
        "ward": "ASO / KODAPE",
        "lga": "KARU",
        "state": "NASARAWA"
      }
    },
    {
      "type": "Feature",
      "geometry": {
        "type": "Point",
        "coordinates": [
          7.692118000000001,
          9.0168191
        ]
      },
      "properties": {
        "name": "JANKAWA PRIMARY SCHOOL",
        "ward": "ASO / KODAPE",
        "lga": "KARU",
        "state": "NASARAWA"
      }
    },
    {
      "type": "Feature",
      "geometry": {
        "type": "Point",
        "coordinates": [
          7.551388299999999,
          8.9563211
        ]
      },
      "properties": {
        "name": "JANKAWA YOUTH CENTER",
        "ward": "ASO / KODAPE",
        "lga": "KARU",
        "state": "NASARAWA"
      }
    },
    {
      "type": "Feature",
      "geometry": {
        "type": "Point",
        "coordinates": [
          7.607949400000001,
          9.0438562
        ]
      },
      "properties": {
        "name": "ADOKASA PRIMARY HEALTH CARE",
        "ward": "ASO / KODAPE",
        "lga": "KARU",
        "state": "NASARAWA"
      }
    },
    {
      "type": "Feature",
      "geometry": {
        "type": "Point",
        "coordinates": [
          7.599945699999999,
          9.048404
        ]
      },
      "properties": {
        "name": "KUTARA PRIMARY SCHOOL",
        "ward": "ASO / KODAPE",
        "lga": "KARU",
        "state": "NASARAWA"
      }
    },
    {
      "type": "Feature",
      "geometry": {
        "type": "Point",
        "coordinates": [
          7.6353417,
          9.0025591
        ]
      },
      "properties": {
        "name": "ADO PAVUNYA PALACE",
        "ward": "ASO / KODAPE",
        "lga": "KARU",
        "state": "NASARAWA"
      }
    },
    {
      "type": "Feature",
      "geometry": {
        "type": "Point",
        "coordinates": [
          7.607355399999999,
          9.0266823
        ]
      },
      "properties": {
        "name": "KUZHIPI PRIMARY SCHOOL",
        "ward": "ASO / KODAPE",
        "lga": "KARU",
        "state": "NASARAWA"
      }
    },
    {
      "type": "Feature",
      "geometry": {
        "type": "Point",
        "coordinates": [
          7.599945699999999,
          9.048404
        ]
      },
      "properties": {
        "name": "LUVU MADAKI G.S.S.",
        "ward": "ASO / KODAPE",
        "lga": "KARU",
        "state": "NASARAWA"
      }
    },
    {
      "type": "Feature",
      "geometry": {
        "type": "Point",
        "coordinates": [
          7.6182793,
          9.0606175
        ]
      },
      "properties": {
        "name": "APIAWOYI PRIMARY SCHOOL",
        "ward": "ASO / KODAPE",
        "lga": "KARU",
        "state": "NASARAWA"
      }
    },
    {
      "type": "Feature",
      "geometry": {
        "type": "Point",
        "coordinates": [
          7.6353417,
          9.0025591
        ]
      },
      "properties": {
        "name": "MAIANGWAN PALACE",
        "ward": "ASO / KODAPE",
        "lga": "KARU",
        "state": "NASARAWA"
      }
    },
    {
      "type": "Feature",
      "geometry": {
        "type": "Point",
        "coordinates": [
          7.5990793,
          9.047628
        ]
      },
      "properties": {
        "name": "JEUN KOKORO MADAKI",
        "ward": "ASO / KODAPE",
        "lga": "KARU",
        "state": "NASARAWA"
      }
    },
    {
      "type": "Feature",
      "geometry": {
        "type": "Point",
        "coordinates": [
          7.599945699999999,
          9.048404
        ]
      },
      "properties": {
        "name": "JEUN AMAWA",
        "ward": "ASO / KODAPE",
        "lga": "KARU",
        "state": "NASARAWA"
      }
    },
    {
      "type": "Feature",
      "geometry": {
        "type": "Point",
        "coordinates": [
          7.686391999999999,
          8.9991224
        ]
      },
      "properties": {
        "name": "ROYAL COLLAGE",
        "ward": "ASO / KODAPE",
        "lga": "KARU",
        "state": "NASARAWA"
      }
    },
    {
      "type": "Feature",
      "geometry": {
        "type": "Point",
        "coordinates": [
          7.6177847,
          9.0228011
        ]
      },
      "properties": {
        "name": "TUTA PALACE",
        "ward": "ASO / KODAPE",
        "lga": "KARU",
        "state": "NASARAWA"
      }
    },
    {
      "type": "Feature",
      "geometry": {
        "type": "Point",
        "coordinates": [
          7.6353417,
          9.0025591
        ]
      },
      "properties": {
        "name": "JEUN II  PALACE",
        "ward": "ASO / KODAPE",
        "lga": "KARU",
        "state": "NASARAWA"
      }
    },
    {
      "type": "Feature",
      "geometry": {
        "type": "Point",
        "coordinates": [
          7.599945699999999,
          9.048404
        ]
      },
      "properties": {
        "name": "ANG. DADI",
        "ward": "ASO / KODAPE",
        "lga": "KARU",
        "state": "NASARAWA"
      }
    },
    {
      "type": "Feature",
      "geometry": {
        "type": "Point",
        "coordinates": [
          7.599945699999999,
          9.048404
        ]
      },
      "properties": {
        "name": "APIAWOYI",
        "ward": "ASO / KODAPE",
        "lga": "KARU",
        "state": "NASARAWA"
      }
    },
    {
      "type": "Feature",
      "geometry": {
        "type": "Point",
        "coordinates": [
          7.6343199,
          9.0169362
        ]
      },
      "properties": {
        "name": "AKU VILLAGE OLD POLICE STATION",
        "ward": "ASO / KODAPE",
        "lga": "KARU",
        "state": "NASARAWA"
      }
    },
    {
      "type": "Feature",
      "geometry": {
        "type": "Point",
        "coordinates": [
          7.599945699999999,
          9.048404
        ]
      },
      "properties": {
        "name": "AKU VILLAGE NAVY QTRS",
        "ward": "ASO / KODAPE",
        "lga": "KARU",
        "state": "NASARAWA"
      }
    },
    {
      "type": "Feature",
      "geometry": {
        "type": "Point",
        "coordinates": [
          7.599945699999999,
          9.048404
        ]
      },
      "properties": {
        "name": "ASO PADA SEC. SCH.",
        "ward": "ASO / KODAPE",
        "lga": "KARU",
        "state": "NASARAWA"
      }
    },
    {
      "type": "Feature",
      "geometry": {
        "type": "Point",
        "coordinates": [
          7.6182793,
          9.0606175
        ]
      },
      "properties": {
        "name": "ASO B PRI. SCH.",
        "ward": "ASO / KODAPE",
        "lga": "KARU",
        "state": "NASARAWA"
      }
    },
    {
      "type": "Feature",
      "geometry": {
        "type": "Point",
        "coordinates": [
          7.599945699999999,
          9.048404
        ]
      },
      "properties": {
        "name": "ANG. BAWA-OP",
        "ward": "ASO / KODAPE",
        "lga": "KARU",
        "state": "NASARAWA"
      }
    },
    {
      "type": "Feature",
      "geometry": {
        "type": "Point",
        "coordinates": [
          7.599945699999999,
          9.048404
        ]
      },
      "properties": {
        "name": "DANTATA QTRS",
        "ward": "ASO / KODAPE",
        "lga": "KARU",
        "state": "NASARAWA"
      }
    },
    {
      "type": "Feature",
      "geometry": {
        "type": "Point",
        "coordinates": [
          7.6103269,
          9.0144157
        ]
      },
      "properties": {
        "name": "CIVIL DEFENCE QTRS.",
        "ward": "ASO / KODAPE",
        "lga": "KARU",
        "state": "NASARAWA"
      }
    },
    {
      "type": "Feature",
      "geometry": {
        "type": "Point",
        "coordinates": [
          7.599945699999999,
          9.048404
        ]
      },
      "properties": {
        "name": "ZANFARAWA STR. TUDUN WADA",
        "ward": "ASO / KODAPE",
        "lga": "KARU",
        "state": "NASARAWA"
      }
    },
    {
      "type": "Feature",
      "geometry": {
        "type": "Point",
        "coordinates": [
          7.6353417,
          9.0025591
        ]
      },
      "properties": {
        "name": "TUDUN WADA MAIAGWA PALACE-OP",
        "ward": "ASO / KODAPE",
        "lga": "KARU",
        "state": "NASARAWA"
      }
    },
    {
      "type": "Feature",
      "geometry": {
        "type": "Point",
        "coordinates": [
          7.599945699999999,
          9.048404
        ]
      },
      "properties": {
        "name": "ADO KASA PADA-OP",
        "ward": "ASO / KODAPE",
        "lga": "KARU",
        "state": "NASARAWA"
      }
    },
    {
      "type": "Feature",
      "geometry": {
        "type": "Point",
        "coordinates": [
          7.6354278,
          9.0136477
        ]
      },
      "properties": {
        "name": "ADO KASA-OP",
        "ward": "ASO / KODAPE",
        "lga": "KARU",
        "state": "NASARAWA"
      }
    },
    {
      "type": "Feature",
      "geometry": {
        "type": "Point",
        "coordinates": [
          7.6353417,
          9.0025591
        ]
      },
      "properties": {
        "name": "CHIEF PALACE KABAYI",
        "ward": "ASO / KODAPE",
        "lga": "KARU",
        "state": "NASARAWA"
      }
    },
    {
      "type": "Feature",
      "geometry": {
        "type": "Point",
        "coordinates": [
          7.6089465,
          9.0114449
        ]
      },
      "properties": {
        "name": "DAN LANGWA ASO-OP",
        "ward": "ASO / KODAPE",
        "lga": "KARU",
        "state": "NASARAWA"
      }
    },
    {
      "type": "Feature",
      "geometry": {
        "type": "Point",
        "coordinates": [
          7.6353417,
          9.0025591
        ]
      },
      "properties": {
        "name": "CHIEF PALACE ADO KASA",
        "ward": "ASO / KODAPE",
        "lga": "KARU",
        "state": "NASARAWA"
      }
    },
    {
      "type": "Feature",
      "geometry": {
        "type": "Point",
        "coordinates": [
          7.6089465,
          9.0114449
        ]
      },