{
  "type": "FeatureCollection",
  "features": [
    {
      "type": "Feature",
      "geometry": {
        "type": "Point",
        "coordinates": [
          6.524368,
          9.6443138
        ]
      },
      "properties": {
        "name": "BABAN TUNGA PRIMARY SCHOOL  II",
        "ward": "IKU",
        "lga": "TAFA",
        "state": "NIGER"
      }
    },
    {
      "type": "Feature",
      "geometry": {
        "type": "Point",
        "coordinates": [
          6.637142600000001,
          9.4572958
        ]
      },
      "properties": {
        "name": "BUNTU IMPRESTI CAMP",
        "ward": "IKU",
        "lga": "TAFA",
        "state": "NIGER"
      }
    },
    {
      "type": "Feature",
      "geometry": {
        "type": "Point",
        "coordinates": [
          7.2368183,
          9.242998900000002
        ]
      },
      "properties": {
        "name": "KOFA PRIMARY SCHOOL",
        "ward": "IKU",
        "lga": "TAFA",
        "state": "NIGER"
      }
    },
    {
      "type": "Feature",
      "geometry": {
        "type": "Point",
        "coordinates": [
          7.207317799999998,
          9.1913759
        ]
      },
      "properties": {
        "name": "KARFE",
        "ward": "IKU",
        "lga": "TAFA",
        "state": "NIGER"
      }
    },
    {
      "type": "Feature",
      "geometry": {
        "type": "Point",
        "coordinates": [
          6.5850483,
          9.2866653
        ]
      },
      "properties": {
        "name": "TUNGAN LABARAN",
        "ward": "IKU",
        "lga": "TAFA",
        "state": "NIGER"
      }
    },
    {
      "type": "Feature",
      "geometry": {
        "type": "Point",
        "coordinates": [
          7.1771144,
          9.1968389
        ]
      },
      "properties": {
        "name": "YAGURU S/NOMA ALBARKA",
        "ward": "IKU",
        "lga": "TAFA",
        "state": "NIGER"
      }
    },
    {
      "type": "Feature",
      "geometry": {
        "type": "Point",
        "coordinates": [
          6.5850483,
          9.2866653
        ]
      },
      "properties": {
        "name": "TUNGAN SANAJE",
        "ward": "IKU",
        "lga": "TAFA",
        "state": "NIGER"
      }
    },
    {
      "type": "Feature",
      "geometry": {
        "type": "Point",
        "coordinates": [
          6.5850483,
          9.2866653
        ]
      },
      "properties": {
        "name": "TUNGAN TSAUNI",
        "ward": "IKU",
        "lga": "TAFA",
        "state": "NIGER"
      }
    },
    {
      "type": "Feature",
      "geometry": {
        "type": "Point",
        "coordinates": [
          6.568709,
          9.602633
        ]
      },
      "properties": {
        "name": "BABAN TUNGA PRY SCH. III",
        "ward": "IKU",
        "lga": "TAFA",
        "state": "NIGER"
      }
    },
    {
      "type": "Feature",
      "geometry": {
        "type": "Point",
        "coordinates": [
          6.568709,
          9.602633
        ]
      },
      "properties": {
        "name": "BABAN TUNGA PRY SCH. IV",
        "ward": "IKU",
        "lga": "TAFA",
        "state": "NIGER"
      }
    },
    {
      "type": "Feature",
      "geometry": {
        "type": "Point",
        "coordinates": [
          7.2368183,
          9.242998900000002
        ]
      },
      "properties": {
        "name": "BUNTU PRY SCHOOL",
        "ward": "IKU",
        "lga": "TAFA",
        "state": "NIGER"
      }
    },
    {
      "type": "Feature",
      "geometry": {
        "type": "Point",
        "coordinates": [
          7.0978355,
          8.943585800000001
        ]
      },
      "properties": {
        "name": "L.E.A PRY SCH. KOFA",
        "ward": "IKU",
        "lga": "TAFA",
        "state": "NIGER"
      }
    },
    {
      "type": "Feature",
      "geometry": {
        "type": "Point",
        "coordinates": [
          7.2368183,
          9.242998900000002
        ]
      },
      "properties": {
        "name": "KARFE PRY. SCHOOL",
        "ward": "IKU",
        "lga": "TAFA",
        "state": "NIGER"
      }
    },
    {
      "type": "Feature",
      "geometry": {
        "type": "Point",
        "coordinates": [
          7.2368183,
          9.242998900000002
        ]
      },
      "properties": {
        "name": "TUGAN MAKAMA PRY SCH",
        "ward": "IKU",
        "lga": "TAFA",
        "state": "NIGER"
      }
    },
    {
      "type": "Feature",
      "geometry": {
        "type": "Point",
        "coordinates": [
          7.2179951,
          9.2611513
        ]
      },
      "properties": {
        "name": "YAGURU SARKIN NOMA II",
        "ward": "IKU",
        "lga": "TAFA",
        "state": "NIGER"
      }
    },
    {
      "type": "Feature",
      "geometry": {
        "type": "Point",
        "coordinates": [
          6.5575373,
          9.6142721
        ]
      },
      "properties": {
        "name": "TUNGA SANAJE II",
        "ward": "IKU",
        "lga": "TAFA",
        "state": "NIGER"
      }
    },
    {
      "type": "Feature",
      "geometry": {
        "type": "Point",
        "coordinates": [
          6.5575373,
          9.6142721
        ]
      },
      "properties": {
        "name": "TUNGA SANAJE III",
        "ward": "IKU",
        "lga": "TAFA",
        "state": "NIGER"
      }
    },
    {
      "type": "Feature",
      "geometry": {
        "type": "Point",
        "coordinates": [
          7.290006,
          9.2467864
        ]
      },
      "properties": {
        "name": "TUNGAN LADAN IJA KORO",
        "ward": "IJA KORO",
        "lga": "TAFA",
        "state": "NIGER"
      }
    },
    {
      "type": "Feature",
      "geometry": {
        "type": "Point",
        "coordinates": [
          7.3036618,
          9.2379278
        ]
      },
      "properties": {
        "name": "KATA SARKI",
        "ward": "IJA KORO",
        "lga": "TAFA",
        "state": "NIGER"
      }
    },
    {
      "type": "Feature",
      "geometry": {
        "type": "Point",
        "coordinates": [
          7.298430100000001,
          9.2512555
        ]
      },
      "properties": {
        "name": "KATA MADAKI",
        "ward": "IJA KORO",
        "lga": "TAFA",
        "state": "NIGER"
      }
    },
    {
      "type": "Feature",
      "geometry": {
        "type": "Point",
        "coordinates": [
          7.290006,
          9.2467864
        ]
      },
      "properties": {
        "name": "IJA KORO PRY SCHOOL II",
        "ward": "IJA KORO",
        "lga": "TAFA",
        "state": "NIGER"
      }
    },
    {
      "type": "Feature",
      "geometry": {
        "type": "Point",
        "coordinates": [
          7.2922646,
          9.2543265
        ]
      },
      "properties": {
        "name": "TUGAN LADAN IJA KORO  II",
        "ward": "IJA KORO",
        "lga": "TAFA",
        "state": "NIGER"
      }
    },
    {
      "type": "Feature",
      "geometry": {
        "type": "Point",
        "coordinates": [
          7.290006,
          9.2467864
        ]
      },
      "properties": {
        "name": "CHIPO PRY SCHOOL",
        "ward": "IJA KORO",
        "lga": "TAFA",
        "state": "NIGER"
      }
    },
    {
      "type": "Feature",
      "geometry": {
        "type": "Point",
        "coordinates": [
          7.290006,
          9.2467864
        ]
      },
      "properties": {
        "name": "KATA SENI PRY SCHOOL",
        "ward": "IJA KORO",
        "lga": "TAFA",
        "state": "NIGER"
      }
    },
    {
      "type": "Feature",
      "geometry": {
        "type": "Point",
        "coordinates": [
          7.218467999999999,
          9.179267
        ]
      },
      "properties": {
        "name": "GAURAKA PRIMARY SCHOOL  I",
        "ward": "ZUMA EAST",
        "lga": "TAFA",
        "state": "NIGER"
      }
    },
    {
      "type": "Feature",
      "geometry": {
        "type": "Point",
        "coordinates": [
          7.218467999999999,
          9.179267
        ]
      },
      "properties": {
        "name": "GAURAKA PRIMARY SCHOOL  II",
        "ward": "ZUMA EAST",
        "lga": "TAFA",
        "state": "NIGER"
      }
    },
    {
      "type": "Feature",
      "geometry": {
        "type": "Point",
        "coordinates": [
          7.218467999999999,
          9.179267
        ]
      },
      "properties": {
        "name": "ANG. BARAU GAURAKA",
        "ward": "ZUMA EAST",
        "lga": "TAFA",
        "state": "NIGER"
      }
    },
    {
      "type": "Feature",
      "geometry": {
        "type": "Point",
        "coordinates": [
          7.2883171,
          9.2447484
        ]
      },
      "properties": {
        "name": "APO K/GIDAN MAIUNGUWA",
        "ward": "ZUMA EAST",
        "lga": "TAFA",
        "state": "NIGER"
      }
    },
    {
      "type": "Feature",
      "geometry": {
        "type": "Point",
        "coordinates": [
          7.703481,
          8.5359877
        ]
      },
      "properties": {
        "name": "NASARAWA IKU PRIMARY SCHOOL",
        "ward": "ZUMA EAST",
        "lga": "TAFA",
        "state": "NIGER"
      }
    },
    {
      "type": "Feature",
      "geometry": {
        "type": "Point",
        "coordinates": [
          7.2883171,
          9.2447484
        ]
      },
      "properties": {
        "name": "IMMANI MECH. WORKSHOP",
        "ward": "ZUMA EAST",
        "lga": "TAFA",
        "state": "NIGER"
      }
    },
    {
      "type": "Feature",
      "geometry": {
        "type": "Point",
        "coordinates": [
          7.227498300000001,
          9.1446726
        ]
      },
      "properties": {
        "name": "B/IKU MOTOR PARK",
        "ward": "ZUMA EAST",
        "lga": "TAFA",
        "state": "NIGER"
      }
    },
    {
      "type": "Feature",
      "geometry": {
        "type": "Point",
        "coordinates": [
          7.218467999999999,
          9.179267
        ]
      },
      "properties": {
        "name": "GAURAKA PRY SCHOOL III",
        "ward": "ZUMA EAST",
        "lga": "TAFA",
        "state": "NIGER"
      }
    },
    {
      "type": "Feature",
      "geometry": {
        "type": "Point",
        "coordinates": [
          7.2272884,
          9.1788653
        ]
      },
      "properties": {
        "name": "GAURAKA PRY SCHOOL IV",
        "ward": "ZUMA EAST",
        "lga": "TAFA",
        "state": "NIGER"
      }
    },
    {
      "type": "Feature",
      "geometry": {
        "type": "Point",
        "coordinates": [
          7.218467999999999,
          9.179267
        ]
      },
      "properties": {
        "name": "GAURAKA PRY SCH. V",
        "ward": "ZUMA EAST",
        "lga": "TAFA",
        "state": "NIGER"
      }
    },
    {
      "type": "Feature",
      "geometry": {
        "type": "Point",
        "coordinates": [
          6.5318581,
          9.6054144
        ]
      },
      "properties": {
        "name": "NIGER STATE JUDICIARY AREA COURT GAURAKA",
        "ward": "ZUMA EAST",
        "lga": "TAFA",
        "state": "NIGER"
      }
    },
    {
      "type": "Feature",
      "geometry": {
        "type": "Point",
        "coordinates": [
          7.218467999999999,
          9.179267
        ]
      },
      "properties": {
        "name": "GOVT DAY SEC SCH. GAURAKA",
        "ward": "ZUMA EAST",
        "lga": "TAFA",
        "state": "NIGER"
      }
    },
    {
      "type": "Feature",
      "geometry": {
        "type": "Point",
        "coordinates": [
          7.2883171,
          9.2447484
        ]
      },
      "properties": {
        "name": "ANG. BARAU III (OPEN SPACE)",
        "ward": "ZUMA EAST",
        "lga": "TAFA",
        "state": "NIGER"
      }
    },
    {
      "type": "Feature",
      "geometry": {
        "type": "Point",
        "coordinates": [
          7.715029199999999,
          8.548090499999999
        ]
      },
      "properties": {
        "name": "NASARAWA IKU PRIMARY SCHOOL  II",
        "ward": "ZUMA EAST",
        "lga": "TAFA",
        "state": "NIGER"
      }
    },
    {
      "type": "Feature",
      "geometry": {
        "type": "Point",
        "coordinates": [
          7.703481,
          8.5359877
        ]
      },
      "properties": {
        "name": "NASARAWA IKU PRIMARY SCHOOL  III",
        "ward": "ZUMA EAST",
        "lga": "TAFA",
        "state": "NIGER"
      }
    },
    {
      "type": "Feature",
      "geometry": {
        "type": "Point",
        "coordinates": [
          8.5037045,
          8.4847808
        ]
      },
      "properties": {
        "name": "PRY HEALTH CARE CENTRE NASARAWA IKU",
        "ward": "ZUMA EAST",
        "lga": "TAFA",
        "state": "NIGER"
      }
    },
    {
      "type": "Feature",
      "geometry": {
        "type": "Point",
        "coordinates": [
          7.2883171,
          9.2447484
        ]
      },
      "properties": {
        "name": "IMMANI MECH. WORKSHOP  II",
        "ward": "ZUMA EAST",
        "lga": "TAFA",
        "state": "NIGER"
      }
    },
    {
      "type": "Feature",
      "geometry": {
        "type": "Point",
        "coordinates": [
          7.2883171,
          9.2447484
        ]
      },
      "properties": {
        "name": "IMMANI MECH. WORKSHOP  III",
        "ward": "ZUMA EAST",
        "lga": "TAFA",
        "state": "NIGER"
      }
    },
    {
      "type": "Feature",
      "geometry": {
        "type": "Point",
        "coordinates": [
          7.227498300000001,
          9.1446726
        ]
      },
      "properties": {
        "name": "ANGUWAN DIJI",
        "ward": "ZUMA EAST",
        "lga": "TAFA",
        "state": "NIGER"
      }
    },
    {
      "type": "Feature",
      "geometry": {
        "type": "Point",
        "coordinates": [
          7.227498300000001,
          9.1446726
        ]
      },
      "properties": {
        "name": "ANGUWAN MATASA",
        "ward": "ZUMA EAST",
        "lga": "TAFA",
        "state": "NIGER"
      }
    },
    {
      "type": "Feature",
      "geometry": {
        "type": "Point",
        "coordinates": [
          7.303059199999999,
          9.2761285
        ]
      },
      "properties": {
        "name": "NEW BWARI",
        "ward": "NEW BWARI",
        "lga": "TAFA",
        "state": "NIGER"
      }
    },
    {
      "type": "Feature",
      "geometry": {
        "type": "Point",
        "coordinates": [
          7.215402999999999,
          9.193965
        ]
      },
      "properties": {
        "name": "GOYIPE K/GIDAN MAIUNGUWA",
        "ward": "NEW BWARI",
        "lga": "TAFA",
        "state": "NIGER"
      }
    },
    {
      "type": "Feature",
      "geometry": {
        "type": "Point",
        "coordinates": [
          7.3854235,
          9.2818223
        ]
      },
      "properties": {
        "name": "SHISHIPE  K/GIDAN MA IANGUWA",
        "ward": "NEW BWARI",
        "lga": "TAFA",
        "state": "NIGER"
      }
    },
    {
      "type": "Feature",
      "geometry": {
        "type": "Point",
        "coordinates": [
          7.303059199999999,
          9.2761285
        ]
      },
      "properties": {
        "name": "ZHIDNA VILLAGE",
        "ward": "NEW BWARI",
        "lga": "TAFA",
        "state": "NIGER"
      }
    },
    {
      "type": "Feature",
      "geometry": {
        "type": "Point",
        "coordinates": [
          7.638845000000001,
          9.396636
        ]
      },
      "properties": {
        "name": "TUNGA ADAKA PRIMARY SCHOOL I",
        "ward": "NEW BWARI",
        "lga": "TAFA",
        "state": "NIGER"
      }
    },
    {
      "type": "Feature",
      "geometry": {
        "type": "Point",
        "coordinates": [
          7.3854235,
          9.2818223
        ]
      },
      "properties": {
        "name": "K/GIDAN SARKIN BWARI",
        "ward": "NEW BWARI",
        "lga": "TAFA",
        "state": "NIGER"
      }
    },
    {
      "type": "Feature",
      "geometry": {
        "type": "Point",
        "coordinates": [
          7.357499400000001,
          9.2963658
        ]
      },
      "properties": {
        "name": "T / ADAKA PRI. SCH. II",
        "ward": "NEW BWARI",
        "lga": "TAFA",
        "state": "NIGER"
      }
    },
    {
      "type": "Feature",
      "geometry": {
        "type": "Point",
        "coordinates": [
          7.3776009,
          9.2890018
        ]
      },
      "properties": {
        "name": "PRY HEALTH CARE NEW BWARI",
        "ward": "NEW BWARI",
        "lga": "TAFA",
        "state": "NIGER"
      }
    },
    {
      "type": "Feature",
      "geometry": {
        "type": "Point",
        "coordinates": [
          7.378556999999999,
          9.2855633
        ]
      },
      "properties": {
        "name": "SHISHIPE   II",
        "ward": "NEW BWARI",
        "lga": "TAFA",
        "state": "NIGER"
      }
    },
    {
      "type": "Feature",
      "geometry": {
        "type": "Point",
        "coordinates": [
          7.3176195,
          9.2642895
        ]
      },
      "properties": {
        "name": "NEW BWARI PRIMARY SCHOOL  II",
        "ward": "NEW BWARI",
        "lga": "TAFA",
        "state": "NIGER"
      }
    },
    {
      "type": "Feature",
      "geometry": {
        "type": "Point",
        "coordinates": [
          7.3295831,
          9.265931
        ]
      },
      "properties": {
        "name": "KUCHIKO IJA PRY SCHOOL",
        "ward": "NEW BWARI",
        "lga": "TAFA",
        "state": "NIGER"
      }
    },
    {
      "type": "Feature",
      "geometry": {
        "type": "Point",
        "coordinates": [
          7.305228,
          9.3123514
        ]
      },
      "properties": {
        "name": "DOGON KURMI PRIMARY SCHOOL",
        "ward": "DOGON KURMI",
        "lga": "TAFA",
        "state": "NIGER"
      }
    },
    {
      "type": "Feature",
      "geometry": {
        "type": "Point",
        "coordinates": [
          7.338637,
          9.307147
        ]
      },
      "properties": {
        "name": "AZHI  BISAI PRIMARY SCHOOL",
        "ward": "DOGON KURMI",
        "lga": "TAFA",
        "state": "NIGER"
      }
    },
    {
      "type": "Feature",
      "geometry": {
        "type": "Point",
        "coordinates": [
          7.305228,
          9.3123514
        ]
      },
      "properties": {
        "name": "CHAWA PRIMARY SCHOOL",
        "ward": "DOGON KURMI",
        "lga": "TAFA",
        "state": "NIGER"
      }
    },
    {
      "type": "Feature",
      "geometry": {
        "type": "Point",
        "coordinates": [
          7.2179951,
          9.2611513
        ]
      },
      "properties": {
        "name": "K/GIDAN MAIUNGUWA KPADNA",
        "ward": "DOGON KURMI",
        "lga": "TAFA",
        "state": "NIGER"
      }
    },
    {
      "type": "Feature",
      "geometry": {
        "type": "Point",
        "coordinates": [
          7.2179951,
          9.2611513
        ]
      },
      "properties": {
        "name": "CHAMA K/GIDAN SARKI",
        "ward": "DOGON KURMI",
        "lga": "TAFA",
        "state": "NIGER"
      }
    },
    {
      "type": "Feature",
      "geometry": {
        "type": "Point",
        "coordinates": [
          7.305228,
          9.3123514
        ]
      },
      "properties": {
        "name": "DOGON KURMI PRIMARY SCHOOL II",
        "ward": "DOGON KURMI",
        "lga": "TAFA",
        "state": "NIGER"
      }
    },
    {
      "type": "Feature",
      "geometry": {
        "type": "Point",
        "coordinates": [
          7.305228,
          9.3123514
        ]
      },
      "properties": {
        "name": "JUNIOR SECONDARY SCHOOL, DOGON KURMI",
        "ward": "DOGON KURMI",
        "lga": "TAFA",
        "state": "NIGER"
      }
    },
    {
      "type": "Feature",
      "geometry": {
        "type": "Point",
        "coordinates": [
          7.305228,
          9.3123514
        ]
      },
      "properties": {
        "name": "CHAWA PRY. SCHOOL II",
        "ward": "DOGON KURMI",
        "lga": "TAFA",
        "state": "NIGER"
      }
    },
    {
      "type": "Feature",
      "geometry": {
        "type": "Point",
        "coordinates": [
          7.305228,
          9.3123514
        ]
      },
      "properties": {
        "name": "U.B.E PRY SCH KPARADNA",
        "ward": "DOGON KURMI",
        "lga": "TAFA",
        "state": "NIGER"
      }
    },
    {
      "type": "Feature",
      "geometry": {
        "type": "Point",
        "coordinates": [
          7.2368183,
          9.242998900000002
        ]
      },
      "properties": {
        "name": "AZHIN BICHI PRY SCH.",
        "ward": "DOGON KURMI",
        "lga": "TAFA",
        "state": "NIGER"
      }
    },
    {
      "type": "Feature",
      "geometry": {
        "type": "Point",
        "coordinates": [
          7.2856026,
          9.305674
        ]
      },
      "properties": {
        "name": "CHAWA PRY HEALTH CARE",
        "ward": "DOGON KURMI",
        "lga": "TAFA",
        "state": "NIGER"
      }
    },
    {
      "type": "Feature",
      "geometry": {
        "type": "Point",
        "coordinates": [
          7.297661700000001,
          9.303774
        ]
      },
      "properties": {
        "name": "ANGUWAN KUDURU",
        "ward": "DOGON KURMI",
        "lga": "TAFA",
        "state": "NIGER"
      }
    },
    {
      "type": "Feature",
      "geometry": {
        "type": "Point",
        "coordinates": [
          7.232216,
          9.141993
        ]
      },
      "properties": {
        "name": "CHACHI PRIMARY SCHOOL",
        "ward": "ZUMA WEST",
        "lga": "TAFA",
        "state": "NIGER"
      }
    },
    {
      "type": "Feature",
      "geometry": {
        "type": "Point",
        "coordinates": [
          7.2883179,
          9.244744
        ]
      },
      "properties": {
        "name": "SABONSHARE",
        "ward": "ZUMA WEST",
        "lga": "TAFA",
        "state": "NIGER"
      }
    },
    {
      "type": "Feature",
      "geometry": {
        "type": "Point",
        "coordinates": [
          7.227498300000001,
          9.1446726
        ]
      },
      "properties": {
        "name": "DAUPE VILLAGE",
        "ward": "ZUMA WEST",
        "lga": "TAFA",
        "state": "NIGER"
      }
    },
    {
      "type": "Feature",
      "geometry": {
        "type": "Point",
        "coordinates": [
          7.2134674,
          9.1735769
        ]
      },
      "properties": {
        "name": "K/GIDAN GARKUWA GAURAKA  I",
        "ward": "ZUMA WEST",
        "lga": "TAFA",
        "state": "NIGER"
      }
    },
    {
      "type": "Feature",
      "geometry": {
        "type": "Point",
        "coordinates": [
          7.2134674,
          9.1735769
        ]
      },
      "properties": {
        "name": "K/GIDAN GARKUWA GAURAKA  II",
        "ward": "ZUMA WEST",
        "lga": "TAFA",
        "state": "NIGER"
      }
    },
    {
      "type": "Feature",
      "geometry": {
        "type": "Point",
        "coordinates": [
          7.2134674,
          9.1735769
        ]
      },
      "properties": {
        "name": "K/GIDAN GWAMNA GAURAKA  I",
        "ward": "ZUMA WEST",
        "lga": "TAFA",
        "state": "NIGER"
      }
    },
    {
      "type": "Feature",
      "geometry": {
        "type": "Point",
        "coordinates": [
          7.238317800000001,
          9.1563832
        ]
      },
      "properties": {
        "name": "ZUMAMINING",
        "ward": "ZUMA WEST",
        "lga": "TAFA",
        "state": "NIGER"
      }
    },
    {
      "type": "Feature",
      "geometry": {
        "type": "Point",
        "coordinates": [
          7.2128899,
          9.180881
        ]
      },
      "properties": {
        "name": "K/GIDAN ISUWA GAURAKA",
        "ward": "ZUMA WEST",
        "lga": "TAFA",
        "state": "NIGER"
      }
    },
    {
      "type": "Feature",
      "geometry": {
        "type": "Point",
        "coordinates": [
          7.218467999999999,
          9.179267
        ]
      },
      "properties": {
        "name": "GOVT DAY SEC. SCHOOL CHACHI",
        "ward": "ZUMA WEST",
        "lga": "TAFA",
        "state": "NIGER"
      }
    },
    {
      "type": "Feature",
      "geometry": {
        "type": "Point",
        "coordinates": [
          7.2883179,
          9.244744
        ]
      },
      "properties": {
        "name": "SABON SHARE II",
        "ward": "ZUMA WEST",
        "lga": "TAFA",
        "state": "NIGER"
      }
    },
    {
      "type": "Feature",
      "geometry": {
        "type": "Point",
        "coordinates": [
          7.2883179,
          9.244744
        ]
      },
      "properties": {
        "name": "SABON SHARE III",
        "ward": "ZUMA WEST",
        "lga": "TAFA",
        "state": "NIGER"
      }
    },
    {
      "type": "Feature",
      "geometry": {
        "type": "Point",
        "coordinates": [
          7.209155399999999,
          9.1315077
        ]
      },
      "properties": {
        "name": "GOVT. PRY SCH. JIBI",
        "ward": "ZUMA WEST",
        "lga": "TAFA",
        "state": "NIGER"
      }
    },
    {
      "type": "Feature",
      "geometry": {
        "type": "Point",
        "coordinates": [
          7.215402999999999,
          9.193965
        ]
      },
      "properties": {
        "name": "GAURAKA III",
        "ward": "ZUMA WEST",
        "lga": "TAFA",
        "state": "NIGER"
      }
    },
    {
      "type": "Feature",
      "geometry": {
        "type": "Point",
        "coordinates": [
          7.227498300000001,
          9.1446726
        ]
      },
      "properties": {
        "name": "GAURAKA IV",
        "ward": "ZUMA WEST",
        "lga": "TAFA",
        "state": "NIGER"
      }
    },
    {
      "type": "Feature",
      "geometry": {
        "type": "Point",
        "coordinates": [
          6.530345899999999,
          9.6509971
        ]
      },
      "properties": {
        "name": "GARKUWA A",
        "ward": "ZUMA WEST",
        "lga": "TAFA",
        "state": "NIGER"
      }
    },
    {
      "type": "Feature",
      "geometry": {
        "type": "Point",
        "coordinates": [
          7.2883171,
          9.2447484
        ]
      },
      "properties": {
        "name": "GARKUWA B",
        "ward": "ZUMA WEST",
        "lga": "TAFA",
        "state": "NIGER"
      }
    },
    {
      "type": "Feature",
      "geometry": {
        "type": "Point",
        "coordinates": [
          7.240500699999999,
          9.1119924
        ]
      },
      "properties": {
        "name": "ANGUWAN TIV A",
        "ward": "ZUMA WEST",
        "lga": "TAFA",
        "state": "NIGER"
      }
    },
    {
      "type": "Feature",
      "geometry": {
        "type": "Point",
        "coordinates": [
          7.240500699999999,
          9.1119924
        ]
      },
      "properties": {
        "name": "ANGUWAN TIV B",
        "ward": "ZUMA WEST",
        "lga": "TAFA",
        "state": "NIGER"
      }
    },
    {
      "type": "Feature",
      "geometry": {
        "type": "Point",
        "coordinates": [
          7.2134674,
          9.1735769
        ]
      },
      "properties": {
        "name": "GWAMNA GAURAKA A",
        "ward": "ZUMA WEST",
        "lga": "TAFA",
        "state": "NIGER"
      }
    },
    {
      "type": "Feature",
      "geometry": {
        "type": "Point",
        "coordinates": [
          7.227498300000001,
          9.1446726
        ]
      },
      "properties": {
        "name": "GWAMNA GAURAKA B",
        "ward": "ZUMA WEST",
        "lga": "TAFA",
        "state": "NIGER"
      }
    },
    {
      "type": "Feature",
      "geometry": {
        "type": "Point",
        "coordinates": [
          7.243716499999999,
          9.0988994
        ]
      },
      "properties": {
        "name": "PRY HEALTH CARE DAKWA",
        "ward": "ZUMA WEST",
        "lga": "TAFA",
        "state": "NIGER"
      }
    },
    {
      "type": "Feature",
      "geometry": {
        "type": "Point",
        "coordinates": [
          7.240500699999999,
          9.1119924
        ]
      },
      "properties": {
        "name": "DAKACHI PRY SCH DAKWA I",
        "ward": "ZUMA WEST",
        "lga": "TAFA",
        "state": "NIGER"
      }
    },
    {
      "type": "Feature",
      "geometry": {
        "type": "Point",
        "coordinates": [
          7.2372402,
          9.1136536
        ]
      },
      "properties": {
        "name": "DAKACHI PRY SCH DAKWA II",
        "ward": "ZUMA WEST",
        "lga": "TAFA",
        "state": "NIGER"
      }
    },
    {
      "type": "Feature",
      "geometry": {
        "type": "Point",
        "coordinates": [
          7.218467999999999,
          9.179267
        ]
      },
      "properties": {
        "name": "UBE PRY SCH GAURAKA I",
        "ward": "ZUMA WEST",
        "lga": "TAFA",
        "state": "NIGER"
      }
    },
    {
      "type": "Feature",
      "geometry": {
        "type": "Point",
        "coordinates": [
          7.218467999999999,
          9.179267
        ]
      },
      "properties": {
        "name": "UBE PRY SCH GAURAKA II",
        "ward": "ZUMA WEST",
        "lga": "TAFA",
        "state": "NIGER"
      }
    },
    {
      "type": "Feature",
      "geometry": {
        "type": "Point",
        "coordinates": [
          7.465282800000001,
          9.0687961
        ]
      },
      "properties": {
        "name": "K/GIDAN SARKIN WUSE",
        "ward": "WUSE  EAST",
        "lga": "TAFA",
        "state": "NIGER"
      }
    },
    {
      "type": "Feature",
      "geometry": {
        "type": "Point",
        "coordinates": [
          7.245187,
          9.320038
        ]
      },
      "properties": {
        "name": "CHAUMA PRIMARY SCHOOL",
        "ward": "WUSE  EAST",
        "lga": "TAFA",
        "state": "NIGER"
      }
    },
    {
      "type": "Feature",
      "geometry": {
        "type": "Point",
        "coordinates": [
          7.3786271,
          9.480747
        ]
      },
      "properties": {
        "name": "K/GIDAN SARKIN GADE",
        "ward": "WUSE  EAST",
        "lga": "TAFA",
        "state": "NIGER"
      }
    },
    {
      "type": "Feature",
      "geometry": {
        "type": "Point",
        "coordinates": [
          7.3392067,
          9.1540527
        ]
      },
      "properties": {
        "name": "K/GIDAN ALHAJI UBA",
        "ward": "WUSE  EAST",
        "lga": "TAFA",
        "state": "NIGER"
      }
    },
    {
      "type": "Feature",
      "geometry": {
        "type": "Point",
        "coordinates": [
          7.465282800000001,
          9.0687961
        ]
      },
      "properties": {
        "name": "K/GIDAN MADAKIN WUSE",
        "ward": "WUSE  EAST",
        "lga": "TAFA",
        "state": "NIGER"
      }
    },
    {
      "type": "Feature",
      "geometry": {
        "type": "Point",
        "coordinates": [
          7.3786271,
          9.480747
        ]
      },
      "properties": {
        "name": "K/GIDAN SARKIN MAGIJI",
        "ward": "WUSE  EAST",
        "lga": "TAFA",
        "state": "NIGER"
      }
    },
    {
      "type": "Feature",
      "geometry": {
        "type": "Point",
        "coordinates": [
          7.3786271,
          9.480747
        ]
      },
      "properties": {
        "name": "K/GIDAN SARKIN  DADINKOWA",
        "ward": "WUSE  EAST",
        "lga": "TAFA",
        "state": "NIGER"
      }
    },
    {
      "type": "Feature",
      "geometry": {
        "type": "Point",
        "coordinates": [
          7.230218300000001,
          9.2992874
        ]
      },
      "properties": {
        "name": "K/GIDAN KUYAN BANA",
        "ward": "WUSE  EAST",
        "lga": "TAFA",
        "state": "NIGER"
      }
    },
    {
      "type": "Feature",
      "geometry": {
        "type": "Point",
        "coordinates": [
          7.465282800000001,
          9.0687961
        ]
      },
      "properties": {
        "name": "K/GIDAN BAWA",
        "ward": "WUSE  EAST",
        "lga": "TAFA",
        "state": "NIGER"
      }
    },
    {
      "type": "Feature",
      "geometry": {
        "type": "Point",
        "coordinates": [
          7.462970899999999,
          9.0567706
        ]
      },
      "properties": {
        "name": "SEN. MAGISTRATE COURT WUSE",
        "ward": "WUSE  EAST",
        "lga": "TAFA",
        "state": "NIGER"
      }
    },
    {
      "type": "Feature",
      "geometry": {
        "type": "Point",
        "coordinates": [
          7.4732568,
          8.9999875
        ]
      },
      "properties": {
        "name": "PUBLIC BORE HOLE CHAUMA",
        "ward": "WUSE  EAST",
        "lga": "TAFA",
        "state": "NIGER"
      }
    },
    {
      "type": "Feature",
      "geometry": {
        "type": "Point",
        "coordinates": [
          7.245187,
          9.320038
        ]
      },
      "properties": {
        "name": "CHAUMA PRIMARY SCHOOL II",
        "ward": "WUSE  EAST",
        "lga": "TAFA",
        "state": "NIGER"
      }
    },
    {
      "type": "Feature",
      "geometry": {
        "type": "Point",
        "coordinates": [
          7.502843799999999,
          9.0399224
        ]
      },
      "properties": {
        "name": "PRY HEALTH CARE ANGWAN TOFA",
        "ward": "WUSE  EAST",
        "lga": "TAFA",
        "state": "NIGER"
      }
    },
    {
      "type": "Feature",
      "geometry": {
        "type": "Point",
        "coordinates": [
          7.4783902,
          8.9992016
        ]
      },
      "properties": {
        "name": "UPPER SHARIA COURT",
        "ward": "WUSE  EAST",
        "lga": "TAFA",
        "state": "NIGER"
      }
    },
    {
      "type": "Feature",
      "geometry": {
        "type": "Point",
        "coordinates": [
          7.502843799999999,
          9.0399224
        ]
      },
      "properties": {
        "name": "PRY HEALTH CARE ANG. HAUSAWA",
        "ward": "WUSE  EAST",
        "lga": "TAFA",
        "state": "NIGER"
      }
    },
    {
      "type": "Feature",
      "geometry": {
        "type": "Point",
        "coordinates": [
          7.2449925,
          9.3174154
        ]
      },
      "properties": {
        "name": "GOVT DAY SEC. SCHOOL SABON WUSE  II",
        "ward": "WUSE  EAST",
        "lga": "TAFA",
        "state": "NIGER"
      }
    },
    {
      "type": "Feature",
      "geometry": {
        "type": "Point",
        "coordinates": [
          7.2417691,
          9.3071779
        ]
      },
      "properties": {
        "name": "GOVT DAY SEC. SCHOOL SABON WUSE  III",
        "ward": "WUSE  EAST",
        "lga": "TAFA",
        "state": "NIGER"
      }
    },
    {
      "type": "Feature",
      "geometry": {
        "type": "Point",
        "coordinates": [
          6.5633012,
          9.6034535
        ]
      },
      "properties": {
        "name": "PUBLIC BOREHOLE TUDUN WADA",
        "ward": "WUSE  EAST",
        "lga": "TAFA",
        "state": "NIGER"
      }
    },
    {
      "type": "Feature",
      "geometry": {
        "type": "Point",
        "coordinates": [
          7.2449925,
          9.3174154
        ]
      },
      "properties": {
        "name": "ANG. MADAKI",
        "ward": "WUSE  EAST",
        "lga": "TAFA",
        "state": "NIGER"
      }
    },
    {
      "type": "Feature",
      "geometry": {
        "type": "Point",
        "coordinates": [
          7.2175725,
          9.1796521
        ]
      },
      "properties": {
        "name": "ANG. HAKIMI",
        "ward": "WUSE  EAST",
        "lga": "TAFA",
        "state": "NIGER"
      }
    },
    {
      "type": "Feature",
      "geometry": {
        "type": "Point",
        "coordinates": [
          7.493568000000001,
          9.0913671
        ]
      },
      "properties": {
        "name": "PUBLIC BOREHOLE DANTANI BOYI",
        "ward": "WUSE  EAST",
        "lga": "TAFA",
        "state": "NIGER"
      }
    },
    {
      "type": "Feature",
      "geometry": {
        "type": "Point",
        "coordinates": [
          7.1744884,
          9.1790623
        ]
      },
      "properties": {
        "name": "AWWAL IBRAHIM PRY SCH. I",
        "ward": "WUSE  EAST",
        "lga": "TAFA",
        "state": "NIGER"
      }
    },
    {
      "type": "Feature",
      "geometry": {
        "type": "Point",
        "coordinates": [
          7.1744884,
          9.1790623
        ]
      },
      "properties": {
        "name": "AWWAL IBRAHIM PRY SCH. II",
        "ward": "WUSE  EAST",
        "lga": "TAFA",
        "state": "NIGER"
      }
    },
    {
      "type": "Feature",
      "geometry": {
        "type": "Point",
        "coordinates": [
          11.361483,
          7.506687
        ]
      },
      "properties": {
        "name": "DADINKOWA PRY SCH. II",
        "ward": "WUSE  EAST",
        "lga": "TAFA",
        "state": "NIGER"
      }
    },
    {
      "type": "Feature",
      "geometry": {
        "type": "Point",
        "coordinates": [
          7.493568000000001,
          9.0913671
        ]
      },
      "properties": {
        "name": "PUBLIC BOREHOLE SARKIN KASUWA",
        "ward": "WUSE  EAST",
        "lga": "TAFA",
        "state": "NIGER"
      }
    },
    {
      "type": "Feature",
      "geometry": {
        "type": "Point",
        "coordinates": [
          7.2415198,
          9.3123192
        ]
      },
      "properties": {
        "name": "GOVT DAY SCH. KUYANBANA",
        "ward": "WUSE  EAST",
        "lga": "TAFA",
        "state": "NIGER"
      }
    },
    {
      "type": "Feature",
      "geometry": {
        "type": "Point",
        "coordinates": [
          7.218319,
          9.1792605
        ]
      },
      "properties": {
        "name": "DNAKOPA K/GIDAN ADAMU JEZHI",
        "ward": "IJA GWARI",
        "lga": "TAFA",
        "state": "NIGER"
      }
    },
    {
      "type": "Feature",
      "geometry": {
        "type": "Point",
        "coordinates": [
          7.2544973,
          9.2385778
        ]
      },
      "properties": {
        "name": "TOBA NYAGURU",
        "ward": "IJA GWARI",
        "lga": "TAFA",
        "state": "NIGER"
      }
    },
    {
      "type": "Feature",
      "geometry": {
        "type": "Point",
        "coordinates": [
          7.218319,
          9.1792605
        ]
      },
      "properties": {
        "name": "K/GIDAN SARKIN IJA",
        "ward": "IJA GWARI",
        "lga": "TAFA",
        "state": "NIGER"
      }
    },
    {
      "type": "Feature",
      "geometry": {
        "type": "Point",
        "coordinates": [
          7.3646486,
          9.2766599
        ]
      },
      "properties": {
        "name": "GOVT DAY SEC SCH IJA",
        "ward": "IJA GWARI",
        "lga": "TAFA",
        "state": "NIGER"
      }
    },
    {
      "type": "Feature",
      "geometry": {
        "type": "Point",
        "coordinates": [
          7.280162399999999,
          9.2417251
        ]
      },
      "properties": {
        "name": "IJA GWARI PRY SCHOOL II",
        "ward": "IJA GWARI",
        "lga": "TAFA",
        "state": "NIGER"
      }
    },
    {
      "type": "Feature",
      "geometry": {
        "type": "Point",
        "coordinates": [
          7.301623399999999,
          9.2388124
        ]
      },
      "properties": {
        "name": "K/GIDAN SARKI GARAM",
        "ward": "GARAM",
        "lga": "TAFA",
        "state": "NIGER"
      }
    },
    {
      "type": "Feature",
      "geometry": {
        "type": "Point",
        "coordinates": [
          4.5037763,
          9.8892509
        ]
      },
      "properties": {
        "name": "OPPOSITE ECWA CHURCH AZU",
        "ward": "GARAM",
        "lga": "TAFA",
        "state": "NIGER"
      }
    },
    {
      "type": "Feature",
      "geometry": {
        "type": "Point",
        "coordinates": [
          7.345556,
          9.3153084
        ]
      },
      "properties": {
        "name": "K/GIDAN SARKIN GYEDNA",
        "ward": "GARAM",
        "lga": "TAFA",
        "state": "NIGER"
      }
    },
    {
      "type": "Feature",
      "geometry": {
        "type": "Point",
        "coordinates": [
          7.218319,
          9.1792605
        ]
      },
      "properties": {
        "name": "ANGUWAN SANUSI",
        "ward": "GARAM",
        "lga": "TAFA",
        "state": "NIGER"
      }
    },
    {
      "type": "Feature",
      "geometry": {
        "type": "Point",
        "coordinates": [
          6.0122952,
          9.128581
        ]
      },
      "properties": {
        "name": "U.B.E PRIMARY SCHOOL  OPP. AZU  DISPENSARY",
        "ward": "GARAM",
        "lga": "TAFA",
        "state": "NIGER"
      }
    },
    {
      "type": "Feature",
      "geometry": {
        "type": "Point",
        "coordinates": [
          7.1758416,
          9.1761109
        ]
      },
      "properties": {
        "name": "GYEDNA  PRIMARY  SCHOOL",
        "ward": "GARAM",
        "lga": "TAFA",
        "state": "NIGER"
      }
    },
    {
      "type": "Feature",
      "geometry": {
        "type": "Point",
        "coordinates": [
          7.2883179,
          9.244744
        ]
      },
      "properties": {
        "name": "GARAM PRY SCHOOL II",
        "ward": "GARAM",
        "lga": "TAFA",
        "state": "NIGER"
      }
    },
    {
      "type": "Feature",
      "geometry": {
        "type": "Point",
        "coordinates": [
          10.2541497,
          12.6936654
        ]
      },
      "properties": {
        "name": "MODEL PRIMARY HEALTH CARE",
        "ward": "GARAM",
        "lga": "TAFA",
        "state": "NIGER"
      }
    },
    {
      "type": "Feature",
      "geometry": {
        "type": "Point",
        "coordinates": [
          7.4481568,
          9.0830863
        ]
      },
      "properties": {
        "name": "MABUSHI",
        "ward": "WUSE WEST",
        "lga": "TAFA",
        "state": "NIGER"
      }
    },
    {
      "type": "Feature",
      "geometry": {
        "type": "Point",
        "coordinates": [
          7.4264096,
          9.1259568
        ]
      },
      "properties": {
        "name": "K/GIDAN PASTOR BULUS KATAMPE",
        "ward": "WUSE WEST",
        "lga": "TAFA",
        "state": "NIGER"
      }
    },
    {
      "type": "Feature",
      "geometry": {
        "type": "Point",
        "coordinates": [
          7.5348785,
          9.0151457
        ]
      },
      "properties": {
        "name": "KURUNDUMA  VILLAGE",
        "ward": "WUSE WEST",
        "lga": "TAFA",
        "state": "NIGER"
      }
    },
    {
      "type": "Feature",
      "geometry": {
        "type": "Point",
        "coordinates": [
          7.238892,
          9.3006769
        ]
      },
      "properties": {
        "name": "ASO KORO PRIMARY SCHOOL",
        "ward": "WUSE WEST",
        "lga": "TAFA",
        "state": "NIGER"
      }
    },
    {
      "type": "Feature",
      "geometry": {
        "type": "Point",
        "coordinates": [
          7.4481568,
          9.0830863
        ]
      },
      "properties": {
        "name": "MABUSHI II",
        "ward": "WUSE WEST",
        "lga": "TAFA",
        "state": "NIGER"
      }
    },
    {
      "type": "Feature",
      "geometry": {
        "type": "Point",
        "coordinates": [
          7.4596082,
          9.0799237
        ]
      },
      "properties": {
        "name": "DAKPARA MABUSHI",
        "ward": "WUSE WEST",
        "lga": "TAFA",
        "state": "NIGER"
      }
    },
    {
      "type": "Feature",
      "geometry": {
        "type": "Point",
        "coordinates": [
          7.318984899999999,
          9.2629316
        ]
      },
      "properties": {
        "name": "PRY HEALTH CARE KATAMPE",
        "ward": "WUSE WEST",
        "lga": "TAFA",
        "state": "NIGER"
      }
    },
    {
      "type": "Feature",
      "geometry": {
        "type": "Point",
        "coordinates": [
          7.523453999999999,
          9.047201
        ]
      },
      "properties": {
        "name": "ANG. AMASI KATAMPE",
        "ward": "WUSE WEST",
        "lga": "TAFA",
        "state": "NIGER"
      }
    },
    {
      "type": "Feature",
      "geometry": {
        "type": "Point",
        "coordinates": [
          7.2144666,
          9.2205547
        ]
      },
      "properties": {
        "name": "U.B.E PRY SCH KURUNDUMA",
        "ward": "WUSE WEST",
        "lga": "TAFA",
        "state": "NIGER"
      }
    },
    {
      "type": "Feature",
      "geometry": {
        "type": "Point",
        "coordinates": [
          7.168032999999999,
          9.209917
        ]
      },
      "properties": {
        "name": "U.B.E PRY SCH KURUNDUMA II",
        "ward": "WUSE WEST",
        "lga": "TAFA",
        "state": "NIGER"
      }
    },
    {
      "type": "Feature",
      "geometry": {
        "type": "Point",
        "coordinates": [
          7.239539,
          9.3001729
        ]
      },
      "properties": {
        "name": "ASOKORO PRY SCHOOL II",
        "ward": "WUSE WEST",
        "lga": "TAFA",
        "state": "NIGER"
      }
    },
    {
      "type": "Feature",
      "geometry": {
        "type": "Point",
        "coordinates": [
          7.3032893,
          9.2358055
        ]
      },
      "properties": {
        "name": "UBE JUN. SEC. SCH ASOKORO I",
        "ward": "WUSE WEST",
        "lga": "TAFA",
        "state": "NIGER"
      }
    },
    {
      "type": "Feature",
      "geometry": {
        "type": "Point",
        "coordinates": [
          7.3032893,
          9.2358055
        ]
      },
      "properties": {
        "name": "UBE JUN. SEC. SCH ASOKORO II",
        "ward": "WUSE WEST",
        "lga": "TAFA",
        "state": "NIGER"
      }
    },
    {
      "type": "Feature",
      "geometry": {
        "type": "Point",
        "coordinates": [
          7.1804595,
          9.181899
        ]
      },
      "properties": {
        "name": "BAKIN KASUWA",
        "ward": "WUSE WEST",
        "lga": "TAFA",
        "state": "NIGER"
      }
    },
    {
      "type": "Feature",
      "geometry": {
        "type": "Point",
        "coordinates": [
          7.465282800000001,
          9.0687961
        ]
      },
      "properties": {
        "name": "KATIKAN KASA",
        "ward": "WUSE WEST",
        "lga": "TAFA",
        "state": "NIGER"
      }
    },
    {
      "type": "Feature",
      "geometry": {
        "type": "Point",
        "coordinates": [
          7.259606900000001,
          9.3412991
        ]
      },
      "properties": {
        "name": "ANGWAN IDI",
        "ward": "WUSE WEST",
        "lga": "TAFA",
        "state": "NIGER"
      }
    },
    {
      "type": "Feature",
      "geometry": {
        "type": "Point",
        "coordinates": [
          5.6332634,
          9.8187068
        ]
      },
      "properties": {
        "name": "UNG. DANGACHI KPATACHI",
        "ward": "KWATACHI",
        "lga": "MASHEGU",
        "state": "NIGER"
      }
    },
    {
      "type": "Feature",
      "geometry": {
        "type": "Point",
        "coordinates": [
          5.6332634,
          9.8187068
        ]
      },
      "properties": {
        "name": "UNG. ZAKI KPATACHI",
        "ward": "KWATACHI",
        "lga": "MASHEGU",
        "state": "NIGER"
      }
    },
    {
      "type": "Feature",
      "geometry": {
        "type": "Point",
        "coordinates": [
          6.565998800000001,
          9.583589
        ]
      },
      "properties": {
        "name": "KPALEGI",
        "ward": "KWATACHI",
        "lga": "MASHEGU",
        "state": "NIGER"
      }
    },
    {
      "type": "Feature",
      "geometry": {
        "type": "Point",
        "coordinates": [
          6.565998800000001,
          9.583589
        ]
      },
      "properties": {
        "name": "UNG. KPABU",
        "ward": "KWATACHI",
        "lga": "MASHEGU",
        "state": "NIGER"
      }
    },
    {
      "type": "Feature",
      "geometry": {
        "type": "Point",
        "coordinates": [
          5.2769453,
          11.1702345
        ]
      },
      "properties": {
        "name": "TUNGAN BALA",
        "ward": "KWATACHI",
        "lga": "MASHEGU",
        "state": "NIGER"
      }
    },
    {
      "type": "Feature",
      "geometry": {
        "type": "Point",
        "coordinates": [
          4.6955398,
          9.6892246
        ]
      },
      "properties": {
        "name": "KANTI",
        "ward": "KWATACHI",
        "lga": "MASHEGU",
        "state": "NIGER"
      }
    },
    {
      "type": "Feature",
      "geometry": {
        "type": "Point",
        "coordinates": [
          5.3899842,
          10.1719336
        ]
      },
      "properties": {
        "name": "UNG. M. MAMAM B/RAMI  I",
        "ward": "BABBAN  RAMI",
        "lga": "MASHEGU",
        "state": "NIGER"
      }
    },
    {
      "type": "Feature",
      "geometry": {
        "type": "Point",
        "coordinates": [
          5.3899842,
          10.1719336
        ]
      },
      "properties": {
        "name": "UNG. M. MAMAM B/RAMI  II",
        "ward": "BABBAN  RAMI",
        "lga": "MASHEGU",
        "state": "NIGER"
      }
    },
    {
      "type": "Feature",
      "geometry": {
        "type": "Point",
        "coordinates": [
          5.3899842,
          10.1719336
        ]
      },
      "properties": {
        "name": "UNG. SALI",
        "ward": "BABBAN  RAMI",
        "lga": "MASHEGU",
        "state": "NIGER"
      }
    },
    {
      "type": "Feature",
      "geometry": {
        "type": "Point",
        "coordinates": [
          5.3311652,
          10.1942283
        ]
      },
      "properties": {
        "name": "UNG. MAMAMCHADI",
        "ward": "BABBAN  RAMI",
        "lga": "MASHEGU",
        "state": "NIGER"
      }
    },
    {
      "type": "Feature",
      "geometry": {
        "type": "Point",
        "coordinates": [
          5.3899842,
          10.1719336
        ]
      },
      "properties": {
        "name": "UNG. ALI MAIDOKI",
        "ward": "BABBAN  RAMI",
        "lga": "MASHEGU",
        "state": "NIGER"
      }
    },
    {
      "type": "Feature",
      "geometry": {
        "type": "Point",
        "coordinates": [
          5.3899842,
          10.1719336
        ]
      },
      "properties": {
        "name": "MALLAN BARAU",
        "ward": "BABBAN  RAMI",
        "lga": "MASHEGU",
        "state": "NIGER"
      }
    },
    {
      "type": "Feature",
      "geometry": {
        "type": "Point",
        "coordinates": [
          5.3899842,
          10.1719336
        ]
      },
      "properties": {
        "name": "UNG. ALTINE HAYI",
        "ward": "BABBAN  RAMI",
        "lga": "MASHEGU",
        "state": "NIGER"
      }
    },
    {
      "type": "Feature",
      "geometry": {
        "type": "Point",
        "coordinates": [
          5.3311652,
          10.1942283
        ]
      },
      "properties": {
        "name": "KARAMIN RAMI GABAS",
        "ward": "BABBAN  RAMI",
        "lga": "MASHEGU",
        "state": "NIGER"
      }
    },
    {
      "type": "Feature",
      "geometry": {
        "type": "Point",
        "coordinates": [
          5.3899842,
          10.1719336
        ]
      },
      "properties": {
        "name": "UNG. SANI",
        "ward": "BABBAN  RAMI",
        "lga": "MASHEGU",
        "state": "NIGER"
      }
    },
    {
      "type": "Feature",
      "geometry": {
        "type": "Point",
        "coordinates": [
          5.184715,
          10.31694
        ]
      },
      "properties": {
        "name": "MAGOGO",
        "ward": "BABBAN  RAMI",
        "lga": "MASHEGU",
        "state": "NIGER"
      }
    },
    {
      "type": "Feature",
      "geometry": {
        "type": "Point",
        "coordinates": [
          5.21393,
          10.28229
        ]
      },
      "properties": {
        "name": "LIKYAULE  I",
        "ward": "BABBAN  RAMI",
        "lga": "MASHEGU",
        "state": "NIGER"
      }
    },
    {
      "type": "Feature",
      "geometry": {
        "type": "Point",
        "coordinates": [
          5.21393,
          10.28229
        ]
      },
      "properties": {
        "name": "LIKYAULE  II",
        "ward": "BABBAN  RAMI",
        "lga": "MASHEGU",
        "state": "NIGER"
      }
    },
    {
      "type": "Feature",
      "geometry": {
        "type": "Point",
        "coordinates": [
          5.3899842,
          10.1719336
        ]
      },
      "properties": {
        "name": "KAWO MASUCI  I",
        "ward": "BABBAN  RAMI",
        "lga": "MASHEGU",
        "state": "NIGER"
      }
    },
    {
      "type": "Feature",
      "geometry": {
        "type": "Point",
        "coordinates": [
          5.3899842,
          10.1719336
        ]
      },
      "properties": {
        "name": "KAWO MASUCI  II",
        "ward": "BABBAN  RAMI",
        "lga": "MASHEGU",
        "state": "NIGER"
      }
    },
    {
      "type": "Feature",
      "geometry": {
        "type": "Point",
        "coordinates": [
          5.3311652,
          10.1942283
        ]
      },
      "properties": {
        "name": "UNG. GAMA",
        "ward": "BABBAN  RAMI",
        "lga": "MASHEGU",
        "state": "NIGER"
      }
    },
    {
      "type": "Feature",
      "geometry": {
        "type": "Point",
        "coordinates": [
          5.3899842,
          10.1719336
        ]
      },
      "properties": {
        "name": "UNG. ALI WANZAMI",
        "ward": "BABBAN  RAMI",
        "lga": "MASHEGU",
        "state": "NIGER"
      }
    },
    {
      "type": "Feature",
      "geometry": {
        "type": "Point",
        "coordinates": [
          5.1308,
          10.2329
        ]
      },
      "properties": {
        "name": "IBETON KARE",
        "ward": "BABBAN  RAMI",
        "lga": "MASHEGU",
        "state": "NIGER"
      }
    },
    {
      "type": "Feature",
      "geometry": {
        "type": "Point",
        "coordinates": [
          5.3311652,
          10.1942283
        ]
      },
      "properties": {
        "name": "JIBAMU",
        "ward": "BABBAN  RAMI",
        "lga": "MASHEGU",
        "state": "NIGER"
      }
    },
    {
      "type": "Feature",
      "geometry": {
        "type": "Point",
        "coordinates": [
          5.3311652,
          10.1942283
        ]
      },
      "properties": {
        "name": "JAGURA",
        "ward": "BABBAN  RAMI",
        "lga": "MASHEGU",
        "state": "NIGER"
      }
    },
    {
      "type": "Feature",
      "geometry": {
        "type": "Point",
        "coordinates": [
          5.3979338,
          10.2142024
        ]
      },
      "properties": {
        "name": "T/INGLISH",
        "ward": "BABBAN  RAMI",
        "lga": "MASHEGU",
        "state": "NIGER"
      }
    },
    {
      "type": "Feature",
      "geometry": {
        "type": "Point",
        "coordinates": [
          5.3899842,
          10.1719336
        ]
      },
      "properties": {
        "name": "SULU - BAWA",
        "ward": "BABBAN  RAMI",
        "lga": "MASHEGU",
        "state": "NIGER"
      }
    },
    {
      "type": "Feature",
      "geometry": {
        "type": "Point",
        "coordinates": [
          5.3899842,
          10.1719336
        ]
      },
      "properties": {
        "name": "UNGUWAN SHAMUWA",
        "ward": "BABBAN  RAMI",
        "lga": "MASHEGU",
        "state": "NIGER"
      }
    },
    {
      "type": "Feature",
      "geometry": {
        "type": "Point",
        "coordinates": [
          5.47007,
          10.39529
        ]
      },
      "properties": {
        "name": "MAKAZANTA PRIMARY SCHOOL",
        "ward": "MAZAKUKA/LIKORO",
        "lga": "MASHEGU",
        "state": "NIGER"
      }
    },
    {
      "type": "Feature",
      "geometry": {
        "type": "Point",
        "coordinates": [
          5.6332634,
          9.8187068
        ]
      },
      "properties": {
        "name": "KOKOROKO",
        "ward": "MAZAKUKA/LIKORO",
        "lga": "MASHEGU",
        "state": "NIGER"
      }
    },
    {
      "type": "Feature",
      "geometry": {
        "type": "Point",
        "coordinates": [
          4.943341999999999,
          10.1879543
        ]
      },
      "properties": {
        "name": "KOSO",
        "ward": "MAZAKUKA/LIKORO",
        "lga": "MASHEGU",
        "state": "NIGER"
      }
    },
    {
      "type": "Feature",
      "geometry": {
        "type": "Point",
        "coordinates": [
          5.0473729,
          10.066771
        ]
      },
      "properties": {
        "name": "LIKORO",
        "ward": "MAZAKUKA/LIKORO",
        "lga": "MASHEGU",
        "state": "NIGER"
      }
    },
    {
      "type": "Feature",
      "geometry": {
        "type": "Point",
        "coordinates": [
          5.161353,
          10.07394
        ]
      },
      "properties": {
        "name": "ROBU",
        "ward": "MAZAKUKA/LIKORO",
        "lga": "MASHEGU",
        "state": "NIGER"
      }
    },
    {
      "type": "Feature",
      "geometry": {
        "type": "Point",
        "coordinates": [
          5.399464,
          9.697763
        ]
      },
      "properties": {
        "name": "TUNGA GERO",
        "ward": "MAZAKUKA/LIKORO",
        "lga": "MASHEGU",
        "state": "NIGER"
      }
    },
    {
      "type": "Feature",
      "geometry": {
        "type": "Point",
        "coordinates": [
          5.138167999999999,
          10.05828
        ]
      },
      "properties": {
        "name": "KUPA",
        "ward": "MAZAKUKA/LIKORO",
        "lga": "MASHEGU",
        "state": "NIGER"
      }
    },
    {
      "type": "Feature",
      "geometry": {
        "type": "Point",
        "coordinates": [
          4.9562906,
          10.0156295
        ]
      },
      "properties": {
        "name": "CHIKOGI",
        "ward": "MAZAKUKA/LIKORO",
        "lga": "MASHEGU",
        "state": "NIGER"
      }
    },
    {
      "type": "Feature",
      "geometry": {
        "type": "Point",
        "coordinates": [
          6.565998800000001,
          9.583589
        ]
      },
      "properties": {
        "name": "UNG. ZABAMMA",
        "ward": "MAZAKUKA/LIKORO",
        "lga": "MASHEGU",
        "state": "NIGER"
      }
    },
    {
      "type": "Feature",
      "geometry": {
        "type": "Point",
        "coordinates": [
          5.1849219,
          9.6398309
        ]
      },
      "properties": {
        "name": "TUNGAN GERO",
        "ward": "MAZAKUKA/LIKORO",
        "lga": "MASHEGU",
        "state": "NIGER"
      }
    },
    {
      "type": "Feature",
      "geometry": {
        "type": "Point",
        "coordinates": [
          5.6332634,
          9.8187068
        ]
      },
      "properties": {
        "name": "KAWO I",
        "ward": "MASHEGU",
        "lga": "MASHEGU",
        "state": "NIGER"
      }
    },
    {
      "type": "Feature",
      "geometry": {
        "type": "Point",
        "coordinates": [
          5.6332634,
          9.8187068
        ]
      },
      "properties": {
        "name": "KAWO II",
        "ward": "MASHEGU",
        "lga": "MASHEGU",
        "state": "NIGER"
      }
    },
    {
      "type": "Feature",
      "geometry": {
        "type": "Point",
        "coordinates": [
          6.4549898,
          12.144636
        ]
      },
      "properties": {
        "name": "TANANGI",
        "ward": "MASHEGU",
        "lga": "MASHEGU",
        "state": "NIGER"
      }
    },
    {
      "type": "Feature",
      "geometry": {
        "type": "Point",
        "coordinates": [
          5.6332634,
          9.8187068
        ]
      },
      "properties": {
        "name": "UNG. SARKI JEMAKU",
        "ward": "MASHEGU",
        "lga": "MASHEGU",
        "state": "NIGER"
      }
    },
    {
      "type": "Feature",
      "geometry": {
        "type": "Point",
        "coordinates": [
          5.6349515,
          9.8462177
        ]
      },
      "properties": {
        "name": "DUBA",
        "ward": "MASHEGU",
        "lga": "MASHEGU",
        "state": "NIGER"
      }
    },
    {
      "type": "Feature",
      "geometry": {
        "type": "Point",
        "coordinates": [
          5.8309,
          9.7211
        ]
      },
      "properties": {
        "name": "BABAGI",
        "ward": "MASHEGU",
        "lga": "MASHEGU",
        "state": "NIGER"
      }
    },
    {
      "type": "Feature",
      "geometry": {
        "type": "Point",
        "coordinates": [
          5.6332634,
          9.8187068
        ]
      },
      "properties": {
        "name": "UNG. MADAWAKI JEMAKU",
        "ward": "MASHEGU",
        "lga": "MASHEGU",
        "state": "NIGER"
      }
    },
    {
      "type": "Feature",
      "geometry": {
        "type": "Point",
        "coordinates": [
          5.651992,
          9.767882
        ]
      },
      "properties": {
        "name": "TUNGAN NAKOKO",
        "ward": "MASHEGU",
        "lga": "MASHEGU",
        "state": "NIGER"
      }
    },
    {
      "type": "Feature",
      "geometry": {
        "type": "Point",
        "coordinates": [
          5.7503891,
          9.9301293
        ]
      },
      "properties": {
        "name": "RAFIN GORA",
        "ward": "MASHEGU",
        "lga": "MASHEGU",
        "state": "NIGER"
      }
    },
    {
      "type": "Feature",
      "geometry": {
        "type": "Point",
        "coordinates": [
          5.6332634,
          9.8187068
        ]
      },
      "properties": {
        "name": "SABON BAGAGI",
        "ward": "MASHEGU",
        "lga": "MASHEGU",
        "state": "NIGER"
      }
    },
    {
      "type": "Feature",
      "geometry": {
        "type": "Point",
        "coordinates": [
          5.6332634,
          9.8187068
        ]
      },
      "properties": {
        "name": "KOFAR FADA MASHEGU",
        "ward": "MASHEGU",
        "lga": "MASHEGU",
        "state": "NIGER"
      }
    },
    {
      "type": "Feature",
      "geometry": {
        "type": "Point",
        "coordinates": [
          8.4892197,
          11.9732563
        ]
      },
      "properties": {
        "name": "SABON GIDA",
        "ward": "MASHEGU",
        "lga": "MASHEGU",
        "state": "NIGER"
      }
    },
    {
      "type": "Feature",
      "geometry": {
        "type": "Point",
        "coordinates": [
          5.5714,
          10.0703
        ]
      },
      "properties": {
        "name": "MATANE",
        "ward": "MASHEGU",
        "lga": "MASHEGU",
        "state": "NIGER"
      }
    },
    {
      "type": "Feature",
      "geometry": {
        "type": "Point",
        "coordinates": [
          5.5769552,
          10.0798122
        ]
      },
      "properties": {
        "name": "MAGAMA",
        "ward": "MASHEGU",
        "lga": "MASHEGU",
        "state": "NIGER"
      }
    },
    {
      "type": "Feature",
      "geometry": {
        "type": "Point",
        "coordinates": [
          5.6332634,
          9.8187068
        ]
      },
      "properties": {
        "name": "KOFAR ADABO",
        "ward": "MASHEGU",
        "lga": "MASHEGU",
        "state": "NIGER"
      }
    },
    {
      "type": "Feature",
      "geometry": {
        "type": "Point",
        "coordinates": [
          5.6332634,
          9.8187068
        ]
      },
      "properties": {
        "name": "BASA MASHEGU",
        "ward": "MASHEGU",
        "lga": "MASHEGU",
        "state": "NIGER"
      }
    },
    {
      "type": "Feature",
      "geometry": {
        "type": "Point",
        "coordinates": [
          5.776231999999999,
          10.14454
        ]
      },
      "properties": {
        "name": "BUZANA I",
        "ward": "MASHEGU",
        "lga": "MASHEGU",
        "state": "NIGER"
      }
    },
    {
      "type": "Feature",
      "geometry": {
        "type": "Point",
        "coordinates": [
          5.776231999999999,
          10.14454
        ]
      },
      "properties": {
        "name": "BUZANA II",
        "ward": "MASHEGU",
        "lga": "MASHEGU",
        "state": "NIGER"
      }
    },
    {
      "type": "Feature",
      "geometry": {
        "type": "Point",
        "coordinates": [
          5.7624,
          10.0523
        ]
      },
      "properties": {
        "name": "DUTSEN MAGAJI",
        "ward": "MASHEGU",
        "lga": "MASHEGU",
        "state": "NIGER"
      }
    },
    {
      "type": "Feature",
      "geometry": {
        "type": "Point",
        "coordinates": [
          5.6332634,
          9.8187068
        ]
      },
      "properties": {
        "name": "UNGUWAN DABAI KAWO",
        "ward": "MASHEGU",
        "lga": "MASHEGU",
        "state": "NIGER"
      }
    },
    {
      "type": "Feature",
      "geometry": {
        "type": "Point",
        "coordinates": [
          5.6332634,
          9.8187068
        ]
      },
      "properties": {
        "name": "UNGUWAN DOKOKI KAWO",
        "ward": "MASHEGU",
        "lga": "MASHEGU",
        "state": "NIGER"
      }
    },
    {
      "type": "Feature",
      "geometry": {
        "type": "Point",
        "coordinates": [
          5.6332634,
          9.8187068
        ]
      },
      "properties": {
        "name": "DABBAN ALH. JEMAKU",
        "ward": "MASHEGU",
        "lga": "MASHEGU",
        "state": "NIGER"
      }
    },
    {
      "type": "Feature",
      "geometry": {
        "type": "Point",
        "coordinates": [
          5.6332634,
          9.8187068
        ]
      },
      "properties": {
        "name": "UNGUWAN MANGORORI",
        "ward": "MASHEGU",
        "lga": "MASHEGU",
        "state": "NIGER"
      }
    },
    {
      "type": "Feature",
      "geometry": {
        "type": "Point",
        "coordinates": [
          5.6332634,
          9.8187068
        ]
      },
      "properties": {
        "name": "UNGUWAN DAKARKARI",
        "ward": "MASHEGU",
        "lga": "MASHEGU",
        "state": "NIGER"
      }
    },
    {
      "type": "Feature",
      "geometry": {
        "type": "Point",
        "coordinates": [
          5.626295,
          9.939062
        ]
      },
      "properties": {
        "name": "JIGAWA PRY SCHOOL",
        "ward": "MASHEGU",
        "lga": "MASHEGU",
        "state": "NIGER"
      }
    },
    {
      "type": "Feature",
      "geometry": {
        "type": "Point",
        "coordinates": [
          6.5627268,
          9.5811922
        ]
      },
      "properties": {
        "name": "GIDAN RUWA",
        "ward": "MASHEGU",
        "lga": "MASHEGU",
        "state": "NIGER"
      }
    },
    {
      "type": "Feature",
      "geometry": {
        "type": "Point",
        "coordinates": [
          4.9350929,
          9.9103663
        ]
      },
      "properties": {
        "name": "KULHO MAKARANTA",
        "ward": "KULHO",
        "lga": "MASHEGU",
        "state": "NIGER"
      }
    },
    {
      "type": "Feature",
      "geometry": {
        "type": "Point",
        "coordinates": [
          5.033797,
          9.957332
        ]
      },
      "properties": {
        "name": "TALLE",
        "ward": "KULHO",
        "lga": "MASHEGU",
        "state": "NIGER"
      }
    },
    {
      "type": "Feature",
      "geometry": {
        "type": "Point",
        "coordinates": [
          5.2769453,
          11.1702345
        ]
      },
      "properties": {
        "name": "TUNGAN AJITA",
        "ward": "KULHO",
        "lga": "MASHEGU",
        "state": "NIGER"
      }
    },
    {
      "type": "Feature",
      "geometry": {
        "type": "Point",
        "coordinates": [
          4.9350929,
          9.9103663
        ]
      },
      "properties": {
        "name": "TUNGAN AJIYA",
        "ward": "KULHO",
        "lga": "MASHEGU",
        "state": "NIGER"
      }
    },
    {
      "type": "Feature",
      "geometry": {
        "type": "Point",
        "coordinates": [
          4.843545,
          9.916832
        ]
      },
      "properties": {
        "name": "BABUGI",
        "ward": "KULHO",
        "lga": "MASHEGU",
        "state": "NIGER"
      }
    },
    {
      "type": "Feature",
      "geometry": {
        "type": "Point",
        "coordinates": [
          6.462991499999999,
          10.3937395
        ]
      },
      "properties": {
        "name": "JAGABA",
        "ward": "KULHO",
        "lga": "MASHEGU",
        "state": "NIGER"
      }
    },
    {
      "type": "Feature",
      "geometry": {
        "type": "Point",
        "coordinates": [
          5.6332634,
          9.8187068
        ]
      },
      "properties": {
        "name": "FANGA",
        "ward": "KULHO",
        "lga": "MASHEGU",
        "state": "NIGER"
      }
    },
    {
      "type": "Feature",
      "geometry": {
        "type": "Point",
        "coordinates": [
          4.887178,
          9.933916
        ]
      },
      "properties": {
        "name": "MAI KADE",
        "ward": "KULHO",
        "lga": "MASHEGU",
        "state": "NIGER"
      }
    },
    {
      "type": "Feature",
      "geometry": {
        "type": "Point",
        "coordinates": [
          5.1849219,
          9.6398309
        ]
      },
      "properties": {
        "name": "UBEGI",
        "ward": "DAPANGI/MAKERA",
        "lga": "MASHEGU",
        "state": "NIGER"
      }
    },
    {
      "type": "Feature",
      "geometry": {
        "type": "Point",
        "coordinates": [
          5.1849219,
          9.6398309
        ]
      },
      "properties": {
        "name": "BISHE KACHI",
        "ward": "DAPANGI/MAKERA",
        "lga": "MASHEGU",
        "state": "NIGER"
      }
    },
    {
      "type": "Feature",
      "geometry": {
        "type": "Point",
        "coordinates": [
          5.6332634,
          9.8187068
        ]
      },
      "properties": {
        "name": "DANSHE",
        "ward": "DAPANGI/MAKERA",
        "lga": "MASHEGU",
        "state": "NIGER"
      }
    },
    {
      "type": "Feature",
      "geometry": {
        "type": "Point",
        "coordinates": [
          5.261922999999999,
          9.590141
        ]
      },
      "properties": {
        "name": "YENI GAGO",
        "ward": "DAPANGI/MAKERA",
        "lga": "MASHEGU",
        "state": "NIGER"
      }
    },
    {
      "type": "Feature",
      "geometry": {
        "type": "Point",
        "coordinates": [
          5.1849219,
          9.6398309
        ]
      },
      "properties": {
        "name": "DAFFAN",
        "ward": "DAPANGI/MAKERA",
        "lga": "MASHEGU",
        "state": "NIGER"
      }
    },
    {
      "type": "Feature",
      "geometry": {
        "type": "Point",
        "coordinates": [
          5.6332634,
          9.8187068
        ]
      },
      "properties": {
        "name": "KPANTUN",
        "ward": "DAPANGI/MAKERA",
        "lga": "MASHEGU",
        "state": "NIGER"
      }
    },
    {
      "type": "Feature",
      "geometry": {
        "type": "Point",
        "coordinates": [
          5.1849219,
          9.6398309
        ]
      },
      "properties": {
        "name": "BOKUTA",
        "ward": "DAPANGI/MAKERA",
        "lga": "MASHEGU",
        "state": "NIGER"
      }
    },
    {
      "type": "Feature",
      "geometry": {
        "type": "Point",
        "coordinates": [
          5.0494781,
          9.5393648
        ]
      },
      "properties": {
        "name": "TSWAFU",
        "ward": "DAPANGI/MAKERA",
        "lga": "MASHEGU",
        "state": "NIGER"
      }
    },
    {
      "type": "Feature",
      "geometry": {
        "type": "Point",
        "coordinates": [
          5.6332634,
          9.8187068
        ]
      },
      "properties": {
        "name": "EDANGI MAIANGUWAN",
        "ward": "DAPANGI/MAKERA",
        "lga": "MASHEGU",
        "state": "NIGER"
      }
    },
    {
      "type": "Feature",
      "geometry": {
        "type": "Point",
        "coordinates": [
          5.1849219,
          9.6398309
        ]
      },
      "properties": {
        "name": "TUNGAN GERO I",
        "ward": "DAPANGI/MAKERA",
        "lga": "MASHEGU",
        "state": "NIGER"
      }
    },
    {
      "type": "Feature",
      "geometry": {
        "type": "Point",
        "coordinates": [
          5.1849219,
          9.6398309
        ]
      },
      "properties": {
        "name": "TUNGAN GERO II",
        "ward": "DAPANGI/MAKERA",
        "lga": "MASHEGU",
        "state": "NIGER"
      }
    },
    {
      "type": "Feature",
      "geometry": {
        "type": "Point",
        "coordinates": [
          5.6332634,
          9.8187068
        ]
      },
      "properties": {
        "name": "DAPAGI",
        "ward": "DAPANGI/MAKERA",
        "lga": "MASHEGU",
        "state": "NIGER"
      }
    },
    {
      "type": "Feature",
      "geometry": {
        "type": "Point",
        "coordinates": [
          5.1849219,
          9.6398309
        ]
      },
      "properties": {
        "name": "BAKIN KASUWA MANIGI",
        "ward": "DAPANGI/MAKERA",
        "lga": "MASHEGU",
        "state": "NIGER"
      }
    },
    {
      "type": "Feature",
      "geometry": {
        "type": "Point",
        "coordinates": [
          6.2920425,
          10.2790115
        ]
      },
      "properties": {
        "name": "GIDAN GARBA",
        "ward": "DAPANGI/MAKERA",
        "lga": "MASHEGU",
        "state": "NIGER"
      }
    },
    {
      "type": "Feature",
      "geometry": {
        "type": "Point",
        "coordinates": [
          5.1849219,
          9.6398309
        ]
      },
      "properties": {
        "name": "PHIZHI",
        "ward": "DAPANGI/MAKERA",
        "lga": "MASHEGU",
        "state": "NIGER"
      }
    },
    {
      "type": "Feature",
      "geometry": {
        "type": "Point",
        "coordinates": [
          5.6332634,
          9.8187068
        ]
      },
      "properties": {
        "name": "UNG. MAKERI",
        "ward": "DAPANGI/MAKERA",
        "lga": "MASHEGU",
        "state": "NIGER"
      }
    },
    {
      "type": "Feature",
      "geometry": {
        "type": "Point",
        "coordinates": [
          5.1849219,
          9.6398309
        ]
      },
      "properties": {
        "name": "PHIZHI MARARABA",
        "ward": "DAPANGI/MAKERA",
        "lga": "MASHEGU",
        "state": "NIGER"
      }
    },
    {
      "type": "Feature",
      "geometry": {
        "type": "Point",
        "coordinates": [
          5.6332634,
          9.8187068
        ]
      },
      "properties": {
        "name": "UNG. ADAKAKA",
        "ward": "DAPANGI/MAKERA",
        "lga": "MASHEGU",
        "state": "NIGER"
      }
    },
    {
      "type": "Feature",
      "geometry": {
        "type": "Point",
        "coordinates": [
          5.6332634,
          9.8187068
        ]
      },
      "properties": {
        "name": "UNG. DABAI MANIGI",
        "ward": "DAPANGI/MAKERA",
        "lga": "MASHEGU",
        "state": "NIGER"
      }
    },
    {
      "type": "Feature",
      "geometry": {
        "type": "Point",
        "coordinates": [
          6.218141,
          10.1074
        ]
      },
      "properties": {
        "name": "UNG. SARKIN SAHO",
        "ward": "SAHO-RAMI",
        "lga": "MASHEGU",
        "state": "NIGER"
      }
    },
    {
      "type": "Feature",
      "geometry": {
        "type": "Point",
        "coordinates": [
          5.4679515,
          9.8402645
        ]
      },
      "properties": {
        "name": "KWATI",
        "ward": "SAHO-RAMI",
        "lga": "MASHEGU",
        "state": "NIGER"
      }
    },
    {
      "type": "Feature",
      "geometry": {
        "type": "Point",
        "coordinates": [
          5.6332634,
          9.8187068
        ]
      },
      "properties": {
        "name": "KAWO GABAS",
        "ward": "SAHO-RAMI",
        "lga": "MASHEGU",
        "state": "NIGER"
      }
    },
    {
      "type": "Feature",
      "geometry": {
        "type": "Point",
        "coordinates": [
          5.394327,
          9.784355
        ]
      },
      "properties": {
        "name": "NASARAWA  MULO",
        "ward": "SAHO-RAMI",
        "lga": "MASHEGU",
        "state": "NIGER"
      }
    },
    {
      "type": "Feature",
      "geometry": {
        "type": "Point",
        "coordinates": [
          5.3409716,
          9.826995
        ]
      },
      "properties": {
        "name": "FAJE",
        "ward": "SAHO-RAMI",
        "lga": "MASHEGU",
        "state": "NIGER"
      }
    },
    {
      "type": "Feature",
      "geometry": {
        "type": "Point",
        "coordinates": [
          5.393847,
          9.784425
        ]
      },
      "properties": {
        "name": "MULO",
        "ward": "SAHO-RAMI",
        "lga": "MASHEGU",
        "state": "NIGER"
      }
    },
    {
      "type": "Feature",
      "geometry": {
        "type": "Point",
        "coordinates": [
          5.3109039,
          9.7121607
        ]
      },
      "properties": {
        "name": "BEJI",
        "ward": "SAHO-RAMI",
        "lga": "MASHEGU",
        "state": "NIGER"
      }
    },
    {
      "type": "Feature",
      "geometry": {
        "type": "Point",
        "coordinates": [
          5.3520876,
          9.9040045
        ]
      },
      "properties": {
        "name": "FINGILE SAHO RAMI",
        "ward": "SAHO-RAMI",
        "lga": "MASHEGU",
        "state": "NIGER"
      }
    },
    {
      "type": "Feature",
      "geometry": {
        "type": "Point",
        "coordinates": [
          7.129938,
          10.0189106
        ]
      },
      "properties": {
        "name": "SARKIN PAWA S/RIJIA",
        "ward": "SAHO-RAMI",
        "lga": "MASHEGU",
        "state": "NIGER"
      }
    },
    {
      "type": "Feature",
      "geometry": {
        "type": "Point",
        "coordinates": [
          4.8799424,
          9.6366323
        ]
      },
      "properties": {
        "name": "BODINGA",
        "ward": "IBBI",
        "lga": "MASHEGU",
        "state": "NIGER"
      }
    },
    {
      "type": "Feature",
      "geometry": {
        "type": "Point",
        "coordinates": [
          4.7441862,
          9.578937
        ]
      },
      "properties": {
        "name": "DAJA PRIMARY SCHOOL",
        "ward": "IBBI",
        "lga": "MASHEGU",
        "state": "NIGER"
      }
    },
    {
      "type": "Feature",
      "geometry": {
        "type": "Point",
        "coordinates": [
          6.5719375,
          9.6315558
        ]
      },
      "properties": {
        "name": "DAJA MAI GODIYA",
        "ward": "IBBI",
        "lga": "MASHEGU",
        "state": "NIGER"
      }
    },
    {
      "type": "Feature",
      "geometry": {
        "type": "Point",
        "coordinates": [
          4.875565,
          9.539468
        ]
      },
      "properties": {
        "name": "ZUGURMA PRIMARY SCHOOL",
        "ward": "IBBI",
        "lga": "MASHEGU",
        "state": "NIGER"
      }
    },
    {
      "type": "Feature",
      "geometry": {
        "type": "Point",
        "coordinates": [
          5.08319,
          9.691443
        ]
      },
      "properties": {
        "name": "GWAJI",
        "ward": "IBBI",
        "lga": "MASHEGU",
        "state": "NIGER"
      }
    },
    {
      "type": "Feature",
      "geometry": {
        "type": "Point",
        "coordinates": [
          4.908983999999999,
          9.653576
        ]
      },
      "properties": {
        "name": "LEAPU",
        "ward": "IBBI",
        "lga": "MASHEGU",
        "state": "NIGER"
      }
    },
    {
      "type": "Feature",
      "geometry": {
        "type": "Point",
        "coordinates": [
          4.9740555,
          9.4460996
        ]
      },
      "properties": {
        "name": "ZAGURMA",
        "ward": "IBBI",
        "lga": "MASHEGU",
        "state": "NIGER"
      }
    },
    {
      "type": "Feature",
      "geometry": {
        "type": "Point",
        "coordinates": [
          6.180853,
          9.878072
        ]
      },
      "properties": {
        "name": "TUNGA HASSANA",
        "ward": "IBBI",
        "lga": "MASHEGU",
        "state": "NIGER"
      }
    },
    {
      "type": "Feature",
      "geometry": {
        "type": "Point",
        "coordinates": [
          4.9740555,
          9.4460996
        ]
      },
      "properties": {
        "name": "ZUGURMA AREWA",
        "ward": "IBBI",
        "lga": "MASHEGU",
        "state": "NIGER"
      }
    },
    {
      "type": "Feature",
      "geometry": {
        "type": "Point",
        "coordinates": [
          5.6332634,
          9.8187068
        ]
      },
      "properties": {
        "name": "KUSOKO",
        "ward": "IBBI",
        "lga": "MASHEGU",
        "state": "NIGER"
      }
    },
    {
      "type": "Feature",
      "geometry": {
        "type": "Point",
        "coordinates": [
          4.7380643,
          9.6323345
        ]
      },
      "properties": {
        "name": "GUNNA",
        "ward": "IBBI",
        "lga": "MASHEGU",
        "state": "NIGER"
      }
    },
    {
      "type": "Feature",
      "geometry": {
        "type": "Point",
        "coordinates": [
          5.056271,
          9.741711
        ]
      },
      "properties": {
        "name": "MULEA",
        "ward": "IBBI",
        "lga": "MASHEGU",
        "state": "NIGER"
      }
    },
    {
      "type": "Feature",
      "geometry": {
        "type": "Point",
        "coordinates": [
          5.6332634,
          9.8187068
        ]
      },
      "properties": {
        "name": "NAJATA UNG. SARKI",
        "ward": "IBBI",
        "lga": "MASHEGU",
        "state": "NIGER"
      }
    },
    {
      "type": "Feature",
      "geometry": {
        "type": "Point",
        "coordinates": [
          5.6332634,
          9.8187068
        ]
      },
      "properties": {
        "name": "UNG. SARKIN UNSMAN",
        "ward": "IBBI",
        "lga": "MASHEGU",
        "state": "NIGER"
      }
    },
    {
      "type": "Feature",
      "geometry": {
        "type": "Point",
        "coordinates": [
          6.5697816,
          9.0673817
        ]
      },
      "properties": {
        "name": "UNG. GUNGAWA",
        "ward": "IBBI",
        "lga": "MASHEGU",
        "state": "NIGER"
      }
    },
    {
      "type": "Feature",
      "geometry": {
        "type": "Point",
        "coordinates": [
          5.4699567,
          10.4071373
        ]
      },
      "properties": {
        "name": "UNG. KAMPANI",
        "ward": "KABOJI",
        "lga": "MASHEGU",
        "state": "NIGER"
      }
    },
    {
      "type": "Feature",
      "geometry": {
        "type": "Point",
        "coordinates": [
          5.3311652,
          10.0603119
        ]
      },
      "properties": {
        "name": "UNG. S/KABOJI  I",
        "ward": "KABOJI",
        "lga": "MASHEGU",
        "state": "NIGER"
      }
    },
    {
      "type": "Feature",
      "geometry": {
        "type": "Point",
        "coordinates": [
          5.3311652,
          10.0603119
        ]
      },
      "properties": {
        "name": "UNG. S/KABOJI  II",
        "ward": "KABOJI",
        "lga": "MASHEGU",
        "state": "NIGER"
      }
    },
    {
      "type": "Feature",
      "geometry": {
        "type": "Point",
        "coordinates": [
          5.295876,
          10.0371821
        ]
      },
      "properties": {
        "name": "TUNGAN BA'ARE",
        "ward": "KABOJI",
        "lga": "MASHEGU",
        "state": "NIGER"
      }
    },
    {
      "type": "Feature",
      "geometry": {
        "type": "Point",
        "coordinates": [
          6.5850483,
          9.2866653
        ]
      },
      "properties": {
        "name": "TUNGAN WANZAM",
        "ward": "KABOJI",
        "lga": "MASHEGU",
        "state": "NIGER"
      }
    },
    {
      "type": "Feature",
      "geometry": {
        "type": "Point",
        "coordinates": [
          11.481479,
          10.3211931
        ]
      },
      "properties": {
        "name": "UNG. DADI KOWA",
        "ward": "KABOJI",
        "lga": "MASHEGU",
        "state": "NIGER"
      }
    },
    {
      "type": "Feature",
      "geometry": {
        "type": "Point",
        "coordinates": [
          5.3311652,
          10.0603119
        ]
      },
      "properties": {
        "name": "TUNGAN KANSHI",
        "ward": "KABOJI",
        "lga": "MASHEGU",
        "state": "NIGER"
      }
    },
    {
      "type": "Feature",
      "geometry": {
        "type": "Point",
        "coordinates": [
          5.8538481,
          10.2383373
        ]
      },
      "properties": {
        "name": "SABON GARI",
        "ward": "KABOJI",
        "lga": "MASHEGU",
        "state": "NIGER"
      }
    },
    {
      "type": "Feature",
      "geometry": {
        "type": "Point",
        "coordinates": [
          6.4680458,
          9.5352979
        ]
      },
      "properties": {
        "name": "GIDAN MAI DAWA",
        "ward": "KASANGA",
        "lga": "MASHEGU",
        "state": "NIGER"
      }
    },
    {
      "type": "Feature",
      "geometry": {
        "type": "Point",
        "coordinates": [
          5.93413,
          10.1303
        ]
      },
      "properties": {
        "name": "LIFARI",
        "ward": "KASANGA",
        "lga": "MASHEGU",
        "state": "NIGER"
      }
    },
    {
      "type": "Feature",
      "geometry": {
        "type": "Point",
        "coordinates": [
          5.920021999999999,
          9.903327
        ]
      },
      "properties": {
        "name": "TABANI",
        "ward": "KASANGA",
        "lga": "MASHEGU",
        "state": "NIGER"
      }
    },
    {
      "type": "Feature",
      "geometry": {
        "type": "Point",
        "coordinates": [
          5.9160762,
          10.0343825
        ]
      },
      "properties": {
        "name": "GIDAN KWANO",
        "ward": "KASANGA",
        "lga": "MASHEGU",
        "state": "NIGER"
      }
    },
    {
      "type": "Feature",
      "geometry": {
        "type": "Point",
        "coordinates": [
          5.4699567,
          10.4071374
        ]
      },
      "properties": {
        "name": "GIDAN AHMADU",
        "ward": "KASANGA",
        "lga": "MASHEGU",
        "state": "NIGER"
      }
    },
    {
      "type": "Feature",
      "geometry": {
        "type": "Point",
        "coordinates": [
          6.565998800000001,
          9.583589
        ]
      },
      "properties": {
        "name": "UNGUWAN MAITAWULA",
        "ward": "KASANGA",
        "lga": "MASHEGU",
        "state": "NIGER"
      }
    },
    {
      "type": "Feature",
      "geometry": {
        "type": "Point",
        "coordinates": [
          6.5260598,
          9.6522186
        ]
      },
      "properties": {
        "name": "GIDAN SARKIN BOSSO  I",
        "ward": "BOSSO CENTRAL  II",
        "lga": "BOSSO",
        "state": "NIGER"
      }
    },
    {
      "type": "Feature",
      "geometry": {
        "type": "Point",
        "coordinates": [
          6.5196421,
          9.6560362
        ]
      },
      "properties": {
        "name": "GIDAN SAKIN BOSSO  II",
        "ward": "BOSSO CENTRAL  II",
        "lga": "BOSSO",
        "state": "NIGER"
      }
    },
    {
      "type": "Feature",
      "geometry": {
        "type": "Point",
        "coordinates": [
          6.525355299999999,
          9.665092
        ]
      },
      "properties": {
        "name": "TUDUN FULANI  I",
        "ward": "BOSSO CENTRAL  II",
        "lga": "BOSSO",
        "state": "NIGER"
      }
    },
    {
      "type": "Feature",
      "geometry": {
        "type": "Point",
        "coordinates": [
          6.525355299999999,
          9.665092
        ]
      },
      "properties": {
        "name": "TUDUN FULANI  II",
        "ward": "BOSSO CENTRAL  II",
        "lga": "BOSSO",
        "state": "NIGER"
      }
    },
    {
      "type": "Feature",
      "geometry": {
        "type": "Point",
        "coordinates": [
          6.5633012,
          9.6034535
        ]
      },
      "properties": {
        "name": "KADIRI  I",
        "ward": "BOSSO CENTRAL  II",
        "lga": "BOSSO",
        "state": "NIGER"
      }
    },
    {
      "type": "Feature",
      "geometry": {
        "type": "Point",
        "coordinates": [
          6.5311354,
          9.6777138
        ]
      },
      "properties": {
        "name": "KADIRI  II",
        "ward": "BOSSO CENTRAL  II",
        "lga": "BOSSO",
        "state": "NIGER"
      }
    },
    {
      "type": "Feature",
      "geometry": {
        "type": "Point",
        "coordinates": [
          6.5196421,
          9.6560362
        ]
      },
      "properties": {
        "name": "ANG. HAUSAWA",
        "ward": "BOSSO CENTRAL  II",
        "lga": "BOSSO",
        "state": "NIGER"
      }
    },
    {
      "type": "Feature",
      "geometry": {
        "type": "Point",
        "coordinates": [
          6.5196421,
          9.6560362
        ]
      },
      "properties": {
        "name": "SHIKPADNA",
        "ward": "BOSSO CENTRAL  II",
        "lga": "BOSSO",
        "state": "NIGER"
      }
    },
    {
      "type": "Feature",
      "geometry": {
        "type": "Point",
        "coordinates": [
          6.5623251,
          9.6773855
        ]
      },
      "properties": {
        "name": "TASAKPAN",
        "ward": "BOSSO CENTRAL  II",
        "lga": "BOSSO",
        "state": "NIGER"
      }
    },
    {
      "type": "Feature",
      "geometry": {
        "type": "Point",
        "coordinates": [
          6.514564399999999,
          9.6525014
        ]
      },
      "properties": {
        "name": "KOFAR KAFINTA",
        "ward": "BOSSO CENTRAL  II",
        "lga": "BOSSO",
        "state": "NIGER"
      }
    },
    {
      "type": "Feature",
      "geometry": {
        "type": "Point",
        "coordinates": [
          6.514564399999999,
          9.6525014
        ]
      },
      "properties": {
        "name": "KOFAR HUSSAINI DRIVER",
        "ward": "BOSSO CENTRAL  II",
        "lga": "BOSSO",
        "state": "NIGER"
      }
    },
    {
      "type": "Feature",
      "geometry": {
        "type": "Point",
        "coordinates": [
          6.5311354,
          9.6777138
        ]
      },
      "properties": {
        "name": "NAUTIKO",
        "ward": "BOSSO CENTRAL  II",
        "lga": "BOSSO",
        "state": "NIGER"
      }
    },
    {
      "type": "Feature",
      "geometry": {
        "type": "Point",
        "coordinates": [
          6.5311354,
          9.6777138
        ]
      },
      "properties": {
        "name": "ANG. MAI-YAKI",
        "ward": "BOSSO CENTRAL  II",
        "lga": "BOSSO",
        "state": "NIGER"
      }
    },
    {
      "type": "Feature",
      "geometry": {
        "type": "Point",
        "coordinates": [
          6.5311354,
          9.6777138
        ]
      },
      "properties": {
        "name": "OPEN SPACE ANG. MASA",
        "ward": "BOSSO CENTRAL  II",
        "lga": "BOSSO",
        "state": "NIGER"
      }
    },
    {
      "type": "Feature",
      "geometry": {
        "type": "Point",
        "coordinates": [
          6.5311354,
          9.6777138
        ]
      },
      "properties": {
        "name": "PUBLIC BOREHALL ANG. MASA",
        "ward": "BOSSO CENTRAL  II",
        "lga": "BOSSO",
        "state": "NIGER"
      }
    },
    {
      "type": "Feature",
      "geometry": {
        "type": "Point",
        "coordinates": [
          6.5285262,
          9.6563278
        ]
      },
      "properties": {
        "name": "T.JUNCTION ANG. GWARAWA",
        "ward": "BOSSO CENTRAL  II",
        "lga": "BOSSO",
        "state": "NIGER"
      }
    },
    {
      "type": "Feature",
      "geometry": {
        "type": "Point",
        "coordinates": [
          6.5196421,
          9.6560362
        ]
      },
      "properties": {
        "name": "GIDAN SARKIN BOSSO JUNCTION",
        "ward": "BOSSO CENTRAL  II",
        "lga": "BOSSO",
        "state": "NIGER"
      }
    },
    {
      "type": "Feature",
      "geometry": {
        "type": "Point",
        "coordinates": [
          6.525355299999999,
          9.665092
        ]
      },
      "properties": {
        "name": "TUDUN FULANI I BY RIVER BASIN FENCE",
        "ward": "BOSSO CENTRAL  II",
        "lga": "BOSSO",
        "state": "NIGER"
      }
    },
    {
      "type": "Feature",
      "geometry": {
        "type": "Point",
        "coordinates": [
          6.531368,
          9.6540154
        ]
      },
      "properties": {
        "name": "HEALTH CARE CENTER SABON ANGUWA",
        "ward": "BOSSO CENTRAL  II",
        "lga": "BOSSO",
        "state": "NIGER"
      }
    },
    {
      "type": "Feature",
      "geometry": {
        "type": "Point",
        "coordinates": [
          6.525355299999999,
          9.665092
        ]
      },
      "properties": {
        "name": "OPEN SPACE TUDUN FULANI CITY GATE",
        "ward": "BOSSO CENTRAL  II",
        "lga": "BOSSO",
        "state": "NIGER"
      }
    },
    {
      "type": "Feature",
      "geometry": {
        "type": "Point",
        "coordinates": [
          6.5196421,
          9.6560362
        ]
      },
      "properties": {
        "name": "BOSSO CITY JUNCTION",
        "ward": "BOSSO CENTRAL  II",
        "lga": "BOSSO",
        "state": "NIGER"
      }
    },
    {
      "type": "Feature",
      "geometry": {
        "type": "Point",
        "coordinates": [
          6.5196421,
          9.6560362
        ]
      },
      "properties": {
        "name": "SINZE",
        "ward": "BOSSO CENTRAL  II",
        "lga": "BOSSO",
        "state": "NIGER"
      }
    },
    {
      "type": "Feature",
      "geometry": {
        "type": "Point",
        "coordinates": [
          6.531368,
          9.6540154
        ]
      },
      "properties": {
        "name": "OLD BOSSO MARKET BY MUSA ABU ROAD",
        "ward": "BOSSO CENTRAL  II",
        "lga": "BOSSO",
        "state": "NIGER"
      }
    },
    {
      "type": "Feature",
      "geometry": {
        "type": "Point",
        "coordinates": [
          6.5311354,
          9.6777138
        ]
      },
      "properties": {
        "name": "OPEN SPACE FREE TOWN AREA",
        "ward": "BOSSO CENTRAL  II",
        "lga": "BOSSO",
        "state": "NIGER"
      }
    },
    {
      "type": "Feature",
      "geometry": {
        "type": "Point",
        "coordinates": [
          6.522448,
          9.6562736
        ]
      },
      "properties": {
        "name": "OPEN SPACE ADAMU LAKA STREET",
        "ward": "BOSSO CENTRAL  II",
        "lga": "BOSSO",
        "state": "NIGER"
      }
    },
    {
      "type": "Feature",
      "geometry": {
        "type": "Point",
        "coordinates": [
          6.514564399999999,
          9.6525014
        ]
      },